name,lat,lng,type
海底捞火锅(龙湖三千集店),30.679149504635337,104.10576726439749,餐饮服务;中餐厅;火锅店
必胜客,30.653988390053286,104.11186558290768,餐饮服务;快餐厅;必胜客
如轩海鲜粥城(建设路店),30.67457670053264,104.10367397797509,餐饮服务;中餐厅;广东菜(粤菜)
王品台塑牛排(万象城),30.652734631580643,104.11082769335516,餐饮服务;外国餐厅;牛扒店(扒房)
巴蜀大宅门火锅(新华公园店),30.662777559654845,104.10196154322055,餐饮服务;中餐厅;火锅店
小龙坎老火锅(双林店),30.656815019260677,104.10663502992895,餐饮服务;中餐厅;火锅店
彼德西餐(万象城),30.654027561296086,104.1121255374289,餐饮服务;外国餐厅;西餐厅(综合风味)
必胜客(建设店),30.67478059047752,104.10536374131179,餐饮服务;快餐厅;必胜客
得劲儿焖烤肉串(万象城店),30.648134972242158,104.11269471486966,餐饮服务;中餐厅;中餐厅
釜山料理(万象城),30.653860892393705,104.11089071864791,餐饮服务;外国餐厅;韩国料理
钢管厂五区小郡肝串串香(新华公园店),30.661449320414114,104.10140298482298,餐饮服务;中餐厅;特色/地方风味餐厅
红杏酒家(明珠店),30.680157766333096,104.10590531685378,餐饮服务;中餐厅;综合酒楼
席罐罐罐饭(双桥子店),30.6485270922706,104.10086694593626,餐饮服务;快餐厅;快餐厅
黄记煌三汁焖锅(万象城),30.65305299296373,104.11076713010081,餐饮服务;中餐厅;火锅店|餐饮服务;中餐厅;特色/地方风味餐厅
销魂掌(八里店),30.685258105147614,104.10924277878482,餐饮服务;中餐厅;四川菜(川菜)
北京汉丽轩韩式自助烤肉(SM购物广场),30.671986044828962,104.1086074891916,餐饮服务;外国餐厅;韩国料理
上野樱花回转料理(建设路店),30.675327259014367,104.10503564423544,餐饮服务;外国餐厅;日本料理
爱疯烤鱼(双林中横路店),30.653634979308087,104.1048735533558,餐饮服务;中餐厅;特色/地方风味餐厅
渝味晓宇火锅(新鸿路店),30.6654800893425,104.10211242822194,餐饮服务;中餐厅;火锅店
绝城芋儿鸡(红枫岭旗舰店),30.675312173701393,104.12200121556505,餐饮服务;中餐厅;中餐厅
牛华绿缘麻辣烫(建兴路店),30.675776575369184,104.11226344209852,餐饮服务;中餐厅;特色/地方风味餐厅
老成都主题串串辣手摧花,30.6620147830099,104.10355613176223,餐饮服务;中餐厅;火锅店
兄弟船(新鸿南路店),30.66265371759855,104.10165874744906,餐饮服务;外国餐厅;日本料理
盘盘烤第一(24城店),30.648417971871048,104.11262223712421,餐饮服务;中餐厅;中餐厅
比格比萨(SM购物广场),30.672525963214852,104.10758534325885,餐饮服务;快餐厅;快餐厅
海底捞火锅(龙湖三千集店),30.679149504635337,104.10576726439749,餐饮服务;中餐厅;火锅店
必胜客,30.653988390053286,104.11186558290768,餐饮服务;快餐厅;必胜客
如轩海鲜粥城(建设路店),30.67457670053264,104.10367397797509,餐饮服务;中餐厅;广东菜(粤菜)
王品台塑牛排(万象城),30.652734631580643,104.11082769335516,餐饮服务;外国餐厅;牛扒店(扒房)
巴蜀大宅门火锅(新华公园店),30.662777559654845,104.10196154322055,餐饮服务;中餐厅;火锅店
小龙坎老火锅(双林店),30.656815019260677,104.10663502992895,餐饮服务;中餐厅;火锅店
彼德西餐(万象城),30.654027561296086,104.1121255374289,餐饮服务;外国餐厅;西餐厅(综合风味)
必胜客(建设店),30.67478059047752,104.10536374131179,餐饮服务;快餐厅;必胜客
得劲儿焖烤肉串(万象城店),30.648134972242158,104.11269471486966,餐饮服务;中餐厅;中餐厅
釜山料理(万象城),30.653860892393705,104.11089071864791,餐饮服务;外国餐厅;韩国料理
钢管厂五区小郡肝串串香(新华公园店),30.661449320414114,104.10140298482298,餐饮服务;中餐厅;特色/地方风味餐厅
红杏酒家(明珠店),30.680157766333096,104.10590531685378,餐饮服务;中餐厅;综合酒楼
席罐罐罐饭(双桥子店),30.6485270922706,104.10086694593626,餐饮服务;快餐厅;快餐厅
黄记煌三汁焖锅(万象城),30.65305299296373,104.11076713010081,餐饮服务;中餐厅;火锅店|餐饮服务;中餐厅;特色/地方风味餐厅
销魂掌(八里店),30.685258105147614,104.10924277878482,餐饮服务;中餐厅;四川菜(川菜)
北京汉丽轩韩式自助烤肉(SM购物广场),30.671986044828962,104.1086074891916,餐饮服务;外国餐厅;韩国料理
上野樱花回转料理(建设路店),30.675327259014367,104.10503564423544,餐饮服务;外国餐厅;日本料理
爱疯烤鱼(双林中横路店),30.653634979308087,104.1048735533558,餐饮服务;中餐厅;特色/地方风味餐厅
渝味晓宇火锅(新鸿路店),30.6654800893425,104.10211242822194,餐饮服务;中餐厅;火锅店
绝城芋儿鸡(红枫岭旗舰店),30.675312173701393,104.12200121556505,餐饮服务;中餐厅;中餐厅
牛华绿缘麻辣烫(建兴路店),30.675776575369184,104.11226344209852,餐饮服务;中餐厅;特色/地方风味餐厅
老成都主题串串辣手摧花,30.6620147830099,104.10355613176223,餐饮服务;中餐厅;火锅店
兄弟船(新鸿南路店),30.66265371759855,104.10165874744906,餐饮服务;外国餐厅;日本料理
盘盘烤第一(24城店),30.648417971871048,104.11262223712421,餐饮服务;中餐厅;中餐厅
比格比萨(SM购物广场),30.672525963214852,104.10758534325885,餐饮服务;快餐厅;快餐厅
吴铭火锅(八里示范总店),30.6823359643201,104.11172863620732,餐饮服务;中餐厅;火锅店
THEOPENLIFE(成都万象城店),30.652588647682112,104.11064493158841,餐饮服务;中餐厅;中餐厅
二胖牛油串串(双林店),30.65745237907536,104.10554976860918,餐饮服务;快餐厅;快餐厅
大签门香串串(新华店),30.661550865653265,104.10195284778042,餐饮服务;中餐厅;火锅店
粤品(二十四城店),30.647916217756247,104.11322012593524,餐饮服务;中餐厅;广东菜(粤菜)
粉彩(万象城),30.65261683355736,104.11068888642308,餐饮服务;中餐厅;中餐厅
牛华绿缘(成都双桥子分店),30.651509196977006,104.1076005226224,餐饮服务;中餐厅;特色/地方风味餐厅
探鱼(成都龙湖三千集店),30.67879668527722,104.10556393186408,餐饮服务;中餐厅;特色/地方风味餐厅
大妙火锅(东区音乐公园店),30.674182282394188,104.11895515220353,餐饮服务;中餐厅;火锅店
焱铁烧(万象城),30.65356385845152,104.11053821046887,餐饮服务;外国餐厅;日本料理
农夫烤鱼(小龙桥店),30.659263937089463,104.10640052573245,餐饮服务;中餐厅;特色/地方风味餐厅
胡涂印象老串串(八里店),30.682404658942374,104.11356767133184,餐饮服务;中餐厅;中餐厅
大湾金牌万州烤鱼(中环路二仙桥东路段),30.678685974007337,104.13061836584218,餐饮服务;中餐厅;特色/地方风味餐厅
雷门(万象城),30.653905057664616,104.11124367311662,餐饮服务;外国餐厅;日本料理
加太贺烤肉(龙湖天街・三千集),30.679091004258833,104.10580338165593,餐饮服务;外国餐厅;韩国料理
咕噜咕噜涮涮锅(龙湖天街・三千集),30.678827131278645,104.10515183352925,餐饮服务;中餐厅;火锅店
食惠坊北京烤鸭(新华公园店),30.660995910201,104.10323400865335,餐饮服务;中餐厅;特色/地方风味餐厅
席罐罐罐饭(SM购物广场),30.67295153882434,104.10743050033047,餐饮服务;中餐厅;中餐厅
辣芙蓉三汁焖锅(SM购物广场),30.6720297837529,104.1077963282962,餐饮服务;中餐厅;火锅店|餐饮服务;中餐厅;特色/地方风味餐厅
大渔铁板烧(万象城),30.653847076360233,104.11244888638839,餐饮服务;外国餐厅;日本料理
重庆徐记君味原味老火锅,30.654445682407726,104.10555018204924,餐饮服务;中餐厅;中餐厅
万禾龙门火锅(新华公园店),30.66127615472743,104.10314047608318,餐饮服务;中餐厅;火锅店
火焱山火锅(牛市口路店),30.64516874289883,104.10402473874616,餐饮服务;中餐厅;火锅店
临江门毛肚火锅(双林路店),30.65609868768451,104.10641730466567,餐饮服务;中餐厅;火锅店
宽坝子花园火锅(建设店),30.68165896822255,104.11262502876481,餐饮服务;中餐厅;火锅店
龙江镇(东郊记忆店),30.676868371315337,104.12125111573627,餐饮服务;中餐厅;综合酒楼
牛莽莽全牛火锅(东郊店),30.674348382521213,104.11952987904502,餐饮服务;中餐厅;火锅店
铜人李火锅(建设路店),30.674620125262557,104.10353287982612,餐饮服务;中餐厅;火锅店
大龙火锅(成都店),30.657382342031006,104.10663999932085,餐饮服务;中餐厅;火锅店
豪客来(建设路店),30.674487199192367,104.10316810405108,餐饮服务;外国餐厅;西餐厅(综合风味)
草根串串(万兴店),30.656329870926683,104.1163588028031,餐饮服务;中餐厅;特色/地方风味餐厅
妈妈传(双林店),30.65742252037215,104.10474674671998,餐饮服务;中餐厅;中餐厅
千味涮(万象城),30.653656414584535,104.11081607291094,餐饮服务;中餐厅;火锅店
裕龙斑鱼庄(建设路店),30.675423896863638,104.12242503436595,餐饮服务;中餐厅;海鲜酒楼
一洋刺身(二十四城店),30.64842058460175,104.11351231408456,餐饮服务;外国餐厅;日本料理
川东长筷子耗儿鱼(万象润街店),30.648221134870766,104.11365065889649,餐饮服务;中餐厅;火锅店
秋野刺身(二十四城店),30.648308845447147,104.11342849265802,餐饮服务;外国餐厅;日本料理
锦食精致料理,30.67407729002968,104.11922638075202,餐饮服务;外国餐厅;日本料理
掂n潮汕牛肉火锅(成都万象城店),30.653030745382395,104.11095118612977,餐饮服务;中餐厅;中餐厅
四方阁(万年场店),30.658021510174184,104.11039518319208,餐饮服务;中餐厅;综合酒楼
四方阁(圣灯店),30.684710638771183,104.11765059371517,餐饮服务;中餐厅;综合酒楼
汉釜宫烤肉(银玺国际店),30.68131950025545,104.11193062310026,餐饮服务;中餐厅;特色/地方风味餐厅
盘子串串香(万兴街6号院南),30.656282950818287,104.11758999754072,餐饮服务;中餐厅;火锅店
幺妹串串香(万兴街总店),30.65628202689199,104.1174089830853,餐饮服务;中餐厅;火锅店
赛百味(万象城),30.653462629382673,104.11159148603942,餐饮服务;快餐厅;快餐厅
王记六合鱼,30.657330712381764,104.10497793592909,餐饮服务;中餐厅;中餐厅
韩记阿里郎烤肉,30.67553057231209,104.12286186403425,餐饮服务;外国餐厅;韩国料理
嘴巴叼罐罐鱼,30.67738906154694,104.122548213088,餐饮服务;中餐厅;中餐厅
石棉盘盘烤第一,30.654456788984003,104.1054981573719,餐饮服务;中餐厅;特色/地方风味餐厅
呼哈凉卷粉(万兴街店),30.654788391082782,104.11612054817938,餐饮服务;快餐厅;快餐厅
汉釜宫烤肉(银玺国际店),30.68131950025545,104.11193062310026,餐饮服务;中餐厅;特色/地方风味餐厅
盘子串串香(万兴街6号院南),30.656282950818287,104.11758999754072,餐饮服务;中餐厅;火锅店
王妈手撕烤兔(新鸿店),30.666007034933916,104.10706089199499,餐饮服务;中餐厅;特色/地方风味餐厅
幺妹串串香(万兴街总店),30.65628202689199,104.1174089830853,餐饮服务;中餐厅;火锅店
赛百味(万象城),30.653462629382673,104.11159148603942,餐饮服务;快餐厅;快餐厅
王记六合鱼,30.657330712381764,104.10497793592909,餐饮服务;中餐厅;中餐厅
韩记阿里郎烤肉,30.67553057231209,104.12286186403425,餐饮服务;外国餐厅;韩国料理
嘴巴叼罐罐鱼,30.67738906154694,104.122548213088,餐饮服务;中餐厅;中餐厅
石棉盘盘烤第一,30.654456788984003,104.1054981573719,餐饮服务;中餐厅;特色/地方风味餐厅
呼哈凉卷粉(万兴街店),30.654788391082782,104.11612054817938,餐饮服务;快餐厅;快餐厅
小龙坎老火锅(建设路店),30.677647336944,104.10524214017778,餐饮服务;中餐厅;中餐厅
麦当劳(SM购物广场),30.67335898590276,104.10723668864988,餐饮服务;快餐厅;麦当劳
糖门里蛋糕,30.687132398788485,104.10498979995792,餐饮服务;休闲餐饮场所;休闲餐饮场所
谢老怪口味菜馆,30.66504875371884,104.12771756054353,餐饮服务;中餐厅;中餐厅
九号码头(龙湖三千集店),30.67914249628082,104.10566226809956,餐饮服务;中餐厅;海鲜酒楼
满城虾跑(双桥店),30.648962882843982,104.10581469098487,餐饮服务;中餐厅;海鲜酒楼
海维克牛排馆HIGHWIC(双林店),30.656183294002926,104.10649015894951,餐饮服务;外国餐厅;牛扒店(扒房)
乡村基(SM购物广场),30.673104830459366,104.10736819599404,餐饮服务;快餐厅;快餐厅
肯德基(SM购物广场),30.671445884960537,104.10801448372068,餐饮服务;快餐厅;肯德基
肯德基(万象城),30.653704673159993,104.11103000749137,餐饮服务;快餐厅;肯德基
肯德基(经华北路店),30.649555845957394,104.1018953171876,餐饮服务;快餐厅;肯德基
德克士(双林路店),30.65870395879091,104.10129306940375,餐饮服务;快餐厅;快餐厅
东郊食堂(建设南路店),30.673851067442016,104.11785570042767,餐饮服务;中餐厅;中餐厅
正源火锅,30.677724560834058,104.11887023810023,餐饮服务;中餐厅;火锅店
集源江湖菜,30.65567275104221,104.10581401419559,餐饮服务;中餐厅;中餐厅
迷尚豆捞(建设路店),30.674620125262557,104.10353287982612,餐饮服务;中餐厅;火锅店
重庆孔亮火锅(建设南路店),30.674926139267917,104.12168094055421,餐饮服务;中餐厅;火锅店
Pizza4U(万年场店),30.646850464966498,104.11197376611227,餐饮服务;快餐厅;快餐厅
华莱士(十陵店),30.65660503193551,104.17744070977179,餐饮服务;快餐厅;快餐厅
桃园眷村(万象城店),30.65408276496713,104.11257448079932,餐饮服务;中餐厅;中餐厅
顺旺基(SM购物广场),30.671306690377882,104.10812576454101,餐饮服务;快餐厅;快餐厅
蛮易信(崔家店路店),30.67450329354921,104.13313472425729,餐饮服务;中餐厅;特色/地方风味餐厅
肯德基(双林DT店),30.657096179989306,104.10441830926689,餐饮服务;快餐厅;肯德基
港久茶餐厅(万象城),30.65347826080666,104.11046435448175,餐饮服务;快餐厅;茶餐厅
德克士(世纪联华店),30.681908557030976,104.11149644197643,餐饮服务;快餐厅;快餐厅
麦当劳(五桂桥客运站店),30.639550951821484,104.12391914704268,餐饮服务;快餐厅;麦当劳
红社老味火锅,30.65557352492565,104.10468008468075,餐饮服务;中餐厅;中餐厅
源汉石板烧烤,30.647758050105406,104.113384402796,餐饮服务;中餐厅;中餐厅
紫燕百味鸡(枫林店),30.67691416138132,104.12037394992315,餐饮服务;中餐厅;中餐厅
白沙乌江鱼(和平路店),30.661211894133725,104.17216593907433,餐饮服务;中餐厅;火锅店
金翠河港式茶餐厅(龙湖天街・三千集),30.678938965880825,104.10534163383686,餐饮服务;快餐厅;茶餐厅
三顾冒菜(成都圣灯店),30.674624832766575,104.11916530801642,餐饮服务;中餐厅;中餐厅
狮子楼(万年路总店),30.656933849921995,104.11114523501384,餐饮服务;中餐厅;火锅店
大厨小味土菜馆,30.655887250352304,104.1694725661549,餐饮服务;中餐厅;中餐厅
银格顿牛排餐厅(龙湖天街・三千集),30.678783590736096,104.10553495461201,餐饮服务;外国餐厅;牛扒店(扒房)
朕之味・养生粥(龙湖天街・三千集),30.678850021338317,104.10578584903838,餐饮服务;中餐厅;中餐厅
三顾冒菜(成都九熙商业广场店),30.647908530203367,104.13441195773494,餐饮服务;中餐厅;中餐厅
潮牛庄园(三千集店),30.679282794278684,104.10536796723568,餐饮服务;中餐厅;中餐厅
虹口烤兔(理工店)(暂停营业),30.6811061480062,104.13862830051131,餐饮服务;中餐厅;中餐厅
六婆串串香(十陵店),30.659906323305343,104.17741865533817,餐饮服务;中餐厅;火锅店|餐饮服务;中餐厅;特色/地方风味餐厅
油嘴滑舌串串香,30.675463580287804,104.11953270485506,餐饮服务;中餐厅;火锅店
吴记鲜毛肚牛杂火锅(总店),30.6467511177003,104.14871494829144,餐饮服务;中餐厅;火锅店
凹凸串串,30.647525027117826,104.10332184564685,餐饮服务;中餐厅;中餐厅
牙尖十八怪串串(全国总店),30.661967594943313,104.10315718214817,餐饮服务;中餐厅;中餐厅
卞氏菜根香(华润二十四城店),30.64907001810288,104.11374524800594,餐饮服务;中餐厅;四川菜(川菜)
小玩子料理(SM广场店),30.672491663174917,104.10762341357645,餐饮服务;外国餐厅;日本料理
真三味老火锅(双桥路),30.653375129127785,104.1047269972474,餐饮服务;中餐厅;火锅店
老铁哥老火锅,30.67063088820611,104.10654192768885,餐饮服务;中餐厅;火锅店
重庆万州烤鱼(建设西街店),30.670795939328347,104.10718766822663,餐饮服务;中餐厅;特色/地方风味餐厅
柒叁煨面(SM购物广场),30.67172219645403,104.1079239382752,餐饮服务;中餐厅;中餐厅
民间小灶土菜馆(成华区店),30.6531837609039,104.10463832525622,餐饮服务;中餐厅;四川菜(川菜)
宾GO 101(SM购物广场),30.67273255546671,104.10781596278578,餐饮服务;中餐厅;台湾菜
拜哥油卤串串(全国加盟总店),30.655335504990617,104.10518255930529,餐饮服务;中餐厅;中餐厅
九头牛鲜奶(万象城店),30.654789871747774,104.1129142551254,餐饮服务;休闲餐饮场所;休闲餐饮场所
人间食话,30.674957567072056,104.10426629192901,餐饮服务;中餐厅;中餐厅
U33猎潜艇牛排海鲜自助(龙湖三千集店),30.679298826667612,104.10557995612743,餐饮服务;中餐厅;海鲜酒楼
Vito's泰式料理小酒馆,30.673951106400903,104.110992884515,餐饮服务;中餐厅;中餐厅
胡涂印象老串串(经华南路店),30.648031337611815,104.10153983637232,餐饮服务;中餐厅;特色/地方风味餐厅
吉布鲁牛排・海鲜自助(万科・钻石广场),30.674096808682435,104.10139669460006,餐饮服务;外国餐厅;牛扒店(扒房)
上汤皇牛汤锅(桃蹊路旗舰店),30.684705936518444,104.1021991717271,餐饮服务;中餐厅;中餐厅
亲吃鱼(龙湖三千集店),30.67918683812626,104.10571418672883,餐饮服务;中餐厅;中餐厅
兵哥豌豆面(24城店),30.648352016768527,104.11371144652396,餐饮服务;中餐厅;中餐厅
云水越过桥米线(成都地区总店),30.644342136138853,104.10211786831442,餐饮服务;中餐厅;特色/地方风味餐厅
韩包子(建设路店),30.674620125262557,104.10353287982612,餐饮服务;中餐厅;中餐厅
渔歌子川菜河鲜馆(锦东路店),30.644064558906624,104.10157725337177,餐饮服务;中餐厅;四川菜(川菜)
首席・1956,30.67433132335785,104.11935589699499,餐饮服务;中餐厅;火锅店
重庆老太婆摊摊面(二环路东二段),30.67483253201801,104.10640173819546,餐饮服务;中餐厅;四川菜(川菜)
呈祥・东馆,30.670510764012207,104.10898338947464,餐饮服务;中餐厅;中餐厅
川调.清粥小菜(新华公园店),30.661529870974263,104.10158385148901,餐饮服务;中餐厅;四川菜(川菜)
大碗熊火锅米线(二十四城店),30.651142493835284,104.11429677311904,餐饮服务;中餐厅;中餐厅
刘师傅特味火锅兔头,30.661746260375683,104.10442871896653,餐饮服务;中餐厅;中餐厅
烟袋巷八宝粥(第二店),30.661407622186882,104.10220314007292,餐饮服务;快餐厅;快餐厅
塞外风情碳烤羊腿(双成三路店),30.648471428482907,104.11243713099172,餐饮服务;中餐厅;特色/地方风味餐厅
桥头鱼庄(灵龙路),30.65434758319163,104.16766321394722,餐饮服务;中餐厅;火锅店
碳香烧烤(万年场店),30.65206511302932,104.11659438512646,餐饮服务;中餐厅;特色/地方风味餐厅
私房水饺(双林分店),30.65395837374252,104.10923339251548,餐饮服务;中餐厅;中餐厅
砂鱼银行饭局(圣灯路店),30.677789990754988,104.11910513130937,餐饮服务;中餐厅;中餐厅
牛市口番茄煎蛋面(海椒市东街),30.63982804253609,104.10090163044119,餐饮服务;中餐厅;中餐厅
成都名小吃陆记蒸蒸糕店,30.667609703777888,104.1012552622808,餐饮服务;中餐厅;四川菜(川菜)
邓氏肥肠血旺,30.675922814297472,104.11219715084185,餐饮服务;中餐厅;中餐厅
蜀滋香鲜鱼坊(双桥店),30.6511273792604,104.10774319413763,餐饮服务;中餐厅;火锅店
胖舅舅烧烤(双建北巷),30.686171801876934,104.11083617813416,餐饮服务;中餐厅;特色/地方风味餐厅
岷江老灶房(华润店),30.648906384345914,104.11261841988676,餐饮服务;中餐厅;中餐厅
太安鱼(成都分店),30.65410690068323,104.12140522698672,餐饮服务;中餐厅;海鲜酒楼
乡巴佬土碗菜,30.652063978664284,104.11687041180271,餐饮服务;中餐厅;中餐厅
关刀即时捞冒菜(SM广场店),30.671327783118866,104.1082977396474,餐饮服务;中餐厅;四川菜(川菜)
双桥美味肥肠粉(水碾河店),30.64594992843513,104.10413149406011,餐饮服务;中餐厅;中餐厅
重庆老Y裹老火锅,30.651125380422368,104.10770919438389,餐饮服务;中餐厅;火锅店
老五牛肉面(成都建设北路店),30.67978302718485,104.10515397403749,餐饮服务;中餐厅;中餐厅
重庆江北老灶火锅(万年场分店)(装修中),30.653886264014137,104.12141061804397,餐饮服务;中餐厅;火锅店
厕所串串(建设西路分店),30.670357072784956,104.10562637221474,餐饮服务;中餐厅;中餐厅
林妹妹沾水米线(万象城店),30.654782186213207,104.11210319456593,餐饮服务;中餐厅;中餐厅
古杂面,30.676953438793532,104.12047388208357,餐饮服务;中餐厅;中餐厅
状元冒菜(十陵店),30.657393006155992,104.17744227833853,餐饮服务;中餐厅;中餐厅
天天梭边鱼(下涧槽店),30.68276217700287,104.13561285830548,餐饮服务;中餐厅;中餐厅
空签签火锅串串(双桥总店),30.651412382177508,104.10785371351822,餐饮服务;中餐厅;中餐厅
绝味美蛙鱼头(双林中横路),30.653582607560182,104.104840642591,餐饮服务;中餐厅;海鲜酒楼
阿龙简阳羊肉汤锅,30.66145996504754,104.10451526358727,餐饮服务;中餐厅;中餐厅
1号签,30.647940186420715,104.11365312568948,餐饮服务;中餐厅;中餐厅
周四姐嗨森串串(东篱路175号院东南),30.659369141201047,104.11206685887953,餐饮服务;中餐厅;火锅店
饪和薄荷羊肉米线(SM广场店),30.674376055953413,104.1100439685761,餐饮服务;中餐厅;特色/地方风味餐厅
大城小面(双林南支路店),30.65397741679073,104.10944737873561,餐饮服务;中餐厅;四川菜(川菜)
叽嘎嘎柴火鸡,30.684120867995308,104.13020280178795,餐饮服务;中餐厅;中餐厅
皇城肺片(光明店),30.66623493728982,104.10692344274884,餐饮服务;中餐厅;中餐厅
李强牛肉米线(双桥路),30.654382115924967,104.10139489691164,餐饮服务;中餐厅;中餐厅
Pizza4U(红枫岭店),30.675347405357588,104.12212715776761,餐饮服务;快餐厅;快餐厅
红瓦房火锅,30.652656052770798,104.10428321594696,餐饮服务;中餐厅;火锅店
沙河小院,30.666766982017787,104.11607926447492,餐饮服务;中餐厅;综合酒楼
the Frypan(SM购物广场),30.671668439204023,104.10859910586967,餐饮服务;外国餐厅;韩国料理
叶氏烤鸭冒菜馆,30.683340792150773,104.11896934703645,餐饮服务;中餐厅;特色/地方风味餐厅
贺氏洪七公吃串串(新鸿南路店),30.664590164342204,104.10163707856206,餐饮服务;中餐厅;火锅店
老寨子火锅(罗兰小镇店),30.678867565322815,104.13041999603055,餐饮服务;中餐厅;火锅店
贝克汉堡(理工店),30.68167503373506,104.13606599739893,餐饮服务;快餐厅;快餐厅
乾丰耗儿鱼(旗舰店),30.67057404782898,104.1073441134268,餐饮服务;中餐厅;海鲜酒楼
华都食府(中环路崔家店路段),30.675083918223258,104.13347661967222,餐饮服务;中餐厅;中餐厅
三倒拐耗儿鱼(双福三路店),30.6520670328394,104.11680040023417,餐饮服务;中餐厅;火锅店
奇味奇川菜馆,30.680684619470846,104.1302604503057,餐饮服务;中餐厅;四川菜(川菜)
包包妹的烧烤店,30.67421897858811,104.10957823157749,餐饮服务;中餐厅;特色/地方风味餐厅
美女串串香(总店),30.661691759460762,104.10458283582453,餐饮服务;中餐厅;特色/地方风味餐厅
牟记正点牛肉抄手,30.65732602168929,104.10640107933278,餐饮服务;中餐厅;中餐厅
丁丁铺盖面,30.685843960944556,104.10488324735829,餐饮服务;中餐厅;中餐厅
合口味餐厅(二环路东三段),30.65601425202791,104.11033082285857,餐饮服务;中餐厅;中餐厅
ONADORE(万象城),30.65348194585045,104.11121141700525,餐饮服务;休闲餐饮场所;休闲餐饮场所
碰香老火锅(8号店),30.647917763281157,104.13624208809007,餐饮服务;中餐厅;火锅店
成华区大品碗中餐馆(万年场店),30.652409212518194,104.10873306697636,餐饮服务;中餐厅;中餐厅
黑壹龙虾,30.672289854679107,104.11007803497023,餐饮服务;中餐厅;特色/地方风味餐厅
牛华朱弟烧烤(双林店),30.659173234484108,104.1063996930653,餐饮服务;中餐厅;特色/地方风味餐厅
食惠坊北京烤鸭(厂北店),30.680416561462415,104.10874308053104,餐饮服务;中餐厅;特色/地方风味餐厅
吃货花甲米线(双林北支路店),30.661171753514214,104.10439679136131,餐饮服务;中餐厅;中餐厅
邱记野菌王砂锅,30.66180000132765,104.10158134498441,餐饮服务;中餐厅;中餐厅
庆云面,30.661288409216734,104.10279842034035,餐饮服务;中餐厅;中餐厅
赞碟串串,30.68745955726103,104.1039350777016,餐饮服务;中餐厅;特色/地方风味餐厅
重庆三江鱼火锅(积步街店),30.656551882463926,104.11564133693837,餐饮服务;中餐厅;火锅店
百味小菌肝砂锅串串(华润店),30.64762977723537,104.11204049176374,餐饮服务;中餐厅;中餐厅
创鑫美国肥牛(SM购物广场),30.67141457412877,104.10812955531878,餐饮服务;中餐厅;火锅店
钢管厂五区小郡肝串串香(建设南路店)(装修中),30.673541035308865,104.11460401319081,餐饮服务;中餐厅;火锅店
鑫源碟串串香(新鸿路店),30.669705345356615,104.10433051178133,餐饮服务;中餐厅;火锅店
灌县老妈砂锅串串(旗舰店),30.67232918233767,104.11006895761805,餐饮服务;中餐厅;特色/地方风味餐厅
牛王庙二姐面馆(建设南路店),30.675816560684112,104.11939000393757,餐饮服务;中餐厅;中餐厅
小牛肉串串香(双桥店),30.65018944260433,104.10385843108365,餐饮服务;中餐厅;火锅店
巷子深老串串,30.666758587408058,104.10387214948166,餐饮服务;中餐厅;火锅店
渝味面(成都总店),30.674449530873748,104.11032385124598,餐饮服务;中餐厅;中餐厅
长兴食府(双林路店),30.656633084762575,104.1056602674411,餐饮服务;中餐厅;综合酒楼
永康火锅・干锅(成华店),30.678704105273976,104.13065733373482,餐饮服务;中餐厅;火锅店
高逸食府,30.656939291607735,104.10592473734113,餐饮服务;中餐厅;火锅店
小莶РЪ,30.651940282212365,104.10330936906621,餐饮服务;中餐厅;中餐厅
壹号牛杂火锅(积步街店),30.65638360466461,104.11564664174352,餐饮服务;中餐厅;火锅店
钢管厂五区小郡肝串串香(新华公园二店),30.66091605355889,104.10589641128352,餐饮服务;中餐厅;火锅店
坝坝汇砂锅串串香(跳蹬河北路),30.663237203238694,104.11710108167728,餐饮服务;中餐厅;中餐厅
顺财河鲜自助火锅,30.66165886564358,104.10163061434857,餐饮服务;中餐厅;火锅店
味之绝美蛙鱼头店,30.674529535090493,104.10319702428887,餐饮服务;中餐厅;中餐厅
酒盖小酒馆,30.67175618169052,104.10213932289678,餐饮服务;中餐厅;中餐厅
顺水鱼馆(十陵店),30.655739967502345,104.16766472521921,餐饮服务;中餐厅;海鲜酒楼
张妈串串香(耀之城店),30.67382180514103,104.10936098545629,餐饮服务;中餐厅;火锅店
TT老火锅(万象城店),30.64798417350984,104.11215391565302,餐饮服务;中餐厅;火锅店
蜀皇全牛宴,30.673124537421508,104.11474883754268,餐饮服务;中餐厅;火锅店
重庆铁锅儿小火锅(双桥店),30.65010213299358,104.10317651430357,餐饮服务;中餐厅;火锅店
重庆好吃嘴冷锅鱼(东方惠城分店),30.65934422098658,104.14410157482743,餐饮服务;中餐厅;四川菜(川菜)
西昌印象火盆烧烤(双林店),30.6551601026019,104.10972830041638,餐饮服务;中餐厅;中餐厅
铁门杂酱面,30.644429628282925,104.10230274794236,餐饮服务;中餐厅;中餐厅
口口香串串(新鸿南支路),30.663699414665096,104.10515110605117,餐饮服务;中餐厅;中餐厅
口口香肥肠粉(双林北支路),30.661392468246945,104.10227817565585,餐饮服务;中餐厅;四川菜(川菜)
张扬烤,30.673868474532675,104.11942880552955,餐饮服务;中餐厅;特色/地方风味餐厅
何记生态乌鱼庄(十陵店),30.66072941509338,104.1780911597167,餐饮服务;中餐厅;海鲜酒楼
崔娘烧烤,30.681398793202728,104.11692492119613,餐饮服务;中餐厅;特色/地方风味餐厅
万力多川菜馆,30.656273728850543,104.17481016875524,餐饮服务;中餐厅;四川菜(川菜)
撸个串钢管厂小郡肝串串香,30.67382785414322,104.11790274983959,餐饮服务;中餐厅;火锅店
静享小厨,30.66252240498292,104.11521626124264,餐饮服务;中餐厅;四川菜(川菜)
亚马逊烤肉(SM购物广场),30.671785732045254,104.10789481204208,餐饮服务;外国餐厅;巴西菜
烤友社(成大店),30.656233424025135,104.17920747318637,餐饮服务;中餐厅;特色/地方风味餐厅
棒棒娃老火锅,30.673007119837177,104.11143876449724,餐饮服务;中餐厅;火锅店
藤椒鱼火锅(万年场店),30.65613897124462,104.11735223620337,餐饮服务;中餐厅;火锅店
乐の里无碳烤肉,30.675542758666797,104.1226788244841,餐饮服务;中餐厅;特色/地方风味餐厅
乐活时尚麻辣香锅(SM购物广场),30.67280631866471,104.10748278796163,餐饮服务;中餐厅;特色/地方风味餐厅
满当当原炭烤鱼(SM购物广场),30.67335185119591,104.10739871776212,餐饮服务;中餐厅;特色/地方风味餐厅
蜀九香火锅酒楼(SM店),30.67256477817612,104.11293776287987,餐饮服务;中餐厅;火锅店
简粥坊(小龙桥店),30.662523505898793,104.10636744233878,餐饮服务;中餐厅;中餐厅
骨随元汤排骨汤锅馆(龙湖店),30.678889376774496,104.10572176636596,餐饮服务;中餐厅;中餐厅
小龙坎(sm广场形象店),30.674085014914027,104.10714426532897,餐饮服务;中餐厅;火锅店
虾皇蟹后(东郊记忆店),30.674049147020053,104.11903641886269,餐饮服务;中餐厅;海鲜酒楼
等等老火锅(万象城店),30.652315686627144,104.1083921980723,餐饮服务;中餐厅;中餐厅
钢管厂五区小郡肝串串香(华润润街店),30.64783319473204,104.11201015263886,餐饮服务;中餐厅;中餐厅
宜宾燃面(枫林店),30.676993731163048,104.12055981103778,餐饮服务;中餐厅;中餐厅
小弹壳主题火锅,30.648296929322886,104.11306247909366,餐饮服务;中餐厅;中餐厅
三顾冒菜(东篱店),30.659195834106377,104.11198817168291,餐饮服务;中餐厅;中餐厅
贵州花溪牛羊肉米粉(广场北路店),30.67980114469909,104.10522194526266,餐饮服务;中餐厅;中餐厅
毛记冒菜(sm广场店),30.674201855622858,104.10953926133486,餐饮服务;中餐厅;中餐厅
宜宾燃面(建和路店),30.675883254122482,104.10630868049132,餐饮服务;中餐厅;中餐厅
大湾金牌万州烤鱼(成大店),30.655292164025223,104.1796451884699,餐饮服务;中餐厅;特色/地方风味餐厅
宜宾燃面(东华一路),30.6846924102321,104.13682023494808,餐饮服务;中餐厅;中餐厅
巴山香重庆老火锅,30.687312809344252,104.14930216131093,餐饮服务;中餐厅;火锅店
蜀艮庭生态火锅(成都店),30.664258289389412,104.12369472389217,餐饮服务;中餐厅;火锅店
马上烤好(华润二十四城店),30.64871704996201,104.11263973907919,餐饮服务;中餐厅;特色/地方风味餐厅
状元水饺(SM购物广场),30.671630425730026,104.10796012003216,餐饮服务;中餐厅;特色/地方风味餐厅
凡仔汉堡(双林北支路),30.661174827587214,104.10428877531731,餐饮服务;快餐厅;快餐厅
新仙清汤牛腩(万象城店),30.653894533955512,104.11221678120393,餐饮服务;中餐厅;中餐厅
乐萨客(建设南路店),30.6737999993979,104.12351329398675,餐饮服务;快餐厅;快餐厅
魔鬼烤鱼(万象城店),30.64832347147687,104.11227736300931,餐饮服务;中餐厅;特色/地方风味餐厅
东郊人民食堂,30.668662254724037,104.1012792356009,餐饮服务;中餐厅;中餐厅
三顾冒菜(成都长融店),30.655581988567977,104.1387210226151,餐饮服务;中餐厅;中餐厅
宜宾燃面(蓝光东方天地店),30.665004095862876,104.12620451847528,餐饮服务;中餐厅;中餐厅
顺旺基(龙湖天街・三千集),30.679061108807165,104.10505836923836,餐饮服务;快餐厅;快餐厅
占花儿牛油串串,30.66087192416366,104.1054274491828,餐饮服务;中餐厅;中餐厅
小吴越江浙融合菜(SM购物广场),30.67226879550063,104.10769685408681,餐饮服务;中餐厅;中餐厅
宜宾燃面(双林南支路店),30.65393821243395,104.10925943061315,餐饮服务;中餐厅;中餐厅
三顾冒菜(华林小区店),30.686530603105265,104.13635568013143,餐饮服务;中餐厅;中餐厅
皮皮兔火锅(总店),30.670261563195275,104.10718470438647,餐饮服务;中餐厅;火锅店
碗碗香面店(杉板桥路),30.66695235427295,104.11204754293105,餐饮服务;中餐厅;中餐厅
百味鲜餐馆(万年场店),30.659324804146774,104.11639433317397,餐饮服务;中餐厅;中餐厅
粥庄(培华店),30.671140528871714,104.10127643578643,餐饮服务;中餐厅;中餐厅
张记蘸水肥肠粉(双林路店),30.65533414114118,104.10595263478248,餐饮服务;中餐厅;四川菜(川菜)
巅峰羊肉串大王,30.654769026600203,104.11441842916237,餐饮服务;快餐厅;快餐厅
杀牛场老灶火锅(建设路店),30.67927256569102,104.10355481451825,餐饮服务;中餐厅;火锅店
食悦天美食广场(万象城),30.653049248407665,104.11014907945804,餐饮服务;中餐厅;综合酒楼
乡坝老火锅(和顺路店),30.667611902346213,104.14177377013078,餐饮服务;中餐厅;火锅店
化隆牛肉拉面(建兴店),30.674266298620207,104.10972815325358,餐饮服务;中餐厅;清真菜馆
宜宾燃面(二环路东二段),30.677401653784592,104.10450354883835,餐饮服务;中餐厅;中餐厅
宜宾燃面(小龙桥路店),30.664538418202152,104.10666265646171,餐饮服务;中餐厅;特色/地方风味餐厅
蕃茄煎蛋面(水碾河路),30.648328910038888,104.10262344619748,餐饮服务;中餐厅;中餐厅
雷公椒,30.66333497672403,104.10630590519106,餐饮服务;中餐厅;中餐厅
聚味轩饭庄(崔家店路店),30.67006068097262,104.13345439041262,餐饮服务;中餐厅;中餐厅
火马经典本味火锅,30.648285620229636,104.11356854409696,餐饮服务;中餐厅;中餐厅
藤椒抄手(万象城店),30.65616981473637,104.11602206153508,餐饮服务;中餐厅;中餐厅
宜宾燃面(建业路店),30.673132943565072,104.10975636410818,餐饮服务;中餐厅;中餐厅
云南天麻火腿鸡(十陵店),30.658709214673543,104.17712785164416,餐饮服务;中餐厅;中餐厅
顺旺基&大食堂(万科・钻石广场),30.674181764751633,104.10085347647727,餐饮服务;中餐厅;中餐厅
兰州牛肉拉面(建材店),30.647692191349183,104.13407428872269,餐饮服务;中餐厅;清真菜馆
鱼悦老坛酸菜鱼,30.674964903709302,104.12073178233904,餐饮服务;中餐厅;中餐厅
偶闲私小厨,30.67319042217018,104.10974525113912,餐饮服务;中餐厅;中餐厅
柴门头啖汤(中粮店),30.642383689704282,104.11039469831258,餐饮服务;中餐厅;综合酒楼
涵记麻辣空间小火锅,30.655593114977805,104.11678816814879,餐饮服务;中餐厅;火锅店
蓉锦1号,30.6739819140594,104.11835048929524,餐饮服务;中餐厅;中餐厅
翘脚牛肉,30.646570934488988,104.11335434867934,餐饮服务;中餐厅;中餐厅
双椒鲜鱼,30.662533956626945,104.10557234744931,餐饮服务;中餐厅;中餐厅
面小2,30.673927553583713,104.11816357868157,餐饮服务;中餐厅;中餐厅
白家周记冒节子肥肠粉(经华南路店),30.64815918867708,104.1016186316527,餐饮服务;中餐厅;中餐厅
知味串串香,30.652780068102977,104.1106005928778,餐饮服务;中餐厅;中餐厅
三顾冒菜(华润二十四城店),30.64831104935384,104.11301445119143,餐饮服务;中餐厅;中餐厅
重庆老太婆摊摊面(成都总店),30.653065867727733,104.10906294931786,餐饮服务;中餐厅;中餐厅
钢管厂后门小郡肝串串香(崔家店),30.66502249461796,104.1278226193839,餐饮服务;中餐厅;中餐厅
徐记吃货串串香(成华店),30.651247903241227,104.10412064358233,餐饮服务;中餐厅;火锅店
钢五区节子串串香,30.641233048681627,104.10680610898063,餐饮服务;中餐厅;中餐厅
重庆叮叮冷锅鱼(建业路),30.67417870592107,104.10945129828741,餐饮服务;中餐厅;四川菜(川菜)
康达人民食堂土菜馆,30.64427539512553,104.135865952924,餐饮服务;中餐厅;中餐厅
花串串(万年场紫东四十三分店),30.652068075141397,104.11672439162143,餐饮服务;中餐厅;火锅店
周记串串香(东篱路),30.65936620041324,104.11188884797588,餐饮服务;中餐厅;中餐厅
美味轩(华林二路),30.687077249236516,104.1359116038274,餐饮服务;中餐厅;中餐厅
许记川菜,30.644475884601484,104.10240968511104,餐饮服务;中餐厅;四川菜(川菜)
食刻(牛市口店),30.645905663007913,104.1040595586528,餐饮服务;中餐厅;中餐厅
粥道(东篱路店),30.65944046557509,104.11256377258871,餐饮服务;中餐厅;中餐厅
三顾冒菜(东方天地店),30.665360054605532,104.12598182070934,餐饮服务;中餐厅;中餐厅
皇味养生黄牛肉(建设北路店),30.682396611209665,104.11352868335054,餐饮服务;中餐厅;中餐厅
宜宾燃面(建设北路店),30.680108249689837,104.10401723375155,餐饮服务;中餐厅;中餐厅
家常川菜馆(东一环店),30.659011009070984,104.1063329859296,餐饮服务;中餐厅;四川菜(川菜)
鑫旺家常菜(万象城店),30.652353951369157,104.10842313431272,餐饮服务;中餐厅;中餐厅
鸿运饭店,30.681255910955215,104.10995356417357,餐饮服务;中餐厅;中餐厅
老实人萝卜干,30.64862557950329,104.10130582394068,餐饮服务;中餐厅;中餐厅
井禾精・致・寿・司,30.674017405143513,104.10725540753972,餐饮服务;外国餐厅;日本料理
爱尚餐馆(东方天地店),30.66527635437211,104.12604298562019,餐饮服务;中餐厅;中餐厅
小小居特色砂锅(理工聚星小吃城店),30.677475809475148,104.13526209827945,餐饮服务;快餐厅;快餐厅
重庆懒羊羊纸包鱼,30.67227065373382,104.1101700808458,餐饮服务;中餐厅;四川菜(川菜)
自贡鲜锅兔,30.665851946868063,104.10671215585559,餐饮服务;中餐厅;中餐厅
绝味鸭脖(万年场店),30.65560084612141,104.10878342256329,餐饮服务;中餐厅;特色/地方风味餐厅
桃源酒楼(桃溪店),30.686014267272974,104.10505693827058,餐饮服务;中餐厅;综合酒楼
巴蜀大侠老火锅(牛市口店),30.64369306246341,104.10172885049322,餐饮服务;中餐厅;火锅店
乐意豌杂面(崔家店蓝光东方天地店),30.664649500842064,104.12351396457403,餐饮服务;中餐厅;中餐厅
英姐油焖大虾,30.64774744178602,104.13436122038631,餐饮服务;中餐厅;海鲜酒楼
状元水饺(龙湖三千集店),30.679050996929266,104.10511839461515,餐饮服务;快餐厅;快餐厅
冻粑叶儿粑,30.686486058604483,104.10516704793802,餐饮服务;中餐厅;中餐厅
香达克汉堡奶茶(东篱路),30.659029426389612,104.1122475023943,餐饮服务;快餐厅;快餐厅
丽江古城豆花鱼捞(万象润街店),30.648383399563237,104.113350361315,餐饮服务;中餐厅;中餐厅
久久丫熟食・便利,30.67549590744835,104.10874966481633,餐饮服务;中餐厅;特色/地方风味餐厅
宜宾燃面(双林路),30.65826833856204,104.10185992409215,餐饮服务;中餐厅;中餐厅
老马家资格烤羊肉(建业路店),30.67358882541811,104.1094874511566,餐饮服务;中餐厅;清真菜馆
德克士(十陵客运站店),30.669080401331488,104.15995221092959,餐饮服务;快餐厅;快餐厅
唐门三毒,30.670328886787335,104.10553041777193,餐饮服务;中餐厅;特色/地方风味餐厅
双桥美味肥肠粉(经华南路),30.648305221974926,104.10157838481025,餐饮服务;中餐厅;中餐厅
光成饭店(十陵店),30.666433349677074,104.16349553178436,餐饮服务;中餐厅;中餐厅
33号店(万年场店),30.647669300797464,104.1136855769549,餐饮服务;外国餐厅;韩国料理
宜宾燃面(和友路),30.667266167319397,104.14163842498407,餐饮服务;中餐厅;中餐厅
廖家小厨(和平路),30.652751272144275,104.17333635377406,餐饮服务;中餐厅;中餐厅
雷氏纸包鱼(建材路店),30.67790912618448,104.1315509552509,餐饮服务;中餐厅;中餐厅
胖姐冒菜(新鸿南支路),30.6625645979469,104.10471120795638,餐饮服务;中餐厅;中餐厅
黄焖鸡(建兴路),30.674286600226765,104.10944208712492,餐饮服务;中餐厅;中餐厅
一鼎美蛙鱼头火锅,30.672295033332567,104.11192519513261,餐饮服务;中餐厅;海鲜酒楼
壹伍柒藤椒抄手(龙湖三千集店),30.679798174012735,104.10510794022115,餐饮服务;中餐厅;中餐厅
王婆手撕烤兔,30.676287783777013,104.11229344792662,餐饮服务;中餐厅;中餐厅
旮旯小肫肝串串香火锅,30.660088969732385,104.11590387407026,餐饮服务;中餐厅;火锅店
知串串(万年场店),30.656170931958698,104.11578503821664,餐饮服务;中餐厅;火锅店
pizza 4u披萨(新鸿南路店),30.66478554689274,104.1020327448894,餐饮服务;外国餐厅;外国餐厅
嘴乐冒菜,30.68600852871574,104.14867260235603,餐饮服务;快餐厅;快餐厅
阳光院坝・小龙虾(SM广场店),30.67232326078146,104.11193514112838,餐饮服务;中餐厅;海鲜酒楼
黄手艺火锅冒菜(十陵店),30.655276998471486,104.17976022147509,餐饮服务;中餐厅;火锅店
鼎味美蛙鱼头(十陵店),30.652831040022164,104.17292619138527,餐饮服务;中餐厅;中餐厅
食舍(东篱路),30.65935350052729,104.11102379182995,餐饮服务;中餐厅;中餐厅
老寨印象怀旧风味菜,30.683947476016755,104.13014513077836,餐饮服务;中餐厅;中餐厅
江山美胃豆汤饭(建设南新路店),30.6676559756569,104.10147819476605,餐饮服务;中餐厅;中餐厅
华利堡(建设南三路),30.670645987662315,104.10659390329576,餐饮服务;快餐厅;快餐厅
江湖川菜馆烤鱼(华润店),30.656069813535694,104.11655728987607,餐饮服务;中餐厅;四川菜(川菜)
大离刺身(三千集店),30.678977312031382,104.10527955331386,餐饮服务;外国餐厅;外国餐厅
板烧厨房(万科・钻石广场),30.674025447897506,104.100910786688,餐饮服务;快餐厅;快餐厅
王氏冒菜(建业店),30.673800624408546,104.10937402794164,餐饮服务;中餐厅;中餐厅
蜀一面庄(二十四城店),30.64792210503398,104.1135571469173,餐饮服务;中餐厅;中餐厅
蜀都包点,30.642688577930624,104.10171040718635,餐饮服务;快餐厅;快餐厅
云南过桥米线(万兴店),30.655782684206304,104.11647779972883,餐饮服务;中餐厅;中餐厅
沈小福(建设西路店),30.670660084040016,104.10663487981009,餐饮服务;快餐厅;快餐厅
老魏面馆(建兴路店),30.675715699745467,104.11305763336176,餐饮服务;中餐厅;中餐厅
董砂锅家常菜,30.656006333730375,104.11655840437669,餐饮服务;中餐厅;中餐厅
千里香馄饨王(桃蹊路),30.685060149646347,104.10364063014069,餐饮服务;中餐厅;特色/地方风味餐厅
川东鸡杂王(友谊路),30.660675145212473,104.17775624347207,餐饮服务;中餐厅;中餐厅
宜宾燃面(成都市成华区民政局东),30.66398628449125,104.1017422358846,餐饮服务;中餐厅;中餐厅
宜宾晓晓原味烧烤,30.673064367521025,104.1097804998882,餐饮服务;中餐厅;特色/地方风味餐厅
浦江肥肠芋儿鸡,30.67292845483208,104.11147592108046,餐饮服务;中餐厅;中餐厅
干拌冒菜,30.643777072802397,104.10291183315722,餐饮服务;中餐厅;中餐厅
祥禾冷淡杯牛河鲜馆,30.669699247897768,104.1044325333057,餐饮服务;中餐厅;火锅店
台资味台式便当(建设南二路店),30.669307109162066,104.10215007350533,餐饮服务;快餐厅;快餐厅
牛大王秘制清汤鲜黄牛肉(建兴路店),30.675842133300215,104.11222831103468,餐饮服务;中餐厅;中餐厅
辣晕了(双桥子店),30.64797496380025,104.10150292632235,餐饮服务;中餐厅;火锅店
光头强烧烤(华润二十四城店),30.648542554743056,104.11324808643016,餐饮服务;中餐厅;特色/地方风味餐厅
围炉火锅,30.667352026729386,104.10466208480241,餐饮服务;中餐厅;中餐厅
有滋有味中餐馆(双建北巷),30.685878662655618,104.11031068980267,餐饮服务;中餐厅;中餐厅
草根小米辣汤锅,30.687402613669274,104.14913797899462,餐饮服务;中餐厅;火锅店
口口香烧烤(牛市口路),30.64439379633313,104.10141371864545,餐饮服务;中餐厅;特色/地方风味餐厅
豪诺德牛排杯,30.67567530761022,104.13237937780688,餐饮服务;外国餐厅;外国餐厅
小院抄手(红枫岭店),30.675536602858127,104.1229028558064,餐饮服务;中餐厅;中餐厅
重庆火锅米线(御风一路),30.647657672238736,104.13249121793419,餐饮服务;中餐厅;火锅店
盐帮香菜馆(万年场店),30.659538890519034,104.11329965778107,餐饮服务;中餐厅;中餐厅
状元面(双建北巷),30.6861486316525,104.11079721879581,餐饮服务;中餐厅;中餐厅
乐山・苏稽跷脚牛肉,30.674674433256786,104.11022440358896,餐饮服务;快餐厅;快餐厅
仔姜鲜锅兔(十陵店),30.654035522423904,104.17812334915172,餐饮服务;中餐厅;中餐厅
许小妹美食俱乐部,30.643700555242642,104.10295295683068,餐饮服务;中餐厅;中餐厅
锦牛店(万科・钻石广场),30.67430156962793,104.10124528086466,餐饮服务;中餐厅;中餐厅
杨妹手工肥肠粉(东方天地店),30.664616963430166,104.12627426158652,餐饮服务;中餐厅;中餐厅
合家川菜馆(二十四城店),30.6465880233114,104.11341432631369,餐饮服务;中餐厅;四川菜(川菜)
谭氏云南过桥米线(牛市口总店),30.644367276182564,104.1021738340207,餐饮服务;中餐厅;特色/地方风味餐厅
蓉城记忆抄手(崔家店),30.6645615916833,104.12612035392692,餐饮服务;中餐厅;中餐厅
骨汤粉,30.65177566852623,104.10641194977084,餐饮服务;快餐厅;快餐厅
曾哥土豆,30.679125256961537,104.14198440620305,餐饮服务;中餐厅;中餐厅
吃德爽(成大店),30.655815042265424,104.17972625376416,餐饮服务;快餐厅;快餐厅
有盐有味(新津店),30.67078184574245,104.10714069116086,餐饮服务;中餐厅;中餐厅
贵宾餐馆(双林南支路),30.653544410784477,104.10901910364652,餐饮服务;中餐厅;中餐厅
马家老潼关肉夹馍,30.661214061472858,104.10444971733125,餐饮服务;快餐厅;快餐厅
宜宾特色姜鸭面(二环路东三段),30.65322901848977,104.10916867268399,餐饮服务;中餐厅;中餐厅
绵阳米粉(华新下街店),30.654501359563533,104.10933843906943,餐饮服务;中餐厅;中餐厅
草根砂锅米线,30.67478089842918,104.11963804532793,餐饮服务;中餐厅;中餐厅
沈小福(双建店),30.685568424735624,104.10969422628082,餐饮服务;中餐厅;四川菜(川菜)
韩国拌饭(成大店),30.654104341162565,104.17964230520775,餐饮服务;外国餐厅;韩国料理
绵阳涪城米粉(双福三路),30.652067085315505,104.1166863899392,餐饮服务;中餐厅;中餐厅
盐道私菜(八里店),30.685254537441114,104.10406429788097,餐饮服务;中餐厅;中餐厅
贵妃海鲜烧烤,30.674386340600204,104.10961790902597,餐饮服务;中餐厅;特色/地方风味餐厅
破釜甜品・茶,30.6721202980522,104.11898417018708,餐饮服务;休闲餐饮场所;休闲餐饮场所
大邑地主肥肠血旺,30.664956700226014,104.12623861167782,餐饮服务;中餐厅;中餐厅
粥员外(建设路店),30.679460015384247,104.10376446989717,餐饮服务;中餐厅;中餐厅
辣妹砂锅串串(双桥店),30.651746193750594,104.10698305469828,餐饮服务;中餐厅;火锅店
北大铺盖面(建设南三路),30.670686255568185,104.10672683769796,餐饮服务;快餐厅;快餐厅
食林村大酒楼,30.654905710319415,104.16770622251137,餐饮服务;中餐厅;综合酒楼
草屋烧烤(建设路店),30.684388687658352,104.10988650748871,餐饮服务;中餐厅;特色/地方风味餐厅
郝记老鸭汤,30.67873034717333,104.13060327820952,餐饮服务;中餐厅;中餐厅
好食客(华林小区店),30.68524556110043,104.13758823376682,餐饮服务;快餐厅;快餐厅
乡村土菜馆(十陵店),30.655183578712784,104.16815475230018,餐饮服务;中餐厅;中餐厅
霸王牛肉面烧烤(灵龙路店),30.655884319406816,104.1692725598216,餐饮服务;中餐厅;中餐厅
唐鸭头卤味(东蓠路店),30.65922888842051,104.11242615082276,餐饮服务;中餐厅;中餐厅
六合顺饺子(水碾河店),30.648211920910047,104.10300867796865,餐饮服务;中餐厅;特色/地方风味餐厅
资阳龙虾(香木林店),30.68176016813252,104.10339796959914,餐饮服务;中餐厅;海鲜酒楼
哈尔滨水饺(双建北路店),30.68608215176943,104.11066733381014,餐饮服务;中餐厅;特色/地方风味餐厅
正宗隆江猪脚饭(双建北巷),30.686065028389617,104.11063336339123,餐饮服务;中餐厅;中餐厅
聚源江湖菜(长融店),30.657210248084553,104.13884008863083,餐饮服务;中餐厅;中餐厅
齐奇贵州花溪牛羊肉米粉(八里小区店),30.684746745198197,104.10961979480618,餐饮服务;中餐厅;中餐厅
港巢港式炸鸡汉堡(直营店),30.659358413281645,104.1112958078257,餐饮服务;外国餐厅;西餐厅(综合风味)
筷子米线,30.685346342476876,104.14824483890081,餐饮服务;快餐厅;快餐厅
佳佳特色牛肉米线(双林南支路店),30.652658184970484,104.1083966009714,餐饮服务;中餐厅;中餐厅
味在舌尖,30.655417878302657,104.18014098822617,餐饮服务;中餐厅;中餐厅
锅美美(龙泉驿),30.654106367023445,104.17961830039674,餐饮服务;中餐厅;四川菜(川菜)
张记富顺豆花饭(杉板桥店),30.664632055282485,104.11337710055508,餐饮服务;中餐厅;中餐厅
刘记美蛙鱼头自助火锅,30.68304838243002,104.10632275644744,餐饮服务;中餐厅;火锅店
BOOM轰炸大鸡排,30.663326169287267,104.10789807160498,餐饮服务;快餐厅;快餐厅
粥家小菜(二仙桥店),30.683593051267913,104.11434644757718,餐饮服务;中餐厅;中餐厅
粥道东城,30.647897086343047,104.11321815745804,餐饮服务;快餐厅;快餐厅
黄记手工刀削面(建设南三路),30.670715449076564,104.10682479028014,餐饮服务;中餐厅;中餐厅
联豪现切牛排(钻石广场店),30.674239162465042,104.10101538027412,餐饮服务;外国餐厅;外国餐厅
十二道风味(崔家店总店),30.664593808704407,104.12620830006976,餐饮服务;中餐厅;中餐厅
山村黑豆花(东篱店),30.65979363879504,104.11380223189819,餐饮服务;中餐厅;中餐厅
七大周,30.682889677734664,104.15373795004122,餐饮服务;快餐厅;快餐厅
周记冒菜(水碾河路店),30.648258285128122,104.10291659198091,餐饮服务;中餐厅;中餐厅
避风塘休闲阁,30.653036685895653,104.1374404415966,餐饮服务;中餐厅;中餐厅
Pizza 4U披萨(崔家店店),30.663892991267655,104.12452348815083,餐饮服务;外国餐厅;外国餐厅
牛家兔川菜馆,30.662011623408592,104.10384716552794,餐饮服务;中餐厅;中餐厅
特色羊肉米线/面,30.68371385719463,104.10208706930888,餐饮服务;中餐厅;中餐厅
酥香园(红枫岭店),30.676822503977746,104.12016211008886,餐饮服务;中餐厅;中餐厅
味妙厨房(杉板桥店),30.667570806212098,104.11540065869596,餐饮服务;中餐厅;中餐厅
面帅(崔家店店),30.664647486637726,104.12567115248507,餐饮服务;中餐厅;中餐厅
1号锅巴饭,30.685515186451312,104.1113854844112,餐饮服务;中餐厅;中餐厅
阿杜鸡汤豆花,30.654743110090383,104.1181788126304,餐饮服务;中餐厅;中餐厅
芙蓉树下冒菜(建材路店),30.647710273247394,104.13416826637618,餐饮服务;中餐厅;中餐厅
双流冒节子肥肠粉(建设南新路店),30.667605799244186,104.10098224337992,餐饮服务;中餐厅;中餐厅
芙蓉树下冒菜(新华店),30.661154147471702,104.10540892050754,餐饮服务;中餐厅;中餐厅
彭州正宗九尺尹板鸭,30.656634635441947,104.10883856354144,餐饮服务;快餐厅;快餐厅
江油肥肠,30.653677684227215,104.12149399381096,餐饮服务;中餐厅;中餐厅
东城一号餐厅,30.674963629543473,104.10636947953705,餐饮服务;中餐厅;中餐厅
隋的饺子馆,30.666019579722548,104.12550351961139,餐饮服务;中餐厅;特色/地方风味餐厅
特味羊肉米粉(成大店),30.654193646355473,104.17822107389817,餐饮服务;快餐厅;快餐厅
肥臂娃快捷火锅(钻石广场店),30.674264318943848,104.10112434178072,餐饮服务;中餐厅;火锅店
小米快跑火锅米线(东华一路店),30.685053921151233,104.13775061388415,餐饮服务;中餐厅;火锅店
钢管厂后门小郡肝串串香,30.686449241345347,104.13361561735451,餐饮服务;中餐厅;中餐厅
昕味轩(蓝光东方天地店),30.66426930056379,104.12386071721184,餐饮服务;中餐厅;中餐厅
双流肥肠粉乐山钵钵鸡,30.67108719258129,104.10105951837238,餐饮服务;中餐厅;中餐厅
一品状元云南过桥米线(华茂广场店),30.67742182480139,104.10449450866125,餐饮服务;中餐厅;特色/地方风味餐厅
罗记串串(桃源街),30.685766288776275,104.11127299348252,餐饮服务;中餐厅;火锅店
山椒牛肉面(新鸿路店),30.66297929067041,104.10168213567961,餐饮服务;中餐厅;中餐厅
何记烤鸭(桃源路店),30.686137400801076,104.11109026725656,餐饮服务;中餐厅;特色/地方风味餐厅
刘包子(东篱路店),30.65974148245867,104.11326127928548,餐饮服务;中餐厅;中餐厅
花蜀串串(锦绣东方店),30.664529207258393,104.11343030104511,餐饮服务;中餐厅;火锅店
陈诚面馆(桃源街),30.68572091002825,104.11129108196221,餐饮服务;中餐厅;中餐厅
奇味干锅,30.68561741374295,104.14853234037635,餐饮服务;中餐厅;中餐厅
云记骨汤火锅冒菜,30.670602253927978,104.13313931500407,餐饮服务;中餐厅;中餐厅
谢姐双椒凤爪特色火锅,30.68351843385225,104.11435759241783,餐饮服务;中餐厅;中餐厅
港巢美味英雄(十陵店),30.65546370109797,104.17908485236345,餐饮服务;中餐厅;中餐厅
乐山口口香钵钵鸡(双桥店),30.65199322084173,104.106468577909,餐饮服务;中餐厅;中餐厅
张氏中餐冒菜(通宝街),30.63736565520352,104.10468952736122,餐饮服务;中餐厅;特色/地方风味餐厅
红帆铁板餐厅,30.64887917887575,104.11484566825847,餐饮服务;外国餐厅;外国餐厅
内江特色面(双庆路),30.654781239617318,104.11633458013459,餐饮服务;快餐厅;快餐厅
小两口冷锅鱼(东方天地店),30.66542559580833,104.12594969287032,餐饮服务;中餐厅;中餐厅
豆瓣抄手(双桥路),30.651333028270297,104.10737580548452,餐饮服务;中餐厅;中餐厅
付记面烧烤,30.683754496840937,104.11409011327106,餐饮服务;中餐厅;中餐厅
多米家煎饼(SM购物广场),30.67329834609838,104.10753583484473,餐饮服务;中餐厅;中餐厅
南充・三味米粉,30.6587251528831,104.1731496075446,餐饮服务;中餐厅;中餐厅
腾秀小菜馆(水碾河店),30.648364121828404,104.10269639455461,餐饮服务;中餐厅;中餐厅
原味私房菜,30.64235170835693,104.1386441621856,餐饮服务;中餐厅;中餐厅
金龙饭店(永平路),30.655900534498976,104.11656059510642,餐饮服务;中餐厅;中餐厅
余记乡巴佬家常菜,30.64314556579948,104.14800564036157,餐饮服务;中餐厅;中餐厅
特色燃面,30.647984495836102,104.1136470516602,餐饮服务;快餐厅;快餐厅
蓉香餐馆(牛市口路),30.644800921198623,104.1026561935075,餐饮服务;中餐厅;中餐厅
牛比格,30.647912174305002,104.11325413574076,餐饮服务;快餐厅;快餐厅
食味轩(建设南三路),30.67044565966783,104.1059232285355,餐饮服务;中餐厅;中餐厅
早点来(双桥店),30.65319099098613,104.10425227573593,餐饮服务;快餐厅;快餐厅
小小叶花甲米线(二十四城店),30.648474997287032,104.11343821655814,餐饮服务;中餐厅;中餐厅
冒香时尚冒菜(桃溪路二店),30.685056122892718,104.10362763662232,餐饮服务;中餐厅;中餐厅
壹碗牛肉面(红枫林店),30.67644032717027,104.12020685921887,餐饮服务;中餐厅;中餐厅
大懒人冒菜(双林店),30.655463782199156,104.10885567526127,餐饮服务;中餐厅;中餐厅
牛魔王煲仔饭(万象城店),30.662577693165783,104.10689038959006,餐饮服务;快餐厅;快餐厅
刘老四特色冷锅串串香,30.656153409692806,104.10357093530862,餐饮服务;中餐厅;中餐厅
中国兰州拉面(东方天地店),30.664671535686942,104.12598113296642,餐饮服务;快餐厅;快餐厅
蜀香烤鱼(槐树店),30.655864736293108,104.13736140836147,餐饮服务;中餐厅;特色/地方风味餐厅
重庆纸包鱼(二仙桥东路店),30.677271467276437,104.13239726680695,餐饮服务;中餐厅;四川菜(川菜)
香辣道烧烤(东篱路店),30.65975658470494,104.11329425431651,餐饮服务;中餐厅;特色/地方风味餐厅
隔壁老王老火锅(双桥路店),30.652601509110713,104.1045993413883,餐饮服务;中餐厅;火锅店
辣味小鲜,30.67424754042217,104.1110153088227,餐饮服务;中餐厅;四川菜(川菜)
巴蜀冒菜(SM广场店),30.67111360169088,104.10706504006096,餐饮服务;中餐厅;中餐厅
武汉热干面(桐荫路),30.679056693224354,104.1419815394218,餐饮服务;中餐厅;中餐厅
大米先生(SM购物广场),30.671416363514897,104.10861159687344,餐饮服务;快餐厅;快餐厅
蓉城传奇新派冒菜(万象城店),30.655729241746776,104.11656490361663,餐饮服务;中餐厅;中餐厅
潘潘小吃店(双林路),30.658123333006454,104.10162116675691,餐饮服务;中餐厅;中餐厅
安岳中餐馆,30.670157552323115,104.13328218882081,餐饮服务;中餐厅;中餐厅
重庆特色老麻抄手(万兴街店),30.655963006714185,104.11655848243143,餐饮服务;中餐厅;特色/地方风味餐厅
长吉木家常菜川菜馆,30.65526584563689,104.17991324920324,餐饮服务;中餐厅;四川菜(川菜)
梁记特色牛肉刀削面,30.67570462755271,104.11301665121808,餐饮服务;中餐厅;中餐厅
九香串串香,30.68349220871099,104.11437864488205,餐饮服务;中餐厅;火锅店
小龙蛋烘糕,30.662417388389805,104.10696669860423,餐饮服务;中餐厅;特色/地方风味餐厅
七掌柜(建设路店),30.668172266758024,104.10127518055897,餐饮服务;中餐厅;中餐厅
小品冒菜(万年场分店),30.65350110082827,104.10899817802031,餐饮服务;中餐厅;中餐厅
旯旯兔火锅,30.663269462904157,104.11709402006548,餐饮服务;中餐厅;火锅店
好味来冒菜馆(东方惠城店),30.65962637525848,104.14417005810992,餐饮服务;中餐厅;中餐厅
重庆老五牛肉面(槐树店路店),30.65262020617514,104.13619907310162,餐饮服务;中餐厅;四川菜(川菜)
双林北京水饺,30.65530816746762,104.1054706356252,餐饮服务;中餐厅;特色/地方风味餐厅
重庆豌杂面馆,30.654266108181037,104.10171013334502,餐饮服务;中餐厅;四川菜(川菜)
面姥爷牛筋面馆(桃蹊路店),30.686282345215645,104.10528144752237,餐饮服务;中餐厅;中餐厅
蓉城传奇新派冒菜,30.677604038438428,104.12211875694578,餐饮服务;中餐厅;中餐厅
品・冒菜(和友路店),30.667378994816573,104.14182222192963,餐饮服务;中餐厅;中餐厅
银杉水饺,30.67065706066231,104.10663188539343,餐饮服务;中餐厅;特色/地方风味餐厅
碰香老火锅(十陵店),30.654766567580765,104.17673897724504,餐饮服务;中餐厅;火锅店
川石桥肥肠粉,30.655931238092652,104.17022553040431,餐饮服务;中餐厅;中餐厅
姐妹农家小炒(十陵店),30.66046965552913,104.17314037811575,餐饮服务;中餐厅;中餐厅
兄弟酸菜卤肉面(友谊路店),30.660690300972647,104.17986132331022,餐饮服务;中餐厅;中餐厅
巴蜀崽火锅(十陵店),30.65146213067397,104.17070344688105,餐饮服务;中餐厅;火锅店
hifan蔬食外卖(万象城店),30.662241143814715,104.10664299965048,餐饮服务;外国餐厅;外国餐厅
静言炭香烧烤(成华店),30.656282081418933,104.13911579246766,餐饮服务;中餐厅;特色/地方风味餐厅
丽利快餐,30.65420750182845,104.17876507740623,餐饮服务;中餐厅;中餐厅
桥头老字号铁板烧,30.680201270340422,104.14166728985543,餐饮服务;中餐厅;中餐厅
马忠资格烤羊肉(第四分店),30.661203569974905,104.10533482111273,餐饮服务;中餐厅;清真菜馆
鲜香多饭馆(成华店),30.670582567431087,104.10638100624668,餐饮服务;中餐厅;中餐厅
杨登金金牌卤肉面(怡福路店),30.686199001102178,104.11088313051867,餐饮服务;中餐厅;中餐厅
鑫昕火锅,30.654643735076057,104.16776369308845,餐饮服务;中餐厅;火锅店
原钢管厂小郡肝火锅串串香,30.672551322888662,104.1115366607751,餐饮服务;中餐厅;火锅店
祥和面馆(香木林路店),30.683334447165617,104.10692426110629,餐饮服务;中餐厅;中餐厅
妙味厨房,30.648971065256305,104.10554065125494,餐饮服务;中餐厅;中餐厅
烧烤地带,30.673675562895248,104.10943927768783,餐饮服务;中餐厅;特色/地方风味餐厅
波罗蜜多啤酒馆,30.648949943032317,104.11206229579925,餐饮服务;中餐厅;中餐厅
唐记煌砂锅串串(理工东苑西区东北),30.68562824804806,104.1490693579556,餐饮服务;中餐厅;火锅店
正宗武胜猪肝面(二十四城店),30.646470246382453,104.11336451349662,餐饮服务;中餐厅;中餐厅
昊铭怀旧火锅,30.68736044112265,104.14878203375937,餐饮服务;中餐厅;火锅店
千百味小月君肝砂锅串串,30.6559092646243,104.16980454572618,餐饮服务;中餐厅;火锅店
特色新疆沙湾大盘鸡,30.655339583811944,104.17950109617432,餐饮服务;中餐厅;中餐厅
同一口锅家常面,30.655648532351993,104.11678706852726,餐饮服务;中餐厅;中餐厅
添添家常菜(双林北支路),30.661415696368906,104.10218012274584,餐饮服务;中餐厅;中餐厅
宽和小院,30.651803666490032,104.10685994355619,餐饮服务;中餐厅;中餐厅
老铁原味老火锅(双林店),30.66119161794632,104.1050278142972,餐饮服务;中餐厅;火锅店
汉堡奶茶(新鸿路店),30.665769666034244,104.10373703081987,餐饮服务;外国餐厅;西餐厅(综合风味)
陶源川粤私房菜(十陵店),30.654637244618762,104.16653763159376,餐饮服务;中餐厅;中餐厅
久源串串香(理工东苑店),30.68607290967872,104.14897350079681,餐饮服务;中餐厅;特色/地方风味餐厅
巴蜀小龙坎火锅(圣灯路店),30.675831491594995,104.11980001085206,餐饮服务;中餐厅;火锅店
光头水饺,30.671090214578467,104.10106551308479,餐饮服务;中餐厅;特色/地方风味餐厅
重庆跛哥牛肉面(成都双林店),30.661153227125553,104.10522090438384,餐饮服务;中餐厅;四川菜(川菜)
食・木坊,30.65493760331236,104.16626607959512,餐饮服务;中餐厅;中餐厅
羊马查渣面(陈记十八分店),30.66040515390028,104.17313949810627,餐饮服务;中餐厅;中餐厅
快佳冒菜(建设西路店),30.670304728651068,104.10544545655512,餐饮服务;中餐厅;中餐厅
贵州花溪牛羊肉米粉(双桥子店),30.648583894528226,104.1021689770292,餐饮服务;中餐厅;中餐厅
老三公益虾(建业路店),30.67358882541811,104.1094874511566,餐饮服务;中餐厅;海鲜酒楼
麦缘村,30.654007681937674,104.10935831687546,餐饮服务;中餐厅;中餐厅
盒悦品质盒饭(成华店),30.6619779326167,104.10692752099803,餐饮服务;中餐厅;特色/地方风味餐厅
久久家面馆(长融东店),30.658641339943806,104.1450959439899,餐饮服务;快餐厅;快餐厅
华飞火锅米线,30.64813070856039,104.11320876894962,餐饮服务;快餐厅;快餐厅
怪咖叔叔,30.650627132002157,104.10262056533404,餐饮服务;快餐厅;快餐厅
七十一号豆汤饭(汇富店),30.674132089497483,104.107813236345,餐饮服务;中餐厅;中餐厅
古蔺面(东方天地店),30.66524408705046,104.1260610487132,餐饮服务;中餐厅;中餐厅
一斗麻辣烫,30.687097176807622,104.1490635543643,餐饮服务;中餐厅;特色/地方风味餐厅
简阳鲫鱼羊肉汤(东虹路店)(暂停营业),30.64627893886015,104.14867271397914,餐饮服务;中餐厅;中餐厅
重庆小厨,30.65227338619133,104.10837527014193,餐饮服务;中餐厅;四川菜(川菜)
花样年华餐厅(槐树店路),30.65250064343758,104.13771440098681,餐饮服务;中餐厅;中餐厅
蜀一蜀二原汁冒菜(长融东二路店),30.65874915105229,104.1451377487645,餐饮服务;中餐厅;中餐厅
三姐特色(槐树店),30.65264524071807,104.13652405501118,餐饮服务;中餐厅;中餐厅
福星美食城,30.674910576399785,104.13329094274171,餐饮服务;中餐厅;中餐厅
老碗鱼川菜馆(十陵店),30.66068845711053,104.17948830782773,餐饮服务;中餐厅;四川菜(川菜)
实惠面馆(兴盛路),30.668152157886716,104.16148710104495,餐饮服务;中餐厅;中餐厅
锦苑饭庄,30.665892143976087,104.16318154878653,餐饮服务;中餐厅;中餐厅
青柠花园泰国海鲜火锅(龙湖三千集店),30.678828115349713,104.10520283645258,餐饮服务;中餐厅;火锅店
陈记大包(新龙苑西),30.66355490545784,104.10592245282766,餐饮服务;中餐厅;中餐厅
中国兰州牛肉拉面(东苑店),30.686383323980934,104.14919992419742,餐饮服务;中餐厅;清真菜馆
流氓鲜兔火锅,30.661006001889014,104.10320698722322,餐饮服务;中餐厅;中餐厅
石棉一铯锅盖烤肉,30.661387532927012,104.1063805760551,餐饮服务;中餐厅;特色/地方风味餐厅
曾哥内江面,30.67893467047706,104.14201777965988,餐饮服务;中餐厅;中餐厅
万州豌杂面(建兴路),30.67442740411348,104.11020488337513,餐饮服务;中餐厅;中餐厅
鑫悦冒菜,30.680524432616657,104.14272674198962,餐饮服务;中餐厅;中餐厅
正宗雅安一绝本色卤肉(万兴街),30.656312841161085,104.11614281419027,餐饮服务;中餐厅;中餐厅
顺河特色花椒鱼(东虹路店),30.64692137973708,104.14848565347513,餐饮服务;中餐厅;中餐厅
美食汇,30.647078130962495,104.16024119706039,餐饮服务;中餐厅;中餐厅
尝回头特色米线,30.646987394013856,104.16050336264074,餐饮服务;中餐厅;中餐厅
星期一冰粉(万兴街),30.65617386463112,104.11598005045472,餐饮服务;中餐厅;中餐厅
楠栖餐吧(理工东苑店),30.68753800964112,104.1485026765279,餐饮服务;休闲餐饮场所;休闲餐饮场所
宜宾燃面(虹波苑东),30.67569965456295,104.11287164769054,餐饮服务;中餐厅;中餐厅
哑巴烧烤,30.65420035041591,104.10229630654167,餐饮服务;快餐厅;快餐厅
人民食堂土菜馆,30.651822193250126,104.10381662239935,餐饮服务;中餐厅;综合酒楼
脆香基,30.642965412623884,104.13691708244008,餐饮服务;快餐厅;快餐厅
张妈串串香(双林店),30.653436567395634,104.10475889213552,餐饮服务;快餐厅;快餐厅
田席老卤川派烧腊餐厅,30.653335648451527,104.17531243619472,餐饮服务;中餐厅;综合酒楼
老香嘴(小龙桥店),30.66257768243682,104.10691339177615,餐饮服务;中餐厅;中餐厅
王氏冒菜(理工店),30.686424521227263,104.14948986618063,餐饮服务;中餐厅;中餐厅
176℃炸鸡排(龙湖三千集店),30.679172087704128,104.10492714081072,餐饮服务;快餐厅;快餐厅
良心面,30.67057045745579,104.10640403190908,餐饮服务;中餐厅;中餐厅
砂锅坊黄焖鸡米饭砂锅米线,30.647626835769206,104.13386637999524,餐饮服务;中餐厅;中餐厅
新疆餐厅(双林南支路店),30.65219381962974,104.10834740599022,餐饮服务;中餐厅;清真菜馆
大牛面秘制,30.67585286935903,104.11937093145126,餐饮服务;中餐厅;中餐厅
桃源烧烤(桃源街),30.68617168967192,104.1110701999158,餐饮服务;中餐厅;特色/地方风味餐厅
朝哺老面包子传统川味面,30.68403250145342,104.11045124491683,餐饮服务;中餐厅;四川菜(川菜)
老瓦房(十陵店),30.655891458224975,104.16908553608707,餐饮服务;中餐厅;中餐厅
百味鲜饭店(灵龙路),30.655952625457594,104.1785169441737,餐饮服务;中餐厅;中餐厅
竹篓记(SM购物广场),30.67307847234315,104.10766927556608,餐饮服务;中餐厅;中餐厅
小面馆,30.66345604446777,104.10176524269343,餐饮服务;中餐厅;中餐厅
乐山甜皮鸭(万年路店),30.65928252617808,104.11628640158203,餐饮服务;中餐厅;特色/地方风味餐厅
蜀烩冒菜(建设南路),30.67470738434556,104.11944117135339,餐饮服务;中餐厅;中餐厅
蜀烩冒菜(钻石广场店),30.674326740319557,104.10132423943159,餐饮服务;中餐厅;中餐厅
煨煨鹅脑壳・鲜菌排骨王(双建路),30.68447947530091,104.10979332433851,餐饮服务;中餐厅;四川菜(川菜)
小伙拌,30.685329875441862,104.10885560521169,餐饮服务;快餐厅;快餐厅
博大水饺,30.659160578514875,104.11195023325658,餐饮服务;快餐厅;快餐厅
best小龙虾干锅(概念店),30.649302432426026,104.10326587680788,餐饮服务;中餐厅;中餐厅
乡村小菜(双庆路),30.65463799029208,104.11891206483286,餐饮服务;中餐厅;中餐厅
中华化隆牛肉拉面,30.6800066595433,104.14168466934694,餐饮服务;中餐厅;清真菜馆
二姐串串,30.647131499264663,104.10293845612412,餐饮服务;中餐厅;中餐厅
白家肥肠粉(建设路店),30.670751690094914,104.1069447312485,餐饮服务;中餐厅;中餐厅
岭南牛杂(钻石广场店),30.674251242933288,104.10105636069233,餐饮服务;中餐厅;中餐厅
现磨豆浆,30.66992126243586,104.10400606272432,餐饮服务;快餐厅;快餐厅
牛牛小笼包,30.643379598973347,104.13577634960612,餐饮服务;快餐厅;快餐厅
QQ串串香,30.660194605237592,104.1445730341919,餐饮服务;中餐厅;中餐厅
惠民食堂(东虹路),30.643238225407767,104.14786748656354,餐饮服务;中餐厅;中餐厅
味之味面馆(双林路),30.65572331572381,104.10759109093163,餐饮服务;中餐厅;中餐厅
陈记宜宾燃面(圣灯路店),30.678947933041744,104.11829680464234,餐饮服务;中餐厅;中餐厅
余香(华润二十四城店),30.647972646034617,104.11313702479623,餐饮服务;快餐厅;快餐厅
廖哥串串香(长融路),30.660215879702992,104.14433597709389,餐饮服务;中餐厅;火锅店
铭记牛肉面,30.677491420384698,104.13210281417953,餐饮服务;中餐厅;特色/地方风味餐厅
大姐面庄(和友路),30.666859066330872,104.14123117624314,餐饮服务;中餐厅;中餐厅
宜宾燃面鱼米线,30.67455526215077,104.11062467292152,餐饮服务;中餐厅;中餐厅
喜利粉面馆(新华公园店),30.661435914516975,104.10637848531431,餐饮服务;中餐厅;中餐厅
蓉锦聚回味香(二环路东一段),30.681845035514367,104.10304277122832,餐饮服务;中餐厅;中餐厅
闵苏噶の家,30.672578840027096,104.1344645801186,餐饮服务;外国餐厅;外国餐厅
食其家(伊藤洋华堂),30.67525761889778,104.10517379314827,餐饮服务;外国餐厅;日本料理
正宗简阳付神仙羊肉汤,30.66555642859991,104.16322919359325,餐饮服务;中餐厅;中餐厅
袁记奇味鸡煲乡(江华路),30.655265772837318,104.1800722573701,餐饮服务;中餐厅;中餐厅
随意中餐,30.65311533334608,104.16804541313036,餐饮服务;中餐厅;中餐厅
天香菜,30.648850899981074,104.1502285804363,餐饮服务;中餐厅;中餐厅
大唐龙虾(建业路),30.67215170652342,104.11010430613567,餐饮服务;中餐厅;海鲜酒楼
北纬31度(首创爱这城店),30.676463744181547,104.10483540897462,餐饮服务;中餐厅;中餐厅
聚友饭店(理工店),30.6796090584194,104.1423784947049,餐饮服务;中餐厅;中餐厅
传说牛肉面(积步街),30.65742362889504,104.115400732228,餐饮服务;中餐厅;中餐厅
食味聚,30.685667741574854,104.1487052564127,餐饮服务;中餐厅;中餐厅
藤椒抄手面(九熙分店),30.64789131597226,104.13462200307674,餐饮服务;中餐厅;中餐厅
侯氏麻抄手(双林分店),30.6552025089831,104.1030005890052,餐饮服务;中餐厅;四川菜(川菜)
乐味鱼,30.66450315081774,104.12390127621124,餐饮服务;中餐厅;中餐厅
正宗东北饺子(双林中横路店),30.655435006348863,104.10571843183276,餐饮服务;中餐厅;特色/地方风味餐厅
花花串串,30.665548177330546,104.10095018593299,餐饮服务;中餐厅;特色/地方风味餐厅
兄弟思味火锅冒菜(万年场分店),30.65677198727533,104.11034345455356,餐饮服务;中餐厅;火锅店
南充米粉面(中环路崔家店路段),30.675421628093567,104.13363497383241,餐饮服务;中餐厅;中餐厅
老妈砂锅串串(长融店),30.65703390655718,104.13883940918242,餐饮服务;中餐厅;火锅店
糊涂虾(东华店),30.685601683511294,104.13712351529395,餐饮服务;中餐厅;中餐厅
憨叁砂锅串串(新鸿店),30.665529775463934,104.1014962738983,餐饮服务;中餐厅;火锅店
思味面,30.674493954820914,104.11873552525938,餐饮服务;中餐厅;中餐厅
陕味正浓,30.648132993515635,104.13460860093298,餐饮服务;中餐厅;中餐厅
西牛(食悦天美食广场),30.653018026044027,104.11013413283756,餐饮服务;外国餐厅;西餐厅(综合风味)
喜相逢客家私房菜(积步东巷),30.657166998457622,104.11686333064306,餐饮服务;中餐厅;四川菜(川菜)|餐饮服务;中餐厅;综合酒楼
龙王庙冒烤鸭(二仙桥店),30.681649412532796,104.13693711557703,餐饮服务;中餐厅;中餐厅
重庆醇缘老火锅(十陵店),30.661470603557913,104.1728564935187,餐饮服务;中餐厅;火锅店
点点冒菜(二环路东二段),30.6764648526194,104.1046243867476,餐饮服务;中餐厅;中餐厅
满记肥肠粉面冒菜(跳蹬河北路店),30.667731136831826,104.11533634428457,餐饮服务;中餐厅;中餐厅
五香居面,30.66585860145212,104.10111460853744,餐饮服务;中餐厅;中餐厅
重庆十二楼原味老火锅,30.674207231366683,104.11096538279165,餐饮服务;中餐厅;火锅店
尚品清汤黄牛肉,30.655344776733596,104.16816946447122,餐饮服务;中餐厅;中餐厅
好巴食家常菜,30.66040129754467,104.17713372086358,餐饮服务;中餐厅;中餐厅
芙蓉树下冒菜(东方天地店),30.664605174320112,104.12345304368232,餐饮服务;中餐厅;中餐厅
原汁原味宽汤面,30.664728491322357,104.12490093286942,餐饮服务;中餐厅;中餐厅
老客家自助串串,30.65593525233459,104.1702605251845,餐饮服务;中餐厅;火锅店
沉香豆瓣抄手(新鸿南路店),30.662044775184704,104.10192391863536,餐饮服务;中餐厅;中餐厅
暴走汉堡,30.665158715879507,104.12538315412388,餐饮服务;快餐厅;快餐厅
飘香面馆(二仙桥东三路),30.68084591089809,104.14308214455771,餐饮服务;中餐厅;中餐厅
香达克汉堡奶茶(建设北路三段),30.68063094183925,104.10956474068482,餐饮服务;快餐厅;快餐厅
盐香菜稀饭庄,30.65117531950303,104.10644098901363,餐饮服务;中餐厅;中餐厅
重庆妙龙老火锅,30.677450698000026,104.10527052611707,餐饮服务;中餐厅;火锅店
小食堂(建设北路三段),30.679828327631967,104.10530990075783,餐饮服务;中餐厅;中餐厅
资格烤羊肉串(万兴街),30.6562904365814,104.11665490055142,餐饮服务;中餐厅;清真菜馆
灵犀饭店(十陵店),30.65589562067844,104.16879751178743,餐饮服务;中餐厅;中餐厅
正点牛肉抄手(二环路东二段),30.670902794931727,104.10723146495815,餐饮服务;中餐厅;特色/地方风味餐厅
小签签串串香(锦绣店),30.663103454963746,104.11425907882882,餐饮服务;中餐厅;火锅店
竹林面,30.675205392750517,104.1196542190216,餐饮服务;中餐厅;中餐厅
川町太郎(成都理工大学店),30.678078600241538,104.13564995435333,餐饮服务;外国餐厅;日本料理
小林子特色烧烤,30.651573405783804,104.10378605000172,餐饮服务;中餐厅;特色/地方风味餐厅
四哥餐馆,30.68354146146282,104.1104781932591,餐饮服务;中餐厅;中餐厅
貂蝉冒菜,30.654041953028354,104.10932125274425,餐饮服务;快餐厅;快餐厅
宜宾燃面(小龙桥店),30.66459273111061,104.11339717719959,餐饮服务;中餐厅;中餐厅
熊仙森牛杂火锅,30.656021918802935,104.13736512557472,餐饮服务;中餐厅;火锅店
龙记川菜小厨,30.664526534969802,104.12347519517621,餐饮服务;中餐厅;四川菜(川菜)
虾脑萃,30.662234595422543,104.10339370318316,餐饮服务;中餐厅;中餐厅
碗碗香冒菜(双桥店),30.652062792281445,104.10632444348181,餐饮服务;中餐厅;中餐厅
重庆好吃嘴冷锅鱼(双桥店),30.65174616518179,104.10704506058921,餐饮服务;中餐厅;四川菜(川菜)
满口香牛串串,30.684224443963366,104.11388819031217,餐饮服务;中餐厅;特色/地方风味餐厅
三顾冒菜(龙泉都大学店),30.655250843114207,104.17967226385758,餐饮服务;快餐厅;快餐厅
同乐坊鲫鱼庄,30.65131985651886,104.10317042861612,餐饮服务;中餐厅;中餐厅
蹄花家常炒菜,30.649032404863675,104.10573956712088,餐饮服务;中餐厅;中餐厅
小龙坎原味老火锅,30.657003032532167,104.1774679892506,餐饮服务;中餐厅;火锅店
德味轩家常菜馆(银通苑店),30.659995252635028,104.11370584932618,餐饮服务;中餐厅;中餐厅
有口福绵阳米粉(理工店),30.677383464247367,104.1322420359045,餐饮服务;中餐厅;中餐厅
自贡特色菜(建兴路),30.67439015350928,104.11008394479668,餐饮服务;中餐厅;中餐厅
农家手工面(怡福巷),30.68612600552681,104.10121835704516,餐饮服务;中餐厅;中餐厅
柏兔轻食,30.674164977025136,104.12357558802195,餐饮服务;快餐厅;快餐厅
文记炭火烤羊腿(SM店),30.672181957590297,104.11009924682575,餐饮服务;中餐厅;特色/地方风味餐厅
口口香川菜(长邻潭社区卫生站西北),30.673758202772454,104.1437520000814,餐饮服务;中餐厅;四川菜(川菜)
重庆老五牛肉面(文德店),30.68347400664475,104.11660087984491,餐饮服务;中餐厅;四川菜(川菜)
第一碗面(牛市口路),30.64455755861127,104.10211252717845,餐饮服务;中餐厅;中餐厅
憨叁砂锅串串(圣灯路店),30.67584579310876,104.11940894859617,餐饮服务;中餐厅;特色/地方风味餐厅
盐帮小面(首创店),30.677736539051633,104.10425587257127,餐饮服务;快餐厅;快餐厅
简阳砂锅羊肉汤(二十四城店),30.647277878493686,104.119689759876,餐饮服务;中餐厅;中餐厅
小狸冒菜干锅(华林店),30.685331023672305,104.1380831085413,餐饮服务;中餐厅;中餐厅
香怡砂锅(蓝光东方天地东),30.665217868306346,104.1260791002583,餐饮服务;中餐厅;中餐厅
西昌印象火盆烧烤,30.664785685050628,104.11683211978246,餐饮服务;中餐厅;特色/地方风味餐厅
坝坝汇砂锅串串(建设南二路店),30.66947081593333,104.10350088647404,餐饮服务;中餐厅;火锅店
何老三冷锅串串(新鸿路店),30.66553289912361,104.10128424744089,餐饮服务;中餐厅;中餐厅
抄手娘娘饺子君(万象城店),30.652935954926765,104.10897416883702,餐饮服务;中餐厅;特色/地方风味餐厅
聚恒信院坝小龙虾,30.667105027864526,104.1154095551484,餐饮服务;休闲餐饮场所;休闲餐饮场所|公司企业;公司;公司
五福饺子,30.65032488610886,104.10281109986886,餐饮服务;快餐厅;快餐厅
麦味烧烤,30.665420556254112,104.12594770232386,餐饮服务;中餐厅;特色/地方风味餐厅
办酒碗.网约大厨,30.673143825191215,104.10806518537572,餐饮服务;中餐厅;中餐厅
香味居烤肉拌饭,30.67270932402679,104.14430808431793,餐饮服务;中餐厅;中餐厅
郑家八戒卤味,30.6555072347894,104.16983427018612,餐饮服务;快餐厅;快餐厅
蓉峰烧菜馆(农平路),30.6663204513666,104.16347374682714,餐饮服务;中餐厅;中餐厅
场坝串串香,30.64262828005806,104.13685459755625,餐饮服务;中餐厅;火锅店
霄味烧烤(二十四城店),30.648694876788426,104.11267977985035,餐饮服务;中餐厅;特色/地方风味餐厅
杨记生椒牛肉面(和悦路),30.659518555024533,104.14413625511335,餐饮服务;中餐厅;中餐厅
杠上花鹅肠火锅(罗兰小镇店),30.67932542647757,104.13024009020404,餐饮服务;中餐厅;火锅店
仟味冒菜(新鸿店),30.666451164254017,104.10158751968147,餐饮服务;中餐厅;中餐厅
小鱼村生态河鲜(东华二路店),30.686859856718844,104.1372391220259,餐饮服务;中餐厅;中餐厅
小月君肝砂锅串串(二十四城店),30.647768789006797,104.11192425132822,餐饮服务;中餐厅;中餐厅
中国化隆拉面(建设路店),30.677357275078823,104.10452863772932,餐饮服务;中餐厅;中餐厅
天天冒菜(理工大农贸市场店),30.67863211518974,104.14214837854777,餐饮服务;中餐厅;中餐厅
梨烧焖个饭(成华店),30.6653613535011,104.12535876542354,餐饮服务;快餐厅;快餐厅
九味刀削面,30.683175371520676,104.11910267793439,餐饮服务;中餐厅;中餐厅
怡品香龙虾,30.675387674366217,104.1222620909158,餐饮服务;中餐厅;特色/地方风味餐厅
冯记串串香(枫林分店),30.677276355859835,104.12206939137955,餐饮服务;中餐厅;特色/地方风味餐厅
尝回头贵阳牛肉米粉(牛市口店),30.64464906644273,104.10232540270361,餐饮服务;中餐厅;中餐厅
重庆大石坝老火锅,30.670390690579403,104.10703443991913,餐饮服务;中餐厅;火锅店
驼驼钵钵鸡,30.670315801109176,104.10548443878419,餐饮服务;中餐厅;中餐厅
蜀一蜀二原汁冒菜(小龙桥店),30.661353264762855,104.10637763989334,餐饮服务;中餐厅;中餐厅
第1佳大鸡排(富临理宫店),30.685311422413548,104.13690305392618,餐饮服务;快餐厅;快餐厅
筷时代大食堂自选快餐,30.654568844099575,104.10937832273532,餐饮服务;快餐厅;快餐厅
二当家砂锅串串(理工店),30.67302014345492,104.13301360450747,餐饮服务;中餐厅;中餐厅
草根小米辣自助汤锅(罗兰小镇东南),30.677283177366313,104.13322131055146,餐饮服务;中餐厅;中餐厅
重庆爽嘴巴胖妹面庄,30.647638554689987,104.1324602470004,餐饮服务;快餐厅;快餐厅
官记乐山钵钵鸡(槐树店街第三分店),30.65644167026906,104.13828043927852,餐饮服务;中餐厅;中餐厅
雅安李妈老面馆,30.675910435190552,104.11917780218394,餐饮服务;中餐厅;中餐厅
陕味轩(二十四城店),30.64793111179496,104.11367914310195,餐饮服务;中餐厅;中餐厅
客来香家常菜(银星苑北),30.659715274788894,104.17866307406793,餐饮服务;中餐厅;中餐厅
老味道鲜鱼坊(龙湖三千集店),30.67879041171355,104.1102753850758,餐饮服务;中餐厅;中餐厅
霸子兔,30.65901559679736,104.14646635542076,餐饮服务;中餐厅;火锅店
乐山豆腐脑(双桥店),30.6517928069174,104.10638091715315,餐饮服务;中餐厅;中餐厅
又一顿餐厅(双林店),30.65358470456437,104.10902703334797,餐饮服务;中餐厅;中餐厅
笑笑冒菜,30.66634099061106,104.10649919961043,餐饮服务;快餐厅;快餐厅
陈记厕所串串(桃溪路直营店),30.68614950321029,104.11108224340066,餐饮服务;中餐厅;火锅店
品旺冒菜(十里店路),30.67819163840507,104.13542471628831,餐饮服务;中餐厅;中餐厅
自贡梭边鱼府(冷锅店),30.676766643935608,104.12101129319763,餐饮服务;中餐厅;火锅店
007鹅肠自助火锅(十陵店),30.657430388574053,104.17722719893088,餐饮服务;中餐厅;火锅店
袁记三姐火锅串串香(新鸿路店),30.661817631809097,104.10484262452323,餐饮服务;中餐厅;中餐厅
歪歪香串串(双林中横路),30.65438804269488,104.10600932797632,餐饮服务;中餐厅;中餐厅
喳闹鱼头,30.6840840942113,104.11009311250034,餐饮服务;中餐厅;中餐厅
刘姐冷锅串串香(石灵上街),30.654086162846944,104.1797393423557,餐饮服务;中餐厅;火锅店
其食食府,30.677896580540477,104.1346232274084,餐饮服务;中餐厅;中餐厅
罗记串串香(长和街),30.656023942756608,104.13734612043847,餐饮服务;中餐厅;中餐厅
周记手提串串(华林店),30.686067079189378,104.13584152437006,餐饮服务;中餐厅;中餐厅
欧阳鲜绵阳米粉(新鸿南路77号店),30.661642628943632,104.10186566746196,餐饮服务;快餐厅;快餐厅
胡记竹笋芋儿鸡冷锅鱼(二仙桥北路店),30.682929529368856,104.13565653851633,餐饮服务;中餐厅;海鲜酒楼
胖小厨稀溜耙油卤,30.677229367632666,104.12121840909515,餐饮服务;中餐厅;中餐厅
民名家常菜(杉板桥南一路),30.662904828063475,104.11436746364127,餐饮服务;中餐厅;中餐厅
8+1烧烤(米娅中心店),30.642043759263018,104.13641745813527,餐饮服务;中餐厅;特色/地方风味餐厅
一心桥老号羊肉汤,30.651367651585343,104.1065586687838,餐饮服务;中餐厅;中餐厅
麦加伦英式西点DIY亲子烘焙(东郊记忆店),30.673402256144897,104.12237597093947,餐饮服务;快餐厅;快餐厅
视试嗜烧烤,30.66179249364238,104.10471265930845,餐饮服务;中餐厅;特色/地方风味餐厅
川魂冒牌货冒菜(万兴街),30.65616882885429,104.11597505909151,餐饮服务;中餐厅;中餐厅
渝州饭店,30.64431196853541,104.1020499093677,餐饮服务;中餐厅;四川菜(川菜)
桃食浅居,30.639463574641628,104.11915185878942,餐饮服务;中餐厅;中餐厅
内江牛肉面(十陵街道综合执法大队西),30.652024329291496,104.17259357993312,餐饮服务;中餐厅;中餐厅
蜀香缘全味面(经华北路店),30.649259584088625,104.10227285349107,餐饮服务;中餐厅;四川菜(川菜)
易记卤肉面鸭脑壳,30.642327682829883,104.13836217703056,餐饮服务;中餐厅;中餐厅
麒麟饭店(灵龙路),30.655921492766428,104.17170163201574,餐饮服务;中餐厅;中餐厅
南云上品,30.648193175296978,104.1131356584316,餐饮服务;快餐厅;快餐厅
华晨酒楼,30.658905296624354,104.13872297615823,餐饮服务;中餐厅;中餐厅
老陕面庄(下涧槽路),30.686925300430875,104.13320667719208,餐饮服务;中餐厅;中餐厅
老妈砂锅串串(理工东苑店),30.68604974981201,104.148913540776,餐饮服务;中餐厅;火锅店
叙府燃面鱼米线,30.674724501640377,104.11949214246246,餐饮服务;中餐厅;特色/地方风味餐厅
天香掌柜(十陵店),30.653897444462444,104.16064957983214,餐饮服务;中餐厅;特色/地方风味餐厅
一把捞串串(崔家店),30.664016510901362,104.12769352180291,餐饮服务;中餐厅;特色/地方风味餐厅
邓妹手提式串串香(建设中街),30.67446497222526,104.10752256022317,餐饮服务;中餐厅;中餐厅
溢鲜居,30.6856867052263,104.13642829798324,餐饮服务;中餐厅;中餐厅
张记青石桥肥肠粉(二环路东三段119号院西北),30.653956342649362,104.10926839936984,餐饮服务;中餐厅;中餐厅
鹅司令,30.661178808483868,104.10439777827087,餐饮服务;中餐厅;特色/地方风味餐厅
鸡汤豆花,30.65346285400127,104.10892123821992,餐饮服务;中餐厅;中餐厅
杨记鼎鼎香品牌火锅冒菜(建设北路首创店),30.677632600508517,104.10442409115193,餐饮服务;中餐厅;火锅店
姐妹面馆(成华大道新鸿路),30.665561272063492,104.10097316314511,餐饮服务;中餐厅;中餐厅
草屋烧烤(槐树苑店),30.656424550342297,104.13825946860314,餐饮服务;中餐厅;特色/地方风味餐厅
鸡哥火锅,30.648227163458593,104.14889952787114,餐饮服务;中餐厅;火锅店
酸菜卤肉面(双桥路),30.653485575303577,104.10334867107365,餐饮服务;中餐厅;中餐厅
四哥卤鸡面,30.68084182079118,104.14320216147163,餐饮服务;中餐厅;中餐厅
五谷渔粉(理工东苑店),30.685236194523107,104.1487750879171,餐饮服务;中餐厅;特色/地方风味餐厅
蜀香冒菜(杉板桥店),30.6644737396976,104.11348141117473,餐饮服务;中餐厅;中餐厅
味来烧烤,30.67011823763976,104.13326826389282,餐饮服务;中餐厅;特色/地方风味餐厅
高原红牛杂火锅,30.64191578380484,104.12571677505188,餐饮服务;中餐厅;火锅店
百味花甲米线(双林北支路店),30.661215106666138,104.10436970775119,餐饮服务;中餐厅;中餐厅
双流冒节子肥肠粉(双林北横路店),30.66116140739169,104.10496986524808,餐饮服务;中餐厅;中餐厅
津味海鲜小炒(枫林路店),30.677243046489373,104.12214246263872,餐饮服务;中餐厅;海鲜酒楼
豆花绍子面,30.654082239959646,104.10934718380108,餐饮服务;中餐厅;中餐厅
李记特色烧烤(圣灯路店),30.67676936902908,104.11951515691855,餐饮服务;中餐厅;特色/地方风味餐厅
锦品轩家宴坊,30.65359923014416,104.14970136769382,餐饮服务;中餐厅;中餐厅
汉那韩国料理,30.658205345702804,104.17713577746144,餐饮服务;外国餐厅;韩国料理
斗城老妈砂锅串串(建材路店),30.64484807088739,104.13608206282697,餐饮服务;中餐厅;火锅店
乐山牛华绿缘串串香(华林店),30.68531578797921,104.13620599073568,餐饮服务;中餐厅;火锅店
简单e点,30.642784402164402,104.1012492148994,餐饮服务;中餐厅;中餐厅
农家冒菜,30.64817890639551,104.12009930609688,餐饮服务;中餐厅;中餐厅
眼镜芋儿烧鸡公,30.642798956761613,104.14885423753822,餐饮服务;中餐厅;中餐厅
小粉哥花甲米线(理工店),30.686027576665943,104.14889858208022,餐饮服务;中餐厅;特色/地方风味餐厅
品牌火锅冒菜(长天路店),30.647183538479325,104.11901585541555,餐饮服务;中餐厅;中餐厅
元宝堂家常菜,30.651592567712132,104.10373501199712,餐饮服务;中餐厅;中餐厅
重庆特色牛蹄筋面(双林北横路),30.657635378584537,104.10642051727638,餐饮服务;中餐厅;中餐厅
雅园食府(迎晖路),30.64068074295441,104.13749959751867,餐饮服务;中餐厅;中餐厅
刘记豆汤(中环路建材路段),30.64495599031485,104.13562985514841,餐饮服务;中餐厅;中餐厅
彭祖长寿炖宴(新鸿路店),30.661465212406096,104.10190700374135,餐饮服务;中餐厅;中餐厅
家味哈尔滨饺子坊东北手擀面(杉板桥店),30.66461126712706,104.1255192085184,餐饮服务;快餐厅;快餐厅
胖妹汤锅(双林店),30.65569457009414,104.10438883952926,餐饮服务;中餐厅;中餐厅
宜宾特色燃面(双桥路),30.653422045708012,104.1034817957136,餐饮服务;中餐厅;中餐厅
小小吃(桃蹊路),30.685040007724602,104.10359266419013,餐饮服务;中餐厅;中餐厅
沉香豆瓣抄手(双林店),30.65384152481891,104.10919759583565,餐饮服务;中餐厅;中餐厅
阳水饺,30.65524251564418,104.11671579022095,餐饮服务;中餐厅;特色/地方风味餐厅
曹伟包子店,30.684734840533142,104.13664313955512,餐饮服务;快餐厅;快餐厅
重庆晓宇火锅(十陵店),30.65877468152549,104.17720773536323,餐饮服务;中餐厅;火锅店
渝李记火锅米线,30.685287611124643,104.14877998972132,餐饮服务;快餐厅;快餐厅
青年火锅店(新华店),30.662295514169344,104.10677190955617,餐饮服务;中餐厅;火锅店
冒江湖冒菜・手工肥肠粉,30.643069953598342,104.14828377761556,餐饮服务;快餐厅;快餐厅
熊记九桌重庆火锅,30.675341771972953,104.11271733151585,餐饮服务;中餐厅;火锅店
东虹唐辣面,30.642899705478058,104.14862606562751,餐饮服务;中餐厅;中餐厅
兄弟烧烤(成华大道新鸿路),30.6655206616769,104.10158329970979,餐饮服务;中餐厅;特色/地方风味餐厅
小君肝火锅串串(小龙桥路),30.663396415248048,104.10641479927087,餐饮服务;中餐厅;火锅店
周记串串香(长天路),30.64886767056242,104.12017616274215,餐饮服务;中餐厅;火锅店
知青牛肉(十陵店),30.66562116100958,104.16276604104972,餐饮服务;中餐厅;中餐厅
杨大姐香爪爪(红枫岭店),30.674485690857047,104.11915357825039,餐饮服务;中餐厅;中餐厅
天天见面(和友路),30.667934276874938,104.14228618799109,餐饮服务;中餐厅;中餐厅
侯氏麻抄手(槐树苑分店),30.656442706946724,104.13821743250092,餐饮服务;中餐厅;中餐厅
重庆南山老火锅(华林二路),30.685845145093886,104.13611196996357,餐饮服务;中餐厅;火锅店
钟哥伙食团,30.648441056185767,104.14799810673604,餐饮服务;中餐厅;中餐厅
品尊牛排,30.663677706450805,104.10199084480566,餐饮服务;外国餐厅;牛扒店(扒房)
蓉香圆老火锅,30.666182271929284,104.16145288495751,餐饮服务;中餐厅;火锅店
老成都担担面(万兴街),30.656295282322226,104.11707092899128,餐饮服务;中餐厅;四川菜(川菜)
瓦片烧烤(红枫岭店),30.677208799847893,104.12206552273818,餐饮服务;中餐厅;特色/地方风味餐厅
生椒牛肉面,30.652161230378887,104.17279235304035,餐饮服务;中餐厅;中餐厅
慈记面铺(五桂路),30.642645562645765,104.13647354090155,餐饮服务;中餐厅;中餐厅
谢记馄饨蒸饺大王(长融东三路),30.66017352051802,104.14440006054718,餐饮服务;中餐厅;特色/地方风味餐厅
重庆飘香鱼庄(长和街),30.656221520759292,104.13715574915818,餐饮服务;中餐厅;海鲜酒楼
一味长养生蔬菜面(培华东路店),30.67202280409867,104.10335592130735,餐饮服务;中餐厅;中餐厅
常德钵子菜(新鸿路),30.665974677866547,104.10726797337897,餐饮服务;中餐厅;湖南菜(湘菜)
滴竺居(龙湖店),30.674864070320783,104.11007101965085,餐饮服务;茶艺馆;茶艺馆|餐饮服务;休闲餐饮场所;休闲餐饮场所
火漂火辣串串香,30.674940233982078,104.1217269170617,餐饮服务;中餐厅;中餐厅
好若邻快餐(建材路),30.647579743250056,104.13335641666052,餐饮服务;中餐厅;中餐厅
南京特味灌汤包(建设北路三段),30.68374198952886,104.11916559095583,餐饮服务;中餐厅;中餐厅
小麦先生(龙湖三千集店),30.678637345701265,104.10561224666445,餐饮服务;快餐厅;快餐厅
面对面(建设南路),30.674499991959987,104.11876251587367,餐饮服务;中餐厅;中餐厅
天籽餐吧,30.67336495236005,104.11809266855973,餐饮服务;休闲餐饮场所;休闲餐饮场所
新疆民族团结正宗羊肉串,30.653574992161822,104.12135016244935,餐饮服务;中餐厅;中餐厅
任性的小面,30.652242081308223,104.10854334034856,餐饮服务;快餐厅;快餐厅
田阿一有盐有味私房菜,30.657464887161037,104.10465366065314,餐饮服务;中餐厅;四川菜(川菜)
小酌龙虾啤酒广场,30.652260613850196,104.11642102962304,餐饮服务;中餐厅;海鲜酒楼
懿品卤业(崔家店路),30.66428148386071,104.12800004433646,餐饮服务;中餐厅;中餐厅
金刚芭比,30.67321343484865,104.11867001478085,餐饮服务;休闲餐饮场所;休闲餐饮场所
馄炖王,30.662895312663018,104.1066727702992,餐饮服务;中餐厅;特色/地方风味餐厅
飘香烤鱼干锅川菜,30.67423230248469,104.14332504421522,餐饮服务;中餐厅;特色/地方风味餐厅
