name,lat,lng,type
天伦食品(成都)有限公司,30.621710115219383,103.9689040804916,公司企业;公司;公司
利君股份,30.634531566291574,103.9882941814547,公司企业;公司;公司
四川川大智胜软件股份有限公司,30.631660453552694,103.9857635318402,公司企业;公司;网络科技|生活服务;生活服务场所;生活服务场所
中国成都恒泰鞋业(凤翔路),30.62628327319666,103.96299390198082,公司企业;公司;公司
成都卡美多鞋业有限公司,30.589601041442148,103.96878988730634,公司企业;公司;公司
锦江电子,30.636315053712252,103.98509139188428,公司企业;公司;机械电子
佳明,30.63021188172825,103.96453868760645,公司企业;工厂;工厂|购物服务;购物相关场所;购物相关场所
康特集团,30.635054481599067,103.98171068161301,公司企业;公司;公司
成都大兴达商贸有限公司,30.620780342269175,103.96542847148348,公司企业;公司;公司
成都国福龙凤食品有限公司,30.63258123403443,103.97485004891196,公司企业;公司;公司
含羞草,30.615299002688918,103.9684229804739,公司企业;公司;公司
大科星实业集团,30.629766994127237,103.97917899909939,公司企业;公司;公司
四川中鼎,30.63076418279733,103.97424221156291,公司企业;公司;公司
国营锦江机器厂,30.617714913714007,103.99473052168243,公司企业;工厂;工厂
莎莉娅,30.628148591518634,103.96758943471568,公司企业;工厂;工厂|公司企业;公司;公司
费希尔久安输配设备(成都)有限公司,30.634505083324388,103.98684803914502,公司企业;公司;公司
红旗股份有限公司配送中心,30.594144106612497,103.97434516261671,公司企业;公司;公司
成都鑫森鞋业,30.598136094403348,103.96503765909095,公司企业;公司;公司
黄浦投资,30.635877142368614,103.98817436667737,公司企业;公司;公司
大帝鞋业,30.59346990892565,103.96348465318076,公司企业;公司;公司
三勒浆药业,30.63300680819779,103.97850195697053,公司企业;公司;医药公司
永顺鞋业,30.59095938624282,103.96884946821015,公司企业;公司;公司
四川合信药业有限责任公司,30.63478587562302,103.97977880216077,公司企业;公司;医药公司
多米尼鞋业有限公司,30.605062308916466,103.97213997251822,公司企业;公司;公司
顺达鞋材(金顺街),30.624820466595473,103.95765576095809,公司企业;公司;公司
天伦食品(成都)有限公司,30.621710115219383,103.9689040804916,公司企业;公司;公司
利君股份,30.634531566291574,103.9882941814547,公司企业;公司;公司
四川川大智胜软件股份有限公司,30.631660453552694,103.9857635318402,公司企业;公司;网络科技|生活服务;生活服务场所;生活服务场所
中国成都恒泰鞋业(凤翔路),30.62628327319666,103.96299390198082,公司企业;公司;公司
成都卡美多鞋业有限公司,30.589601041442148,103.96878988730634,公司企业;公司;公司
锦江电子,30.636315053712252,103.98509139188428,公司企业;公司;机械电子
佳明,30.63021188172825,103.96453868760645,公司企业;工厂;工厂|购物服务;购物相关场所;购物相关场所
康特集团,30.635054481599067,103.98171068161301,公司企业;公司;公司
成都大兴达商贸有限公司,30.620780342269175,103.96542847148348,公司企业;公司;公司
成都国福龙凤食品有限公司,30.63258123403443,103.97485004891196,公司企业;公司;公司
含羞草,30.615299002688918,103.9684229804739,公司企业;公司;公司
大科星实业集团,30.629766994127237,103.97917899909939,公司企业;公司;公司
四川中鼎,30.63076418279733,103.97424221156291,公司企业;公司;公司
国营锦江机器厂,30.617714913714007,103.99473052168243,公司企业;工厂;工厂
莎莉娅,30.628148591518634,103.96758943471568,公司企业;工厂;工厂|公司企业;公司;公司
费希尔久安输配设备(成都)有限公司,30.634505083324388,103.98684803914502,公司企业;公司;公司
红旗股份有限公司配送中心,30.594144106612497,103.97434516261671,公司企业;公司;公司
成都鑫森鞋业,30.598136094403348,103.96503765909095,公司企业;公司;公司
黄浦投资,30.635877142368614,103.98817436667737,公司企业;公司;公司
大帝鞋业,30.59346990892565,103.96348465318076,公司企业;公司;公司
三勒浆药业,30.63300680819779,103.97850195697053,公司企业;公司;医药公司
永顺鞋业,30.59095938624282,103.96884946821015,公司企业;公司;公司
四川合信药业有限责任公司,30.63478587562302,103.97977880216077,公司企业;公司;医药公司
多米尼鞋业有限公司,30.605062308916466,103.97213997251822,公司企业;公司;公司
顺达鞋材(金顺街),30.624820466595473,103.95765576095809,公司企业;公司;公司
成都大桥道食品有限公司,30.58696606044506,103.97773363784368,公司企业;公司;公司
裕茂鞋业,30.627535041971235,103.9669870407946,公司企业;公司;公司
中凯鞋业,30.631044849958915,103.96278047603306,公司企业;公司;公司|公司企业;工厂;工厂
成都东方凯特瑞环保催化剂有限责任公司,30.630432626714413,103.97621184944678,公司企业;公司;公司
顺兴鞋材,30.59959308557879,103.9640956010294,公司企业;公司;公司
跃升鞋业,30.629961967994188,103.96384889887841,公司企业;公司;公司
成都电力机械厂,30.63209716876578,103.97165826491779,公司企业;工厂;工厂
成都活力低温设备有限公司,30.63330166681075,103.98660457305917,公司企业;公司;公司
武骏实业,30.60500982716803,103.9731021025266,公司企业;公司;公司
四川日机密封件股份有限公司,30.635256968285788,103.97440251691211,公司企业;公司;公司
成都丹露鞋业有限公司(金桥路),30.61628280249356,103.97036255859727,公司企业;公司;公司
洪森实业,30.587236309724435,103.96693946324747,公司企业;公司;公司
品尚鞋业,30.624230793825323,103.96474920770946,公司企业;公司;公司
成都拓新包装印务有限公司,30.587014605992223,103.96752340969134,公司企业;公司;公司
成都经纬机械制造有限公司,30.627459649575933,103.97584020465538,公司企业;公司;机械电子
成都博高信息技术股份有限公司,30.636517743159107,103.97524090809206,公司企业;公司;网络科技
长鹰,30.592592077466243,103.97020521411775,公司企业;公司;公司
先力电影器材(文昌路),30.593731307128607,103.99699984755412,公司企业;公司;公司
君臣科技,30.630375157981646,103.97442869980168,公司企业;公司;网络科技
成都纸业包装集团,30.595364144792025,103.98895423207115,公司企业;公司;公司
旭耀鞋业,30.606148479813086,103.97182665908025,公司企业;公司;公司
成都侨源实业有限公司,30.604801142506584,103.99847026849099,公司企业;公司;公司
奇香包装材料厂,30.592910424678102,103.96842509478977,公司企业;工厂;工厂
成都蜀阳,30.597839204903075,103.98707534403057,公司企业;公司;公司
丹露鞋业有限公司(簇马路三段),30.591122973977136,103.96911156383914,公司企业;公司;公司
亚欧美鞋业,30.630019187439306,103.9639828477654,公司企业;公司;公司
成都市宏港特种玻璃厂,30.589791386839938,103.97593885153005,公司企业;工厂;工厂
多联建材有限责任公司,30.610695411357003,103.9711058811832,公司企业;公司;公司
人本商贸(武兴路),30.62033175833208,103.96545485642885,公司企业;公司;商业贸易
海鑫鞋业,30.63158505583784,103.96178669651827,公司企业;公司;公司
德芯科技,30.63067844941691,103.97490639575985,公司企业;公司;网络科技
成都格蓝饲料有限公司,30.589993268479702,103.96655278717364,公司企业;公司;公司
四川中成混凝土有限公司,30.628656270421523,103.9582037233783,公司企业;公司;公司
楚北建筑租赁有限公司,30.63052372791823,103.95952670850613,公司企业;公司;公司
成都德久科技有限公司,30.632761166354832,103.96834502781687,公司企业;公司;网络科技
派中派鞋业有限公司,30.62833995636542,103.96655709447313,公司企业;公司;公司
蜀帝鞋业,30.626451048606917,103.96290971430356,公司企业;公司;公司
舒丽雅,30.61850302056752,103.96910177990438,公司企业;工厂;工厂|公司企业;公司;公司
成都市簇桥福利纸箱厂(文昌路),30.600806625742255,103.99357319916204,公司企业;工厂;工厂
太升鞋材,30.588833736467304,103.97523731914274,公司企业;公司;公司
成都市顶新包装印务有限公司,30.63538786113076,103.98712789909871,公司企业;公司;公司
成都大正印务有限公司,30.63432854831296,103.95542244193108,公司企业;公司;公司
四川新吉医药有限责任公司,30.6296101463002,103.9793652051452,公司企业;公司;医药公司
亚中医疗,30.62850713578168,103.97224660013727,公司企业;公司;医药公司
永丰联营厂,30.591218512962392,103.97413421743698,公司企业;工厂;工厂
聚利鞋业,30.60610772127705,103.9646087874971,公司企业;公司;公司
欧意鞋业,30.589750658072063,103.9799083224775,公司企业;公司;公司
康达包装,30.601136666284965,103.97373874061657,公司企业;公司;公司
隆生集团成都龙庆饲料实业有限公司,30.607571771299202,103.97046105579436,公司企业;公司;公司
康曼妮(金履路),30.61600121288394,103.96993469874931,公司企业;公司;公司
四川合美软件信息技术有限公司,30.628948357340903,103.97850986473428,公司企业;公司;公司
美奇尔鞋业(金履路),30.61568261168368,103.96934084019176,公司企业;公司;公司
海立实业,30.634440290081738,103.98343870670132,公司企业;公司;公司
恒洋鞋业,30.590191076473577,103.96830808756864,公司企业;公司;公司
成都艾多森鞋业有限公司,30.61850302056752,103.96910177990438,公司企业;公司;公司
麒腾鞋业,30.623956904990496,103.96645368334457,公司企业;公司;公司
四川变体科技有限公司,30.632514109112456,103.96781427466911,公司企业;公司;网络科技
六月印象广告,30.60651510519249,103.98673038618658,公司企业;公司;公司|生活服务;生活服务场所;生活服务场所
金福利鞋业,30.625075029919994,103.96531043308606,公司企业;公司;公司
cosplay中国,30.63638502005504,103.99039694594059,公司企业;公司;网络科技
国际小母牛中国项目,30.633542525298157,103.98536711190347,公司企业;公司;公司
四川汉宇航空科技有限公司,30.63209835717449,103.98435581727779,公司企业;公司;公司
四川德和医药有限公司,30.63383200757519,103.97899795747024,公司企业;公司;公司
成都倍迪科技有限公司,30.629524154433092,103.98499799560477,公司企业;公司;网络科技
三友鞋材,30.628335278151418,103.96144047782994,公司企业;工厂;工厂
聚宏发鞋业,30.632663903730613,103.96344355443745,公司企业;公司;公司|生活服务;生活服务场所;生活服务场所
居上沙发,30.604648638987463,103.96628134686291,公司企业;公司;公司
华东环球防静电地板,30.616100945460992,103.99092420598969,公司企业;公司;公司
街跑机车公路赛车,30.620600473524494,103.9659426880888,公司企业;公司;公司
环能科技,30.63359876258574,103.98987659201822,公司企业;公司;网络科技
正荣包装,30.629050874423626,103.96315687358202,公司企业;公司;公司
科创集团,30.629855769537986,103.97624553591235,公司企业;公司;医药公司
隆劲摩托车公司,30.620451689376434,103.96432861796181,公司企业;公司;公司
优博地产,30.626021180026758,103.98039130208643,公司企业;公司;公司
成都远方软件有限公司,30.632749588173276,103.96729291430563,公司企业;公司;网络科技
步宇,30.624703096625808,103.96614490912744,公司企业;公司;公司
天骄集团,30.629336588923035,103.9842551221001,公司企业;公司;公司
四川白稀节能环保科技有限公司,30.629772400540265,103.98490869494113,公司企业;公司;网络科技
成都翰东科技有限公司,30.633617205162064,103.96732280957788,公司企业;公司;网络科技
法和药业,30.634002640450333,103.97963781401702,公司企业;公司;医药公司
成都酷卡汽车服务公司,30.608643132427066,103.98176205838722,公司企业;公司;公司
簇锦香料,30.63438190526084,103.98357880061104,公司企业;公司;公司
成都四海公司,30.621152171617222,103.96432801545765,公司企业;公司;公司
成都搏润电子有限公司,30.633972325675472,103.97778462666095,公司企业;公司;公司
四川卓众医药有限公司,30.625986937550167,103.98059736314727,公司企业;公司;医药公司
金华鞋业,30.6293980180671,103.96429861207501,公司企业;公司;公司
锐鑫广告(蓉家酒店西南),30.60208284542646,103.9891975654563,公司企业;公司;广告装饰|生活服务;生活服务场所;生活服务场所
哈哈宝贝派对,30.62581558987712,103.97973743628972,公司企业;公司;公司
中意鞋材,30.604584398728665,103.96889868050877,公司企业;公司;公司
成都钟氏鞋业有限公司,30.601909192436455,103.97951539067355,公司企业;公司;公司
四川省众成矿业有限公司,30.633286854294504,103.96857738709843,公司企业;公司;矿产公司
成都微光云科技有限公司,30.625739196427734,103.9798795329824,公司企业;公司;网络科技
成都思图佳科技有限公司,30.630344411803346,103.98446796579518,公司企业;公司;网络科技
成都金佳云科技有限公司,30.625971031153114,103.98024133612327,公司企业;公司;网络科技
经纬科技(金履一路),30.6065551344397,103.97575402499203,公司企业;公司;公司
柒+壹鞋业有限公司,30.603383185943247,103.97204428676774,公司企业;公司;公司
成都慧达贸易有限公司,30.602991588366894,103.98392680585667,公司企业;公司;商业贸易
芊姿琦鞋业,30.62350144679085,103.95690996476644,公司企业;公司;公司
成都惠尔斯科技有限公司,30.588826217682406,103.97859972969177,公司企业;公司;网络科技
四川楚北混凝土有限公司(金顺街),30.625291895530662,103.95667416503066,公司企业;公司;公司
云雨波科技有限公司,30.625966851009938,103.98059638400989,公司企业;公司;公司
成都藤艺坊家具有限公司,30.619323701410384,103.98882554971442,公司企业;公司;公司
四川省天缘药业有限公司,30.629600568334133,103.98052735867762,公司企业;公司;医药公司
四川华西混凝土工程有限公司第三搅拌站,30.62147848958246,103.9859693770855,公司企业;公司;建筑公司
成都左凯家具有限公司,30.623324121814395,103.96046256419588,公司企业;公司;公司
天赋鞋业,30.624018869404,103.96489043256283,公司企业;公司;公司
梦露安娜,30.5886889565417,103.96452293254553,公司企业;公司;公司
东创建国汽车集团,30.63111142300632,103.97971946231422,公司企业;公司;公司
四川经纬印务有限公司,30.63509946515733,103.97575789313703,公司企业;公司;公司
成都三叶草布艺有限公司,30.63090328728262,103.98427827284014,公司企业;公司;公司
四川大鞋代科技有限公司,30.602316298263453,103.97955735379423,公司企业;公司;公司
四川省新|投资有限公司,30.635514500894047,103.99819508393348,公司企业;公司;公司|金融保险服务;金融保险服务机构;金融保险机构
利美鞋业,30.628205556237774,103.9660611848576,公司企业;工厂;工厂
成都全顺永合科技有限公司,30.587014605992223,103.96752340969134,公司企业;公司;网络科技
东源复合,30.606532409679,103.96410060515097,公司企业;公司;公司
成都宏信居装饰,30.625751234921143,103.97990852405619,公司企业;公司;公司
成都大锦科技有限公司,30.607194410252067,103.96361034257735,公司企业;公司;公司
好家乐橱柜,30.63046978355098,103.96317921578952,公司企业;公司;公司
美派鞋业,30.589354026040265,103.96557738025334,公司企业;公司;公司
成都明嘉实业有限公司,30.628260693528613,103.9794387575665,公司企业;公司;公司
金迪斯鞋业,30.590418848155974,103.9787984735744,公司企业;公司;公司
添韵艺玻,30.61864937316175,103.98912712134756,公司企业;公司;公司
正鑫鞋业,30.593455836230486,103.96806721006402,公司企业;公司;公司
旭达鞋业,30.62316030236426,103.95866150131593,公司企业;公司;公司
华渝鞋材,30.58888125545952,103.97168290498216,公司企业;公司;公司
上丹鞋业,30.621817737218116,103.95965185838504,公司企业;公司;公司
香森鞋业,30.630625623425157,103.96522227776951,公司企业;公司;公司
华升鞋材,30.605807440074184,103.964559862013,公司企业;公司;公司
美宜佳沙发浪情床垫,30.59010472555345,103.97820826800825,公司企业;公司;公司
雅麦克鞋业,30.62358383023558,103.96553693259278,公司企业;公司;公司
成都睿通光电有限公司,30.60441442562209,103.9729582129737,公司企业;公司;公司
天美(金航路),30.594624569785253,103.96773146509383,公司企业;公司;公司
新丝路鞋业,30.598618687184416,103.96332147873484,公司企业;公司;公司
四川祥亿钢结构有限公司,30.62614675923182,103.98031816147936,公司企业;公司;公司
华冠鞋材(邹家花园西北),30.595595301661415,103.9705550108622,公司企业;公司;公司
宏鑫发鞋材,30.59087083023088,103.97041862594511,公司企业;公司;公司
奇琪鞋业,30.602757280393135,103.97556980999612,公司企业;公司;公司
成都零纬度餐饮管理有限公司,30.600565612031918,103.96278442718342,公司企业;公司;公司
四川一鼎鸿企业管理有限公司,30.627363881059267,103.98971200972188,公司企业;公司;公司
四川众联环保工程有限公司,30.593383009377188,103.98985287123456,公司企业;公司;公司
四川盛侯商贸有限公司,30.606100024353694,103.99474548976913,公司企业;公司;公司
爱丝妮鞋业,30.626454454801685,103.96861240489562,公司企业;公司;公司
成都澜熙网络科技有限公司,30.6286639871453,103.97855919482217,公司企业;公司;网络科技
成都悠唐网络科技有限公司,30.634352997884587,103.96778190777508,公司企业;公司;网络科技
长丰鞋业,30.59004259191675,103.96781896378624,公司企业;公司;公司
鑫线鞋业,30.602765028530392,103.97393160781213,公司企业;公司;公司
成都雅锐网络科技有限公司,30.615485283781354,103.95792258090968,公司企业;公司;网络科技
成都惠致印务有限公司,30.633617205162064,103.96732280957788,公司企业;公司;公司
浩盈照明,30.612225203928105,104.00028870390906,公司企业;公司;公司
伟达路鞋材,30.591029865891702,103.97409313991378,公司企业;公司;公司
成都中建加固材料,30.61612999352476,103.99760700648339,公司企业;公司;公司
Bio标签,30.591762461703713,103.9700269127369,公司企业;公司;公司
四川合信药业有限责任公司,30.63673373732381,103.98014020962478,公司企业;公司;医药公司
千色家居,30.618087869346674,103.99074575215465,公司企业;工厂;工厂
赛康乳胶,30.62032853389349,103.97030745123139,公司企业;公司;公司
金花玻璃厂,30.60834661979157,103.9687325711392,公司企业;工厂;工厂
卡丁鞋服有限公司,30.60556142772706,103.97505921049417,公司企业;公司;公司
洪良鞋材,30.62125299928534,103.9698856049235,公司企业;公司;公司
弘和果蔬,30.62632857329889,103.9802749646372,公司企业;公司;公司
成都科达亨科技有限责任公司,30.613835534623977,103.97892617690597,公司企业;公司;网络科技
关南节能科技有限公司,30.632714913757525,103.98144768777253,公司企业;公司;公司
朗士照明,30.612225203928105,104.00028870390906,公司企业;公司;公司
尚天蕾,30.594081050723062,103.96805337440709,公司企业;公司;公司
星光皮料冲孔,30.61820218147956,103.96666971423556,公司企业;公司;公司
劳保拉链,30.59502926798068,103.99601603481038,公司企业;公司;公司
四川经纬测绘有限公司,30.63503912263016,103.97577097521616,公司企业;公司;公司
成都革瑞鞋材有限公司,30.62407165840957,103.96581949408976,公司企业;公司;公司
艾妮尔鞋业,30.629499811579482,103.9658226793351,公司企业;公司;公司
成都兰迪雅歌鞋业有限公司,30.602316390948637,103.9771530581487,公司企业;公司;公司
成都汇唐灯光设计有限公司,30.608185829890623,103.98096613054443,公司企业;公司;公司
成都巨金财务管理有限公司,30.630038784477037,103.98473136010726,公司企业;公司;公司
宏达自动化控制有限公司,30.629935172711438,103.9849585100059,公司企业;公司;公司
成都巧吉思食品有限公司,30.629542472724843,103.96264924400461,公司企业;公司;公司
环宇映画图文广告,30.605606724541413,103.98110294170922,公司企业;公司;广告装饰
中益燃气双流分公司,30.60972728779721,103.95663154933047,公司企业;公司;公司
三A皮革商贸行,30.620202524569923,103.96937244289226,公司企业;公司;商业贸易
森雅贝轩鞋业,30.63095537581496,103.9628295902486,公司企业;公司;公司
莲都鞋业,30.62417484736951,103.95757339202446,公司企业;公司;公司
邦业鞋业,30.62484550771039,103.96435254816059,公司企业;公司;公司
西鑫普,30.63336235125227,103.98800266658768,公司企业;公司;公司
李家祠花卉园艺场,30.593827476954804,103.96780327852552,公司企业;农林牧渔基地;其它农林牧渔基地
成都佳发安泰科技有限公司,30.633617205162064,103.96732280957788,公司企业;公司;网络科技
倩碧鞋业,30.590117044169165,103.97088537225343,公司企业;公司;公司
鸿成家具玻璃,30.596656042311572,103.99560826500327,公司企业;公司;公司
红星货场(文昌路),30.591767184063333,103.99696123263402,公司企业;公司;公司
华力机械(武青南路),30.629716573350024,103.97956210501515,公司企业;公司;机械电子
荣欣电脑绣花盘花,30.62103611024745,103.95479296077528,公司企业;公司;公司
浩鹏鞋业,30.628924548355748,103.96473621019716,公司企业;公司;公司
茂源鞋业(草金路中段),30.626316540031183,103.96054456960645,公司企业;公司;公司
艾美鞋业,30.623139470976508,103.95374192676144,公司企业;公司;公司
鹏腾鞋业,30.63187059170195,103.96599885623506,公司企业;公司;公司
亿能鞋业,30.60569134534013,103.9755122330868,公司企业;公司;公司
震华鞋业,30.60092044248086,103.97418080700113,公司企业;公司;公司
立创鞋底,30.621585764713483,103.95334530335388,公司企业;公司;公司
富奇鞋业,30.633884142003705,103.96189980503696,公司企业;公司;公司
凡成广告,30.599830894981835,103.9820228014098,公司企业;公司;广告装饰
百年兴业,30.605359722897916,103.97620140058658,公司企业;公司;公司
卓一广告(太平园西路),30.622651560835727,103.99764674609513,公司企业;公司;广告装饰
阳光伞鞋业,30.5881759021718,103.96939727066304,公司企业;公司;公司
艾美佳鞋业,30.587731836022368,103.96966806982455,公司企业;公司;公司
嘉丽多鞋业,30.604494275525926,103.97561752307227,公司企业;公司;公司
纤足缘鞋业,30.601793318564162,103.97257354836955,公司企业;公司;公司
派傲鞋业,30.621375372137084,103.95471065409008,公司企业;公司;公司
虹展鞋业,30.58722196040087,103.9634130233524,公司企业;公司;公司
果然轩鞋业,30.588331877088113,103.96647299205962,公司企业;公司;公司
恒兴鞋业(金航路),30.59866203059767,103.96472965282234,公司企业;公司;公司
恩宇鞋业,30.587547034043084,103.96366623408188,公司企业;公司;公司
锦缘鞋业,30.616632631627937,103.95755875665256,公司企业;公司;公司
和隆鞋材,30.631917029023036,103.95903495373155,公司企业;公司;公司
果果鞋业,30.601310992098703,103.97307664809927,公司企业;公司;公司
创意鞋材,30.58743748571141,103.97419946694214,公司企业;公司;公司
德利斯鞋业,30.624214603873774,103.96064572508722,公司企业;公司;公司
鑫丰鞋业,30.589860865750065,103.9767729849994,公司企业;公司;公司
世纪精工,30.6247412416048,103.96179934250691,公司企业;公司;公司
鸿森鞋业,30.62252292692905,103.95628480922997,公司企业;公司;公司
金利宏鞋业(金瓦路),30.628238963505062,103.96114555013847,公司企业;公司;公司
金圣天龙鞋业,30.628346504966686,103.96542594942208,公司企业;公司;公司
顺意达鞋业,30.627452841806548,103.96223755325502,公司企业;公司;公司
瑞豪复合,30.628336281469494,103.96144347706625,公司企业;公司;公司
和顺鞋业(金瓦路),30.629001045315388,103.96444708749654,公司企业;公司;公司
美丽龙鞋业,30.629525661399228,103.96424145697478,公司企业;公司;公司
瑞源鞋业,30.62884829946312,103.96448826711877,公司企业;公司;公司
君臣投资,30.629255986468007,103.97379193389409,公司企业;公司;公司
涛涛凯月露,30.61657914519864,103.9539063527517,公司企业;公司;公司
美美奇鞋业,30.616577139461242,103.95390635415612,公司企业;公司;公司
履行家鞋业,30.6158267771288,103.95448293811063,公司企业;公司;公司
福地花鞋业(金江南街),30.620360283370754,103.95794992086428,公司企业;公司;公司
四季恋歌鞋业有限公司,30.622655854582476,103.95755483980315,公司企业;公司;公司
红雅丽姿鞋业,30.62293062799842,103.95599339487718,公司企业;公司;公司
金芙蓉鞋业,30.623593850857453,103.95682886631738,公司企业;公司;公司
成都市杰鹏鞋业,30.622246801401033,103.95645608331395,公司企业;公司;公司
昱发鞋业,30.617471283252577,103.95495683952234,公司企业;公司;公司
贝妮尔鞋业,30.624264213258254,103.95756930367239,公司企业;公司;公司
缔鑫墅鞋业,30.622058734331578,103.95287082186883,公司企业;公司;公司
雨财鞋业,30.626313304708635,103.95884336692599,公司企业;公司;公司
图文广告文具,30.630027420208744,103.99197226123076,公司企业;公司;公司
众创空间(武科西一路),30.6286830584305,103.97860017819245,公司企业;公司;公司
旭晨鞋楦,30.632999754656666,103.9589315821647,公司企业;公司;公司
捷运鞋材,30.626705732631603,103.96606182646133,公司企业;公司;公司
九龙建材仓库提货处,30.595490452401126,103.99461695398391,公司企业;公司;公司
派利欧,30.63177887075574,103.9621815057718,公司企业;公司;公司
四川盛世宝典科技有限公司,30.633203516804787,103.98578759855648,公司企业;公司;网络科技
精诚数控,30.592906560439122,103.9966865738451,公司企业;公司;公司
成都动力视讯产品中心,30.634292064892662,103.96690888141211,公司企业;公司;公司
古力妹鞋业,30.632547144577398,103.96158147559059,公司企业;公司;公司
康利鞋业(金兴北路),30.63095537581496,103.9628295902486,公司企业;公司;公司
远鸿集团,30.635048724917137,103.98547014981841,公司企业;公司;公司
柒一拾壹(武科西四路),30.632761166354832,103.96834502781687,公司企业;公司;公司
派亿欧,30.63337726704379,103.96002723246772,公司企业;公司;公司
泰辉鞋业,30.633351698895858,103.96314064271685,公司企业;公司;公司
白鳕儿鞋业,30.63263460287779,103.95940910230662,公司企业;公司;公司
金都鞋业,30.623472223953083,103.97027461740994,公司企业;公司;公司
千语鞋业,30.625879553751503,103.9650995810744,公司企业;公司;公司
广圣鞋业,30.627820189060603,103.96515050298846,公司企业;公司;公司
衡峰涂装,30.625216721981502,103.96291499786261,公司企业;公司;公司
金派丽,30.626672092226364,103.96276446140715,公司企业;公司;公司
成都电力线路附件厂,30.591602686202076,103.97230913567476,公司企业;工厂;工厂
伊兰迪重载滤清器,30.609073429170994,104.00020015665307,公司企业;公司;公司
陆盛土地整理有限公司,30.635412236706053,103.96049261575497,公司企业;公司;公司
四川国研磨具有限公司,30.594596518157765,103.98327937055907,公司企业;公司;公司
方格梦,30.63157858403398,103.9649210850919,公司企业;公司;公司
美美佳玉鞋业,30.63229901536353,103.96556527060272,公司企业;公司;公司
金宇足鞋业,30.611700515424527,103.96857508276683,公司企业;公司;公司
乐笑鞋业,30.605690343921626,103.97551323346691,公司企业;公司;公司
精典郎鞋业,30.605690343921626,103.97551323346691,公司企业;公司;公司
大隆机器成都分公司,30.605824807567032,103.97258183886298,公司企业;公司;机械电子
芭芘情缘鞋业,30.62353572093587,103.96535795698156,公司企业;公司;公司
鑫达鞋材鞋面工艺,30.628484297570846,103.96074022509085,公司企业;公司;公司
艺润堂装饰,30.625272890786427,103.97619556119754,公司企业;公司;公司
开元皮革牧羊人实业,30.600383303028057,103.97884440150494,公司企业;公司;公司
晃源工业,30.604769354055577,103.96491815443511,公司企业;公司;公司
美奇尔鞋业,30.6237904820701,103.95935198199328,公司企业;公司;公司
新红阳家私配货仓库,30.610023984146054,103.97379151376067,公司企业;公司;公司
鑫鸿福广告,30.606480494665465,103.9990209074733,公司企业;公司;公司
超元鞋业,30.60087342777001,103.97420481231072,公司企业;公司;公司
锦源鞋业,30.624970747668915,103.9649714973035,公司企业;公司;公司
成都世纪农康生物科技有限公司,30.63120607372568,103.97279550025956,公司企业;公司;网络科技
景丰广告,30.61467631335361,103.9971979086179,公司企业;公司;广告装饰
行行鞋机,30.62641497703651,103.96053446427679,公司企业;公司;公司
庆泽物业服务中心,30.626917999520504,103.97191931323643,公司企业;公司;公司
天之汇建筑,30.633826662083532,103.98623285063644,公司企业;公司;建筑公司
康特集团,30.634004736257012,103.97945378875863,公司企业;公司;公司
四川同辉检测公司,30.628950049860862,103.97919994731912,公司企业;公司;公司
固特九洲,30.631014485234793,103.97414689790513,公司企业;公司;公司
河南省范县豫星制药有限公司,30.604748869705205,103.99015625752939,公司企业;公司;医药公司
四川笑顺到家网络技术有限公司,30.636852125235514,103.9720880615849,公司企业;公司;网络科技
香阁儿,30.602776650384712,103.9769739799772,公司企业;公司;公司
超凡广告,30.62643161920185,103.974596160121,公司企业;公司;公司
丽丰广告・装饰,30.61401678499406,103.97933711924395,公司企业;公司;广告装饰
成都坤程贸易有限公司,30.59745568758183,103.99526631761849,公司企业;公司;商业贸易
鑫汇鞋业,30.5897097451019,103.97990030320835,公司企业;公司;公司
名丰美高美分厂,30.590120177888735,103.96839006728743,公司企业;公司;公司
中国成都恒昌鞋业,30.587705894871796,103.96967705697824,公司企业;公司;公司
嘉瑞航鞋业,30.587951793309173,103.96423452076176,公司企业;公司;公司
双美鞋业,30.58704885791855,103.9624138035194,公司企业;公司;公司
德坤航空,30.610838085567337,103.97240797376769,公司企业;公司;公司
紫飞扬,30.615895036170897,103.96968073947306,公司企业;公司;公司
兴顺鞋材复合,30.61860132769356,103.9669204373638,公司企业;公司;公司
鸿升鞋业,30.616851164985754,103.96873996246339,公司企业;公司;公司
万时达鞋业,30.623386226252716,103.9607695422741,公司企业;公司;公司
金江明珠物业服务中心,30.636310231274592,103.95204637928349,公司企业;公司;公司
鑫亚五金饰扣,30.61834508917748,103.96785574955571,公司企业;公司;公司
志胜鞋业,30.589540199472854,103.97966919815813,公司企业;公司;公司
赛虎家私,30.591471951552172,103.97659661531064,公司企业;公司;公司
南洋仓库,30.619425144603113,103.99078970896896,公司企业;公司;公司
斯美露鞋业,30.593008415402903,103.96375855310342,公司企业;公司;公司
康俊环卫,30.619354339015274,103.9898456502719,公司企业;公司;公司
米珂鞋业,30.61992140334562,103.95876138579831,公司企业;公司;公司
鹏飞放样,30.623163799710582,103.9707369673221,公司企业;公司;公司
诗菲儿,30.62280269140906,103.95695963125314,公司企业;公司;公司
美人鱼鞋业,30.624836198951353,103.95838383324052,公司企业;公司;公司
宾主乐鞋业,30.623339493179564,103.95322367466028,公司企业;公司;公司
全兴风顺,30.623415269911625,103.95655100378305,公司企业;公司;公司
君业鞋业(金顺街),30.623622463404775,103.95792497135807,公司企业;公司;公司
丽思鞋业,30.6225658775672,103.95456456192062,公司企业;公司;公司
美佳宏,30.61716165016428,103.95432098837361,公司企业;公司;公司
四川百成,30.629487816479664,103.97441974221489,公司企业;公司;公司
盛源达鞋业,30.5994182195503,103.97485291719464,公司企业;公司;公司
彩华粉末,30.59680204732011,103.99537225535751,公司企业;公司;公司
电光鼎翰,30.60555398386061,103.98923495556512,公司企业;公司;公司
成都川空阀门有限公司,30.595116248866127,103.98266440734527,公司企业;公司;公司
德穆斯寝具,30.60183383745388,103.97365367728098,公司企业;公司;公司
圣天龙鞋业,30.629587523584426,103.96519650111121,公司企业;公司;公司
图森鞋业,30.606929813207497,103.9642185000055,公司企业;公司;公司
美芙妮,30.603472661192264,103.9623190833073,公司企业;公司;公司
圣齐路鞋业,30.594439710402725,103.96787744020136,公司企业;公司;公司
金玉萱,30.604767947773457,103.96580826343322,公司企业;公司;公司
华伟鞋业,30.604018237042936,103.96837172781399,公司企业;公司;公司
卡美伦,30.627394596834822,103.9665631429274,公司企业;公司;公司
成都市万里扬鞋业,30.631114495125846,103.96432157878186,公司企业;公司;公司
银华鞋材,30.63403622125215,103.96352680463025,公司企业;公司;公司
贝尔蒂妮,30.632474991269266,103.96109050676415,公司企业;公司;公司
恒华鞋业有限公司,30.625429438720154,103.96331882958773,公司企业;公司;公司
刘氏鞋业,30.625097827672928,103.96377522321477,公司企业;公司;公司
白金玉(凤鸣路),30.622756493401983,103.963567475598,公司企业;公司;公司
宏远鞋业,30.633668197679963,103.96358528927021,公司企业;公司;公司
财赋鞋材,30.631552512608096,103.96042857184985,公司企业;公司;公司
靓派鞋业,30.623969859797388,103.96447843022732,公司企业;公司;公司
花蝶恋,30.625604880780337,103.9574329356117,公司企业;公司;公司
宏荣鞋材,30.62849494105101,103.96162732065473,公司企业;公司;公司
科士特鞋业,30.623529343833034,103.96612805688483,公司企业;公司;公司
蓝风鞋业,30.623619614853204,103.96631999356667,公司企业;公司;公司
宇・丽佳,30.62406898593493,103.9672676731561,公司企业;公司;公司
联合包装,30.625240873189977,103.96718149247017,公司企业;公司;公司
红丽多鞋业,30.629086372244274,103.96462301101056,公司企业;公司;公司
伟杰童鞋,30.626460364714852,103.964493896984,公司企业;公司;公司
迷尚鞋业,30.62432773696962,103.96573923270186,公司企业;公司;公司
天伦饼干,30.621746365750553,103.96864801682612,公司企业;公司;公司
豪宇飞翔,30.62109662386036,103.95633209400623,公司企业;公司;公司
菲迪鞋业,30.621161227818114,103.95551893945058,公司企业;公司;公司
六合盛刀模,30.615928910399166,103.95480490825669,公司企业;公司;公司
雄风鞋业(金江南街),30.616065060300425,103.95530087591119,公司企业;公司;公司
俊林鞋业,30.625266052748458,103.96046164982128,公司企业;公司;公司
鸣鑫鞋业,30.623256691661506,103.96082367207406,公司企业;公司;公司
紫晶梦幻软体家具,30.588166813445216,103.97401283336079,公司企业;公司;公司
成都腾峰鞋材,30.62377949580769,103.96360050830171,公司企业;公司;公司
红波鞋业,30.624439919740574,103.96415692918018,公司企业;公司;公司
四川天富鞋业,30.589497364730974,103.96636554284922,公司企业;公司;公司
广泰数控,30.633884966719098,103.9753534428682,公司企业;公司;公司
美丽点鞋业(内销)公司,30.59866103048079,103.96473065289645,公司企业;公司;公司
四川红瑞和医药科技有限公司,30.636852125235514,103.9720880615849,公司企业;公司;医药公司
博锐广告,30.602653843674144,103.98524101293442,公司企业;公司;公司
金足湾鞋业,30.62421641761063,103.96544430645328,公司企业;公司;公司
华瑞(凉港三路),30.590142157576448,103.96834007058384,公司企业;公司;公司
盛宝利鞋业有限公司,30.591218512962392,103.97413421743698,公司企业;公司;公司
爱斯妮鞋业,30.623882563555824,103.95779570429922,公司企业;公司;公司
达飞鞋业,30.619751382762743,103.96630844325504,公司企业;公司;公司
四川高软软件科技有限公司,30.633068900488453,103.96812160997086,公司企业;公司;网络科技
新创艺鞋业,30.626494008774138,103.96559599537059,公司企业;公司;公司
四川华勋车业有限公司,30.622070520431354,103.96656647101241,公司企业;公司;公司
华日通讯,30.635212539293278,103.97261835845677,公司企业;公司;公司
齐雄鞋业,30.62605941853348,103.95835757507092,公司企业;公司;公司
鑫煌鞋业,30.62312621867082,103.95199472898133,公司企业;公司;公司
鑫足鞋业,30.62430682427031,103.96536120730937,公司企业;公司;公司
佳凝鞋业,30.630825429926393,103.96564608930711,公司企业;公司;公司
皓洋鞋业,30.62401497216846,103.95806960852892,公司企业;公司;公司
锦尚鞋业,30.63374655195456,103.96373620626534,公司企业;公司;公司
鸿扬鞋业,30.600887642678376,103.97373475388554,公司企业;公司;公司
顺鑫烨鞋楦,30.60432508560705,103.96916676623832,公司企业;公司;公司
凤华鞋业(簇马路一段),30.598695892471763,103.98038757600162,公司企业;公司;公司
华龙家具实业公司,30.619323701410384,103.98882554971442,公司企业;公司;公司
世佳鞋业,30.62192646728306,103.95674940926749,公司企业;公司;公司
雅嘉丽鞋业,30.624997321076048,103.95521828839044,公司企业;公司;公司
思丹妮实业有限公司,30.589916113180774,103.96722983643204,公司企业;公司;公司
佳美斯包装,30.633274660401582,103.96450290688438,公司企业;公司;公司
华佛国际医院投资集团,30.628097938168796,103.97724767131464,公司企业;公司;公司
芭酷雅妮鞋业,30.626242464121223,103.96874464512527,公司企业;公司;公司
宜真床垫・软床,30.58991521008317,103.98016242656554,公司企业;公司;公司
纵横鞋业,30.587314460431667,103.97273821907622,公司企业;公司;公司
悦之羽鞋业,30.633251097837913,103.96110052414221,公司企业;公司;公司
浓情漫宇鞋业,30.630791287854695,103.96558212262778,公司企业;公司;公司
永兴(金兴中路),30.627690773743943,103.96694386425946,公司企业;公司;公司
优博地产(金兴中路),30.622317036659698,103.96965762357026,公司企业;公司;公司
泽鑫物业,30.595341751002437,103.96570636869497,公司企业;公司;公司
洪章彩钢库房,30.59262266702557,103.9973595687267,公司企业;公司;公司
妮芝荭鞋业,30.603240023066885,103.97223633250836,公司企业;公司;公司
百丽(鞋都南三路),30.604125381431682,103.9726082267559,公司企业;公司;公司
成都伊诺鞋业有限公司,30.624837201297176,103.95838783271743,公司企业;公司;公司
成都海鹰,30.58799439587537,103.96706689012179,公司企业;公司;公司
兴盛(凤鸣路),30.623390893350862,103.96591516336366,公司企业;公司;公司
成都亚霖包装有限公司,30.626886478117893,103.9683779148657,公司企业;公司;公司
成都皖东科技有限公司,30.624932505719304,103.95859176148082,公司企业;公司;公司
智盛鞋业,30.626421298801105,103.96863444273453,公司企业;公司;公司
洋中洋鞋业,30.626254192269336,103.96726445229693,公司企业;公司;公司
韩露诗鞋业,30.62309405079664,103.96521035912488,公司企业;公司;公司
成都尚艺辰装饰工程有限公司,30.630807866623456,103.98415037220734,公司企业;公司;公司
鑫达钢化玻璃厂,30.590170353539232,103.97655009187376,公司企业;公司;公司
成都市武侯区鸿森鞋业,30.6336316101162,103.96225817546076,公司企业;公司;公司
荣兴鞋业,30.615447240904295,103.96876492538532,公司企业;公司;公司
三福石材有限公司,30.616739882980248,103.9994528086698,公司企业;公司;公司
首创研发,30.594276647923994,103.96404293193405,公司企业;公司;公司
艺源中大底,30.62320536259201,103.96548028676796,公司企业;公司;公司
多客侈鞋业,30.62486024961676,103.96286435241657,公司企业;公司;公司
金利雅不锈钢有限公司,30.614573648768665,103.99809108230312,公司企业;公司;公司
新瑞鞋业,30.59439137190285,103.97312807312028,公司企业;公司;公司
腾飞物业管理公司,30.62266324412722,103.99844183265638,公司企业;公司;公司
利成鑫企业管理有限公司,30.60013439576676,103.98306192619783,公司企业;公司;公司
黛安利鞋业,30.626833173990498,103.96633672339523,公司企业;公司;公司
伊美蝶鞋业,30.62615084102475,103.96485926815983,公司企业;公司;公司
成都皖庆科技有限公司,30.624965548760848,103.95879975332988,公司企业;公司;公司
成都苏佳贸易有限公司,30.625764348657107,103.97321269063363,公司企业;公司;公司
维度百纳摄影设计公司,30.60290239401369,103.97766004736468,公司企业;公司;公司
志祥木业,30.61717951878802,103.99867439861397,公司企业;公司;公司
蝶美思鞋业,30.6286123075663,103.96203323717125,公司企业;公司;公司
四川天宇翔,30.633362742063557,103.96752916213816,公司企业;公司;公司
湖南星大,30.633362742063557,103.96752916213816,公司企业;公司;公司
成都柏信电气有限公司,30.634292064892662,103.96690888141211,公司企业;公司;机械电子
四川罗欣医药有限公司,30.607572773969135,103.97045805508975,公司企业;公司;医药公司
成都永正鞋材有限公司,30.597952331632484,103.96470060405971,公司企业;公司;公司
蓝琪儿,30.589790867553624,103.9792702617179,公司企业;公司;公司
成都恒宁环保工程有限公司,30.629420123458946,103.97959145378893,公司企业;公司;公司
胜鑫木业,30.6318474597397,103.9573148318809,公司企业;公司;公司
根据地237厂库房,30.595248819505052,103.99211659919085,公司企业;公司;公司
四川金农丰,30.631014485234793,103.97414689790513,公司企业;公司;公司
四川鑫怡置业有限公司,30.63328685383282,103.96857838722089,公司企业;公司;公司
四川鸿骏经贸有限公司,30.633068900488453,103.96812160997086,公司企业;公司;商业贸易
人和春天,30.60082429414849,103.97449084980593,公司企业;公司;公司
美高美,30.622765506627797,103.9636144729188,公司企业;公司;公司
红丹妮,30.623322701825938,103.96574620775142,公司企业;公司;公司
忆思美公司,30.60684961539814,103.97543789790481,公司企业;公司;公司
正宏康公司,30.627585046027516,103.97184857900712,公司企业;公司;公司
成都宇银科技有限公司,30.626097500552188,103.98041522507802,公司企业;公司;公司
华美制药有限公司,30.63293341229886,103.97851605199668,公司企业;公司;公司
四川首信实业有限公司,30.601956164836217,103.97960439713869,公司企业;公司;公司
谊兴公司,30.636775821880974,103.98266246026448,公司企业;公司;公司
金森鞋业(金航街),30.604063592436088,103.96765663187766,公司企业;公司;公司
上海建设,30.62033175878998,103.96545385630664,公司企业;公司;建筑公司
成都今网科技有限公司,30.629556797888355,103.98393582740196,公司企业;公司;公司
捷兴吊装有限公司,30.60389742331966,103.97218721731774,公司企业;公司;公司
林英鞋业,30.59904105471364,103.96442463060582,公司企业;公司;公司
成都童乐鞋业有限公司,30.625917655147294,103.96961209135041,公司企业;公司;公司
四川雾松鞋业有限公司,30.60655447552944,103.97500193286528,公司企业;公司;公司
四川名建公司,30.62863815087863,103.9844989520857,公司企业;公司;公司
稻上餐饮服务有限公司,30.626922815302763,103.97236936304643,公司企业;公司;公司
众德钻探工程有限公司,30.63143692920347,103.98004110498611,公司企业;公司;公司
升迅公司,30.627630272866472,103.9718045238884,公司企业;公司;公司
光创联公司,30.60774148653029,103.98038021533142,公司企业;公司;公司
天钧福特有限公司,30.60690018312325,103.97431974515811,公司企业;公司;公司
豪门骄子公司,30.60821970600752,103.97474135373933,公司企业;公司;公司
众信创科技有限公司,30.606223553709558,103.98063972032679,公司企业;公司;公司
铭居装饰公司,30.628141660566566,103.99143836207762,公司企业;公司;公司
索客科技公司,30.633393182951167,103.98218191374028,公司企业;公司;公司
天极之光药业有限公司,30.6333457586976,103.98910282270344,公司企业;公司;公司
成都商物投集团,30.613037249580454,103.98206502294141,公司企业;公司;公司
友诚汽配转向系统大全,30.609077256255038,104.00059520357838,公司企业;公司;公司
城建租赁,30.60208484869494,103.98698829322754,公司企业;公司;公司
中测华科环境监测,30.630342886117823,103.97904230277807,公司企业;公司;公司
楚北实业公司,30.63446442046187,103.96819481163242,公司企业;公司;公司
成都金果果游乐设备有限公司,30.625803105694278,103.98068056486278,公司企业;公司;公司
成都市美蓝电子仪器有限公司,30.633761601165205,103.97905305547255,公司企业;公司;公司
四川省智信家具制造有限公司,30.60199541539144,103.979077328488,公司企业;公司;公司
奥普利斯门窗有限公司,30.61382160274362,103.9985295930334,公司企业;公司;公司
成都钟氏鞋业有限公司,30.60902761436963,103.96659504918398,公司企业;公司;公司
卓凡物业有限公司,30.635797649087717,103.97302262007433,公司企业;公司;公司
成都卫众数码科技有限责任公司,30.603211567375926,103.97540572581993,公司企业;公司;网络科技
悦享百趣公司,30.61833550137874,103.99986768211687,公司企业;公司;公司
钟鞋业有限公司,30.602842945532473,103.98078944030944,公司企业;公司;公司
悦和创意设计有限公司,30.607255860917352,103.97597783639853,公司企业;公司;公司
捷诺舒适家,30.610176552860718,103.97752790482753,公司企业;公司;公司
四川黎~建筑公司,30.631029937580465,103.97988058083881,公司企业;公司;公司
吴普公司,30.63393751619054,103.98568063898769,公司企业;公司;公司
艾尔微鞋业有限公司,30.60225752056211,103.97682402422848,公司企业;公司;公司
安运医疗救援公司,30.609748098843454,103.98570709676405,公司企业;公司;公司
车车云公司,30.629741950343096,103.97900800746802,公司企业;公司;公司
双流聚万汇公司,30.60194947845532,103.97671004188943,公司企业;公司;公司
胜宝科技,30.605691344885134,103.97551323320971,公司企业;公司;公司
春吉建筑劳务有限公司,30.62935030623746,103.98501819978318,公司企业;公司;公司
源联管理有限公司,30.60684257595352,103.97990844922589,公司企业;公司;公司
四川欣顺建材有限公司,30.626873588965566,103.97238341772474,公司企业;公司;公司
尊品味餐饮管理公司,30.62935030623746,103.98501819978318,公司企业;公司;公司
希爱力有限公司,30.629601787364617,103.98443583629641,公司企业;公司;公司
成都惠迪商贸有限公司,30.60880521751108,103.99092712313869,公司企业;公司;公司
四川蓝睿商贸有限公司,30.61866279650578,103.99929935897484,公司企业;公司;公司
新城控股成都公司,30.62935030623746,103.98501819978318,公司企业;公司;公司
天地河鞋业,30.590819155990356,103.97429308167128,公司企业;公司;公司
君诺公司,30.61537745393589,103.9920838318415,公司企业;公司;公司
紫丁香园林有限公司,30.625222120310834,103.97303322600355,公司企业;公司;公司
成都至尚科技有限公司,30.63125891902345,103.98463888573862,公司企业;公司;公司
四川铂泰环境工程公司,30.618817320893392,103.99923623014132,公司企业;公司;公司
成都锦欧科技有限公司,30.60278859654192,103.97930426489133,公司企业;公司;公司
西风公司,30.606573631938637,103.97910643135945,公司企业;公司;公司
润通机电有限公司,30.628070706455112,103.95999859918399,公司企业;公司;公司
成都翔菲家具有限公司,30.590884960945722,103.96788632080667,公司企业;公司;公司
金美希鞋业有限公司,30.62879502550189,103.96235206831997,公司企业;公司;公司
鑫达鞋材,30.58882777241093,103.96862250309054,公司企业;公司;公司
成都鹏华贸易有限公司,30.631360711058857,103.97966915262364,公司企业;公司;公司
中联亚克力,30.61899279188599,103.99944911761663,公司企业;公司;公司
成都远控科技有限公司,30.629860544936644,103.978972864184,公司企业;公司;公司
成都安佑医药有限公司,30.627585046027516,103.97184857900712,公司企业;公司;公司
WISU HERE,30.607796603373483,103.98028518464955,公司企业;公司;公司
诗莎公司,30.60672022571966,103.97596500185284,公司企业;公司;公司
成都时早科技有限公司,30.62982564603232,103.98493963633528,公司企业;公司;公司
佳亿鞋业,30.633046014689764,103.96107678302317,公司企业;公司;公司
成都茛琪鞋业有限公司,30.629447729704506,103.96545169466614,公司企业;公司;公司
瑞升公司,30.626873588965566,103.97238341772474,公司企业;公司;公司
成都市联顺汽车服务有限公司,30.630452410657327,103.9703481093099,公司企业;公司;公司
路尚企业管理有限公司,30.60196137761669,103.97913933943127,公司企业;公司;公司
众铭建筑设计,30.633812590472086,103.98622286766324,公司企业;公司;建筑公司
饿了么公司,30.607058395620246,103.99409512714253,公司企业;公司;公司
西部设计中心,30.629939241549213,103.98485149209935,公司企业;公司;公司
皮具护理公司,30.603927611965055,103.97621370608138,公司企业;公司;公司
三角广告,30.60666512204756,104.00030101016863,公司企业;公司;公司
蓉意广告,30.601951209633157,103.97510284424749,公司企业;公司;公司
金蚨公司,30.629078230971594,103.98451645195767,公司企业;公司;公司
成都品成科技有限公司,30.62984511641871,103.98411851282958,公司企业;公司;公司
国方加固公司,30.633337705064072,103.98912583585354,公司企业;公司;公司
榕科捷检测公司,30.631783935889946,103.96209648920578,公司企业;公司;公司
八光分文化,30.6356865639215,103.97183962597606,公司企业;公司;公司
建丰元公司,30.63003275533395,103.98473036709709,公司企业;公司;公司
成都林记食品有限公司,30.625670939744374,103.97322978945627,公司企业;公司;公司
首信广告,30.616986736388945,103.99033751435603,公司企业;公司;公司
成都文越家具有限公司,30.633633025216998,103.96354733008762,公司企业;公司;公司
东莞耐力工具有限公司,30.606551369839167,103.96423461594503,公司企业;公司;公司
成都威庆科技有限公司,30.626873588965566,103.97238341772474,公司企业;公司;公司
四川远通通信有限公司,30.62958175547923,103.98210557399335,公司企业;公司;公司
成都元初商贸有限公司,30.61376882666906,103.99996380011936,公司企业;公司;公司
锦宏鞋业有限公司,30.61682857908521,103.96549258226436,公司企业;公司;公司
四川新宇祥原装饰公司,30.630179493177366,103.98469518937162,公司企业;公司;公司
成都峻鑫化工有限公司,30.606323779950422,103.98478220159828,公司企业;公司;公司
成都丰麒商贸公司,30.62592986442478,103.98021637602946,公司企业;公司;公司
首信汇彤阳物业公司,30.608841687584295,103.97679737191257,公司企业;公司;公司
妙龄妙品鞋业公司,30.6066253762077,103.97539596031149,公司企业;公司;公司
红星瑞祥商贸公司,30.627585046027516,103.97184857900712,公司企业;公司;公司
四川成邦服饰有限公司,30.613090504055496,103.98837676868277,公司企业;公司;公司
成都创虹科技有限公司,30.629512608566884,103.98169460409498,公司企业;公司;公司
禾茂生物公司,30.635064523809344,103.98174067189431,公司企业;公司;公司
成都均威商贸有限公司,30.620351286100473,103.9644467172013,公司企业;公司;公司
蓝月亮公司,30.6338461226505,103.98545773040148,公司企业;公司;公司
兰若妮鞋业,30.622672573456043,103.95393638738176,公司企业;公司;公司
四川玖鼎科技有限公司,30.625783434894007,103.9732036697284,公司企业;公司;公司
成都添雅贸易有限公司,30.630310125024245,103.98472403794877,公司企业;公司;公司
成都精太科技有限公司,30.628132625569574,103.97828375945204,公司企业;公司;公司
雅梦纤足,30.628257070226162,103.96546305434521,公司企业;公司;公司
新奇尚(成都分公司),30.629973389163133,103.98489445717567,公司企业;公司;公司
宏盛佳源鞋材,30.587583546144142,103.97327943362112,公司企业;公司;公司
艾美特,30.625735439049244,103.9639925960845,公司企业;公司;公司
创融达科技有限公司,30.63068524119714,103.97980398704009,公司企业;公司;公司
蔓妮服装有限公司,30.60547314833025,103.97989482663043,公司企业;公司;公司
巨多广告公司,30.627811068303583,103.9784401361662,公司企业;公司;广告装饰
成都比力科技有限公司,30.62993718255102,103.98495850764137,公司企业;公司;公司
欢乐保电子有限公司,30.631782936902813,103.96862028379485,公司企业;公司;公司
成都热付科技有限公司,30.625755251271546,103.97991052013623,公司企业;公司;公司
格蕾斯服饰有限公司,30.60311171823663,103.9771639566761,公司企业;公司;公司
四川聚升电梯有限公司,30.61189621216693,103.96572763509128,公司企业;公司;公司
四川泰立科技有限公司,30.63139693958231,103.97957309658642,公司企业;公司;公司
兰雨精工实业有限公司,30.62551791106503,103.97623931553218,公司企业;公司;公司
成都安迪电器有限公司,30.588853816809653,103.97496429530786,公司企业;公司;公司
鹏腾五金有限公司,30.601953359011546,103.99459624283644,公司企业;公司;公司
成都兴锋科技有限公司,30.62643161920185,103.974596160121,公司企业;公司;公司
科陆洲电子有限公司,30.6317829382862,103.96861728342745,公司企业;公司;公司
创软科技有限责任公司,30.628812754375424,103.97842000858309,公司企业;公司;公司
成都润N长业有限公司,30.601941296611514,103.97930536178481,公司企业;公司;公司
凯思特仓库,30.63025411009993,103.97322469646738,公司企业;公司;公司
成都欣晟包装有限公司,30.631208052599547,103.97286350616025,公司企业;公司;公司
成都久享科技有限公司,30.625221000480234,103.97328525796377,公司企业;公司;公司
维艺广告公司,30.60210000904092,103.98003943632878,公司企业;公司;公司
虹威科技有限公司,30.62646577090046,103.97459312352687,公司企业;公司;公司
亮剑教育集团,30.606665349487344,103.97995650866423,公司企业;公司;公司
联华燃气公司,30.605293943106098,103.98659669482527,公司企业;公司;公司
购佰商业集团,30.63328685383282,103.96857838722089,公司企业;公司;公司
四川乐尔电气有限公司,30.63251209855789,103.96781427719682,公司企业;公司;机械电子
成都安力科技有限公司,30.635542493660523,103.95935630299083,公司企业;公司;网络科技
通达鞋业,30.622966191081414,103.95725051344425,公司企业;公司;公司
斯科诺鞋业,30.620571077367085,103.95782272682168,公司企业;公司;公司
弘高融资租赁公司,30.606572629905514,103.97910843190031,公司企业;公司;公司
四川凯普顿信息技术股份有限公司,30.632519138269917,103.96780826761487,公司企业;公司;网络科技
好美多(金兴北路),30.630834010876075,103.96229367163646,公司企业;公司;公司
聚康诚科技,30.629888477005995,103.98160615398508,公司企业;公司;公司
成都精瑞德医疗器械有限公司,30.617813474270235,103.98535329665123,公司企业;公司;医药公司
成都凯凯凯电站风机有限公司,30.6322513236544,103.9708889788376,公司企业;公司;公司
豪兴泰公司,30.618139800027688,104.00006485591481,公司企业;公司;公司
成都凌鹰文化有限公司,30.618069422679003,104.00041495225675,公司企业;公司;公司
中宇航天四川分公司,30.636712050406018,103.9813623891941,公司企业;公司;公司
成都光陆科技有限公司,30.6317829382862,103.96861728342745,公司企业;公司;公司
中安消技术有限公司,30.636581485275272,103.98095251906972,公司企业;公司;公司
之境设计,30.63617848984708,103.99115632166564,公司企业;公司;公司
翰鼎光电,30.60549590473494,103.98928997686428,公司企业;公司;公司
四川长荣建材有限公司,30.61449215103212,103.99873721214824,公司企业;公司;公司
东豪家具有限公司,30.631790952052285,103.96867728084597,公司企业;公司;公司
广电计量检测有限公司,30.63497511166475,103.98155376813426,公司企业;公司;公司
锦天下园林工程公司,30.60687786359845,103.97936637178132,公司企业;公司;公司
兴能设计公司,30.634242149288763,103.98573924862264,公司企业;公司;公司
瑞天环境有限公司,30.63325281264223,103.9900840620484,公司企业;公司;公司
普斯科技,30.629325358060186,103.9737088435933,公司企业;公司;公司
四川叁洋商贸有限公司,30.601980413407873,103.97907232934094,公司企业;公司;公司
锦城线业公司,30.597494690303975,103.99521231486516,公司企业;公司;公司
四川科力达医疗科技有限公司,30.629433730742626,103.98496909709492,公司企业;公司;医药公司
成都高龙饲料有限公司,30.589962347946987,103.96651376891342,公司企业;公司;公司
成都(福建)冠亿鞋材,30.62054020415892,103.96826202225617,公司企业;公司;公司
四川魔力科技有限公司,30.62974495721088,103.97902500603178,公司企业;公司;公司
成都谷地商贸有限公司,30.60537293528792,103.97576034321095,公司企业;公司;公司
卡尔森,30.60200042000193,103.97907032713506,公司企业;公司;公司
成都淼泰家具有限公司,30.633977353010973,103.97778462011729,公司企业;公司;公司
四川瑞进轮胎有限公司,30.60679480142728,103.97928938769611,公司企业;公司;公司
成都美点家具设计公司,30.62929155635859,103.97947758865524,公司企业;公司;公司
四川屹立电子有限公司,30.63684409535788,103.980751131777,公司企业;公司;公司
成都三匠贸易有限公司,30.633973331142315,103.97778462535229,公司企业;公司;商业贸易
四川力宝企业管理公司,30.605279576871798,103.98296925192075,公司企业;公司;公司
江泉车桥,30.609235783120997,103.99998606497856,公司企业;公司;公司
成都可得信息有限公司,30.60614744379259,103.97410293851104,公司企业;公司;公司
筑巢软装服务,30.627680563450554,103.97167245236896,公司企业;公司;公司
江西路桥四川分公司,30.62607485406798,103.9728563233556,公司企业;公司;公司
宏励木业,30.616280952979537,103.99862602780959,公司企业;公司;公司
华北建设集团,30.6367502943604,103.98784513038441,公司企业;公司;公司
科达塑件,30.631448837082747,103.98911720273976,公司企业;公司;公司
成都齐侨实业,30.619691223277037,103.96621348100756,公司企业;公司;公司
宏业万川,30.6162860989655,103.99833598870039,公司企业;公司;公司
成都臻睿企业有限公司,30.630145390079566,103.98455321233072,公司企业;公司;公司
四川金剑建设工程有限公司,30.632761166354832,103.96834502781687,公司企业;公司;建筑公司
成都致诚恒兴暖通工程有限公司,30.62201877700034,103.98532181399118,公司企业;公司;公司
四川雅阁装饰有限公司,30.60679480142728,103.97928938769611,公司企业;公司;公司
晴宇集团,30.60679480142728,103.97928938769611,公司企业;公司;公司
成都瑞德沥青有限公司,30.636610593353613,103.98108249488243,公司企业;公司;公司
四川金隆劳务有限公司,30.62743840342422,103.97179273297881,公司企业;公司;公司
中烨皮革,30.606355971985543,103.97562906727974,公司企业;公司;公司
奥航皮业,30.60679665312676,103.97521888716948,公司企业;公司;公司
四川乐融科技有限公司,30.636812766336476,103.98107221444822,公司企业;公司;公司
成都大工电梯有限公司,30.62609549135824,103.98041622730793,公司企业;公司;公司
鼎捷软件有限公司,30.63136372641352,103.97966914893979,公司企业;公司;公司
成都神州数码有限公司,30.63101082005884,103.97992660962385,公司企业;公司;公司
成都丹寇服饰有限公司,30.636580479478607,103.98095252045506,公司企业;公司;公司
成都伍菊贸易有限公司,30.6344828745224,103.95221385315362,公司企业;公司;商业贸易
成都新际企业管理咨询有限公司,30.606633689671742,103.97912841630331,公司企业;公司;公司
四川新路轮胎有限公司,30.60679480142728,103.97928938769611,公司企业;公司;公司
成都水木源创装饰设计有限公司,30.625303007223504,103.97621953339052,公司企业;公司;公司
成都美意达鞋业有限公司,30.62239842212611,103.9563529320544,公司企业;公司;公司
成都市武侯区贝嘉诗鞋业,30.624214819721484,103.9579894030851,公司企业;公司;公司
福N美妮达鞋业(金顺街),30.623446690188835,103.9580901598943,公司企业;公司;公司
成都合力星鞋业有限公司,30.62311702268608,103.95671630688689,公司企业;公司;公司
四川远航致胜家具有限公司,30.616963773267315,103.99231077312861,公司企业;公司;公司
成都成泰科技有限公司,30.63684163441779,103.98172325419912,公司企业;公司;公司
四川名门园林有限公司,30.63684163441779,103.98172325419912,公司企业;公司;公司
杜塞尔多展览有限公司,30.602309289945964,103.97957035617813,公司企业;公司;公司
成都溢遐装饰设计公司,30.62609649618438,103.98041522613146,公司企业;公司;公司
成都市华辰金属型材拉弯厂,30.59831321457137,103.98658831883624,公司企业;公司;公司
大众广告,30.61872986872126,103.99961334499086,公司企业;公司;广告装饰
中财鑫达海集团有限公司,30.634292064892662,103.96690888141211,公司企业;公司;公司
金柯丹鞋业,30.62374499684779,103.96657890420911,公司企业;公司;公司
四川嘉越投资有限公司,30.606261159110378,103.98379909835091,公司企业;公司;公司
成都鸣岐商贸有限公司,30.62027484682544,103.96482882808083,公司企业;公司;公司
台州市雀友机电有限公司,30.588142919782555,103.97609107685984,公司企业;公司;公司
蛟龙鞋业,30.627135182369116,103.96272095789482,公司企业;工厂;工厂
四川中移通信技术工程有限公司工程三中心,30.628111656212386,103.97800374858134,公司企业;公司;电信公司
成都市亚西鞋材制品有限公司,30.603927611965055,103.97621370608138,公司企业;公司;公司
四川腾达建筑机械租赁有限公司,30.629195871602253,103.98215802750488,公司企业;公司;公司
易城麻将牌成都仓储中心,30.59887539151306,103.98136570400769,公司企业;公司;公司
成都唯佰纳鞋业有限公司,30.622050553682776,103.9531988687759,公司企业;公司;公司
四川大家木业,30.597610409951923,103.99569138499552,公司企业;公司;公司
成都玛米娅鞋业有限公司,30.622672898931558,103.95760082955351,公司企业;公司;公司
成都美佳兴包装有限公司,30.586969924903432,103.9670773294853,公司企业;公司;公司
成都美森美鞋业有限公司,30.599740415127084,103.97430585239186,公司企业;公司;公司
成都市武侯区安贝蒂鞋业,30.619605412424217,103.95640335997207,公司企业;公司;公司
皇家木匠地板(成都办事处),30.61835353539564,103.9999176743781,公司企业;公司;公司
四川晴风工贸有限责任公司,30.607247064234638,103.97110724191359,公司企业;公司;公司
禾瑞药店(成都市百姓药业有限责任公司),30.59493829992985,103.99615203239456,公司企业;公司;公司
四川新宇空间钢结构工程有限公司,30.62969319419079,103.98451673954168,公司企业;公司;公司
四川天予浩集团有限公司,30.633617205162064,103.96732280957788,公司企业;公司;公司
成都市百鸿鞋业有限公司,30.606430899552095,103.97596808741874,公司企业;公司;公司
四川省煦和贸易有限公司,30.606430899552095,103.97596808741874,公司企业;公司;商业贸易
成都贡卿格贸易有限公司,30.631360711058857,103.97966915262364,公司企业;公司;公司
成都市武侯区塞凌液压密封机械厂,30.59082810538926,103.97436809445894,公司企业;工厂;工厂
成都小辣椒科技有限公司,30.605998012904024,103.98351713621739,公司企业;公司;公司
根泽商贸,30.602329001783655,103.97361962269993,公司企业;公司;商业贸易
成都澳斯捷鞋业有限公司,30.622050553682776,103.9531988687759,公司企业;公司;公司
四川王者风鞋业有限公司,30.606299704069148,103.97608513925297,公司企业;公司;公司
四川车妈妈科技有限公司,30.633928130473425,103.9776866721609,公司企业;公司;公司
四川森源龙家具有限公司,30.606554117631898,103.98019057035773,公司企业;公司;公司
四川视可视科技有限公司,30.628757415893844,103.9785870920672,公司企业;公司;公司
四川科瑞德制药有限公司,30.63035348647353,103.98440294702999,公司企业;公司;公司
双河葡萄井食品有限公司,30.608587830535534,103.97124278823787,公司企业;公司;公司
青砖坊装饰设计有限公司,30.61260936929152,103.96651635400904,公司企业;公司;公司
魔法师装饰工程有限公司,30.625287023606127,103.97603552718147,公司企业;公司;公司
成都蜀临门食品有限公司,30.630728348831305,103.98441149986651,公司企业;公司;公司
成都小芒果科技有限公司,30.601941295702307,103.97930736203095,公司企业;公司;公司
四川多米格家具有限公司,30.60611292551832,103.97956561895178,公司企业;公司;公司
成都美森美鞋业有限公司,30.631234067912782,103.96003691361723,公司企业;公司;公司
英魅儿鞋业科技有限公司,30.60240659914984,103.97676500016938,公司企业;公司;公司
成都千千集科技有限公司,30.626016248563914,103.98019428309557,公司企业;公司;公司
成都市昊罡商贸有限公司,30.608819205058975,103.99982721112924,公司企业;公司;公司
成都福瑞圆商贸有限公司,30.630693443191287,103.9838234697125,公司企业;公司;公司
成都祥睿和商贸有限公司,30.629478951859703,103.9849630438585,公司企业;公司;公司
四川寿而康养老服务公司,30.58761683382311,103.96372927976942,公司企业;公司;公司
成都加多林科技有限公司,30.62613565288435,103.98044518871393,公司企业;公司;公司
成都达思特科技有限公司,30.626873588965566,103.97238341772474,公司企业;公司;公司
成都壹时代科技有限公司,30.631028934808466,103.97987558144092,公司企业;公司;公司
成都原合力建材有限公司,30.616075820789316,103.95808320520392,公司企业;公司;公司
四川欣杰邦实业有限公司,30.625288234350993,103.97339520285976,公司企业;公司;公司
成都锁立安科技有限公司,30.615539510176117,103.99952663868238,公司企业;公司;公司
巡航鹰电子科技有限公司,30.606117041099463,103.97932058770037,公司企业;公司;公司
成都鑫富鸿科技有限公司,30.631368746944535,103.97968014415292,公司企业;公司;公司
成都新为诚科技有限公司,30.629061296797257,103.98419543204355,公司企业;公司;公司
成都仕兰心科技有限公司,30.6036605546024,103.9759777240524,公司企业;公司;公司
四川省医药物资有限公司,30.625743846597178,103.9741188227145,公司企业;公司;公司
成都瑞特兹科技有限公司,30.630310125024245,103.98472403794877,公司企业;公司;公司
成都金飞凌科技有限公司,30.631506305935975,103.97999201398865,公司企业;公司;公司
成都欣中瑞贸易有限公司,30.603054611853988,103.97733698623577,公司企业;公司;公司
成都馨颖商贸有限公司,30.591679973907024,103.99774029746965,公司企业;公司;商业贸易
四川明典机械设备有限公司,30.622028743548334,103.95479208055121,公司企业;公司;机械电子
成都市寅生实业有限公司,30.633068900488453,103.96812160997086,公司企业;公司;公司
中意图文广告设计制作中心,30.61005813681356,103.99340890928437,公司企业;公司;广告装饰
成都乐达楼梯,30.620717969306032,103.97014710067968,公司企业;公司企业;公司企业
成都旭美贸易有限公司,30.63251209809644,103.96781527731923,公司企业;公司;商业贸易
富林鞋楦,30.624212441315755,103.96754556637477,公司企业;公司;公司
成都宇田树脂有限公司,30.628122971614715,103.95994953492152,公司企业;公司;公司
985影艺文化传播有限公司,30.636096227178744,103.99725017992834,公司企业;公司;公司
金源CNG定点改装厂,30.60713053897643,103.97194638204118,公司企业;公司企业;公司企业
中国电信股份有限公司武侯西区分公司科技园分局,30.63238000817454,103.98395341621108,公司企业;公司;电信公司
成都瑜Z物业服务有限公司,30.59402615565591,103.96358581382498,公司企业;公司;公司
成都佳速机械设备有限公司,30.59347057489554,103.97298281752866,公司企业;公司;机械电子
北京黎明家具集团四川公司,30.633976347082278,103.97778562154906,公司企业;公司;公司
利阳鞋业,30.62989672462878,103.95714216294746,公司企业;公司;公司
成都老伙计商贸有限公司,30.631366739928392,103.97967314574785,公司企业;公司;公司
中铁隆工程集团有限公司,30.6276393211189,103.97178951209578,公司企业;公司;建筑公司
四川航空工程技术分公司,30.58886517159708,103.95664205764808,公司企业;公司;公司
四川佳立盟科技有限公司,30.60679480142728,103.97928938769611,公司企业;公司;公司
四川省安创消防有限公司,30.636580479478607,103.98095252045506,公司企业;公司;公司
成都精汇川电气有限公司,30.62929155635859,103.97947758865524,公司企业;公司;公司
四川富成汇智实业有限公司,30.632749588173276,103.96729291430563,公司企业;公司;公司
成都大众园林建设有限公司,30.632749588173276,103.96729291430563,公司企业;公司;公司
四川祥泰保安服务有限公司,30.634607476235278,103.97849988161805,公司企业;公司;公司
七禾田集团,30.606572629905514,103.97910843190031,公司企业;公司企业;公司企业
五洋建设集团机电安装公司,30.63328685383282,103.96857838722089,公司企业;公司;机械电子
四川雾松企业管理有限公司,30.60655447552944,103.97500193286528,公司企业;公司;公司
成都立业太平地毯有限公司,30.60342733992018,103.9673627063612,公司企业;公司;公司
成都观止居科技有限公司,30.626584228791682,103.98568635693871,公司企业;公司;公司
成都睿刻品牌策划有限公司,30.60363017531873,103.97677282688315,公司企业;公司;公司
成都财惠天下注册企业管理有限公司,30.625559437036035,103.9798567159368,公司企业;公司;公司
成都达思特科技有限公司,30.633976347543612,103.97778462142608,公司企业;公司;公司
成都康贝尔饲料有限公司,30.633310491398763,103.98490735375515,公司企业;公司;公司
老伙记电子商务有限公司,30.633976347082278,103.97778562154906,公司企业;公司;公司
四川艾普森科技有限公司,30.63684163441779,103.98172325419912,公司企业;公司;公司
中国移动通信集团设计院有限公司四川分公司,30.633210515057016,103.96842746650675,公司企业;公司;电信公司
成都欧素商贸有限公司,30.629804599575625,103.9848166459324,公司企业;公司;商业贸易
成都市唯妮佳家具有限公司,30.588518542086565,103.96627006163637,公司企业;公司;公司
金驰通商贸公司,30.60653381989703,103.9962265486646,公司企业;公司;公司
成都蓉鹿兴霸机器有限公司,30.631559675066097,103.96233279392925,公司企业;公司;机械电子
成都凯喜商贸有限公司,30.604534707535304,103.98133621763033,公司企业;公司;商业贸易
中国电信股份有限公司成都武侯西区分公司金花分局,30.632399070287374,103.98403540236346,公司企业;公司;电信公司
百世兴食品产业有限公司,30.63314919790084,103.96840554216277,公司企业;公司;公司
四川宏业电力集团有限公司,30.62724485263704,103.97326612417285,公司企业;公司;公司
四川国际工程监理有限公司,30.626601591169287,103.97410991996921,公司企业;公司;公司
特而特涡轮(四川)有限公司,30.632550981941414,103.97069257919891,公司企业;公司;公司
丰足复合,30.618471020435358,103.9666855097476,公司企业;公司;公司
四川恒艺蓉泉装饰设计中心,30.62508600327795,103.97641477810623,公司企业;公司;公司
四川东芯实业股份有限公司,30.636852125235514,103.9720880615849,公司企业;公司;公司
成都瑞曼帝斯鞋业有限公司,30.62022836106059,103.954590625845,公司企业;公司;公司
特而特涡轮(四川)有限公司,30.632414620833806,103.97210092239777,公司企业;公司;公司
四川指掌未来科技有限公司,30.632516122436243,103.96780827140687,公司企业;公司;公司
成都市武侯新晨交通公交有限公司,30.631142397529178,103.96048407923267,公司企业;公司;公司
恒利复合,30.61866721776459,103.96762347179995,公司企业;公司;公司
成都明武电力技术有限责任公司,30.633310491398763,103.98490735375515,公司企业;公司;公司
华斯琦鞋业,30.589036914309595,103.97825278866819,公司企业;公司;公司
成都迪安医学检验所有限公司,30.63681090603194,103.97639364459451,公司企业;公司;公司
智强鞋业分厂,30.58713414528476,103.96349498399881,公司企业;工厂;工厂|公司企业;公司;公司
隆中对,30.62966117024367,103.99517608360921,公司企业;公司企业;公司企业
友华通信设计院成都分公司,30.63013474596725,103.9705505112551,公司企业;公司;公司
成都高鑫焊割科技有限公司,30.631206075568283,103.9727914997686,公司企业;公司;公司
成都市武侯区丽人春天鞋业,30.61951528433003,103.95602338739043,公司企业;公司;公司
成都远旺汽车电器有限公司,30.595794842906425,103.97116812191119,公司企业;公司;公司
四川懿尚家具有限公司,30.588186162541373,103.9775272761787,公司企业;公司;公司|公司企业;工厂;工厂
成都市精电化工厂,30.612092148218853,103.99979271307545,公司企业;公司;冶金化工|公司企业;工厂;工厂
四川晴风工贸有限责任公司,30.614389169490227,103.99812920114402,公司企业;公司;公司
四川越嘉建筑工程有限公司,30.6188935059315,103.99937018651683,公司企业;公司;公司
成都戴威能控科技有限公司,30.62680158907792,103.97386867662084,公司企业;公司;公司
成都恩洪医院管理有限公司,30.607097909460084,103.99968780169137,公司企业;公司;公司
鼎盛源科技,30.606548579800553,103.97915944523749,公司企业;公司企业;公司企业
经典原创图文设计有限公司,30.601795269326058,103.97928137236318,公司企业;公司;公司
冷风机,30.62247381124941,103.96269263103441,公司企业;公司企业;公司企业
越诚制衣,30.60332319514997,103.98736117934817,公司企业;公司企业;公司企业
国雀麻将机仓库中心,30.602835224502574,103.97356755379532,公司企业;公司企业;公司企业
订做各种木质展柜,30.62153302032677,103.96330555596955,公司企业;公司企业;公司企业
米特拉空气能,30.612864740868076,103.99996531792269,公司企业;公司企业;公司企业
成都金昭鞋业有限责任公司,30.622433081572673,103.9705226227467,公司企业;公司;公司
德辉鞋材有限公司,30.606959777875247,103.97536685521999,公司企业;公司;公司
泸州北方化学工业有限公司,30.632749588173276,103.96729291430563,公司企业;公司;冶金化工
丽林鞋业,30.630112790482173,103.96585296471133,公司企业;公司;公司
成都昊普环保技术有限公司,30.633885172099966,103.98581172308177,公司企业;公司;公司
四川凯源建筑工程有限公司,30.625288027854154,103.97603552615625,公司企业;公司;公司
美佳居纱窗制品厂,30.590716563790345,103.99356041596737,公司企业;工厂;工厂
四川三江建设工程有限公司,30.634292064892662,103.96690888141211,公司企业;公司;建筑公司
成都晟仲建筑工程有限公司,30.63430565783824,103.96143119823863,公司企业;公司;建筑公司
四川民发建筑劳务有限公司,30.63229857335614,103.95563806864813,公司企业;公司;建筑公司
四川昊达建设工程有限公司,30.632303597307995,103.95564306296856,公司企业;公司;建筑公司
四川众能建筑工程有限公司,30.632513103835105,103.96781427593298,公司企业;公司;建筑公司
四川炜翔建筑工程有限公司,30.632511093280808,103.96781427846064,公司企业;公司;建筑公司
四川中辰工程机械,30.59978154603788,103.98500516880681,公司企业;公司;机械电子
四川交安工程建设集团公司,30.626491208353094,103.97388100941383,公司企业;公司;建筑公司
大众液压专利技术环保软篷,30.609604155221295,104.0004899743204,公司企业;公司;公司
四川志诚建设工程有限公司,30.634074377902845,103.98542442932911,公司企业;公司;建筑公司
成都鸿润天泽科技有限公司,30.628610761754185,103.97850324832675,公司企业;公司;公司
四川川仞环保科技有限公司,30.625758293103836,103.97984750925873,公司企业;公司;公司
四川凯驰丰途汽车有限公司,30.619573740378087,103.96640760061268,公司企业;公司;公司
成都润哲教育管理有限公司,30.6061345246338,103.98049772759602,公司企业;公司;公司
成都普思生物科技有限公司,30.629156562156354,103.97367703443645,公司企业;公司;公司
成都纵横交通工程有限公司,30.63670622767118,103.98090334103415,公司企业;公司;公司
四川乐途教育管理有限公司,30.63166997948724,103.98035185696888,公司企业;公司;公司
成都东鹏防水工程有限公司,30.600145207654474,103.98127370585438,公司企业;公司;公司
成都润联科技开发有限公司,30.636755325746503,103.98784012281692,公司企业;公司;公司
成都地暖安装工程有限公司,30.62905629531416,103.98414643177709,公司企业;公司;公司
四川兴悦防水工程有限公司,30.631029937580465,103.97988058083881,公司企业;公司;公司
成都锦尚宏鑫鞋业有限公司,30.60225752056211,103.97682402422848,公司企业;公司;公司
四川大扬投资置业有限公司,30.628095233522835,103.97876185976632,公司企业;公司;公司
四川大盛装饰工程有限公司,30.606678771377435,103.97906139463636,公司企业;公司;公司
四川华莱建筑工程有限公司,30.62787733033676,103.97853407427228,公司企业;公司;公司
蓝海润博生物科技有限公司,30.631078176590997,103.98426105912652,公司企业;公司;公司
精英商业服务成都有限公司,30.626019269426287,103.98017727785138,公司企业;公司;公司
四川烨通建设工程有限公司,30.6367502943604,103.98784513038441,公司企业;公司;公司
成都金鹿凯斯服饰有限公司,30.629880275854788,103.98414547485923,公司企业;公司;公司
四川英腾照明工程有限公司,30.61879914755279,103.99948927543359,公司企业;公司;公司
四川巨涞科技有限责任公司,30.62608087659663,103.97286431802173,公司企业;公司;公司
杰妮娅鞋业,30.624664904880575,103.9640306899826,公司企业;公司;公司
四川星远建筑工程有限公司,30.630180739846125,103.98416912340598,公司企业;公司;公司
四川圣辉绿洲科技有限公司,30.63327635272448,103.98917892098713,公司企业;公司;公司
成都天鸿新创科技有限公司,30.6286298554066,103.97849522570307,公司企业;公司;公司
成都力天万隆广告有限公司,30.60607672314915,103.98433321522107,公司企业;公司;公司
成都唐源电气股份有限公司,30.632761166354832,103.96834502781687,公司企业;公司;机械电子
成都市成鑫元科技有限公司,30.630584922879144,103.98377659405975,公司企业;公司;公司
四川中野建设工程有限公司,30.625294039131038,103.97606652381452,公司企业;公司;公司
厚德利嘉装饰美陈有限公司,30.630546593301784,103.98407967706996,公司企业;公司;公司
成都择贤企业管理有限公司,30.625769317226737,103.9798985040739,公司企业;公司;公司
成都嘉提信息技术有限公司,30.62592986442478,103.98021637602946,公司企业;公司;公司
成都多伦展览展示有限公司,30.626027737888155,103.97485161673012,公司企业;公司;公司
成都飞扬动力软件有限公司,30.629548313875773,103.98490495609006,公司企业;公司;公司
领航装饰工程设计有限公司,30.631400895177112,103.97971410901921,公司企业;公司;公司
成都市皮之宝商贸有限公司,30.619387016335416,103.968824046875,公司企业;公司;公司
成都逸族环保科技有限公司,30.625617614480007,103.98001267505813,公司企业;公司;公司
成都私享大杏家居有限公司,30.601276547346167,103.97404276903146,公司企业;公司;公司
成都陆通维修服务有限公司,30.60177980323992,103.99792766865643,公司企业;公司;公司
成都金容电子工程有限公司,30.636848597110358,103.98189226525224,公司企业;公司;公司
成都博承健身服务有限公司,30.600677634804878,103.9627414176854,公司企业;公司;公司
四川民瑞劳务派遣有限公司,30.625908407436555,103.97444369142538,公司企业;公司;公司
成都帮车网络科技有限公司,30.618086720423552,103.99987687322262,公司企业;公司;公司
四川亚泰伟业管理有限公司,30.611504722689304,103.9848521779153,公司企业;公司;公司
四川飞机维修工程有限公司,30.590309890490683,103.95727479009399,公司企业;公司;公司
四川君弘企业管理有限公司,30.629479511362764,103.97937035778463,公司企业;公司;公司
成都奥赛瑞斯科技有限公司,30.634089584600886,103.98079184197655,公司企业;公司;公司
四川嘉明建设工程有限公司,30.62993718255102,103.98495850764137,公司企业;公司;公司
四川企信信用评估有限公司,30.626145687457186,103.98046518062596,公司企业;公司;公司
四川鑫盛东润实业有限公司,30.607992292559235,103.98155527228582,公司企业;公司;公司
成都迅诚展示制作有限公司,30.613165453365816,103.99768286944345,公司企业;公司;公司
道隧集团广安工程有限公司,30.629763347746103,103.98492770787213,公司企业;公司;公司
力方国际数字科技有限公司,30.6354531466386,103.96770843705336,公司企业;公司;公司
四川振盛保安服务有限公司,30.62937875238998,103.98215381570684,公司企业;公司;公司
成都东研网络科技有限公司,30.62643161920185,103.974596160121,公司企业;公司;公司
我筑我家建筑设计有限公司,30.608171803297868,103.98098113746538,公司企业;公司;公司
四川德美环境技术有限公司,30.633412098031865,103.98913774181955,公司企业;公司;公司
成都帮帮买车科技有限公司,30.61874998864557,103.99949131427283,公司企业;公司;公司
成都中网畅联科技有限公司,30.625855749288608,103.97976739820626,公司企业;公司;公司
成都梦诗菲尔家具有限公司,30.599955304136188,103.978893415453,公司企业;公司;公司
四川中瑞天乐实业有限公司,30.622253783272168,103.96968968531813,公司企业;公司;公司
四川米影臻图广告有限公司,30.628778599863953,103.97840404553622,公司企业;公司;公司
成都盛世大业集团有限公司,30.62973944160064,103.98446767945276,公司企业;公司;公司
四川陆捌青天科技有限公司,30.629343163087405,103.98525623723533,公司企业;公司;公司
成都维赛电子商务有限公司,30.60297052390927,103.97744301122349,公司企业;公司;公司
成都祥亨办公设备有限公司,30.628822124629487,103.98208244663745,公司企业;公司;公司
