name,lat,lng,type
打牙祭老坛花椒活鱼(八里小区总店),30.689177269287104,104.11058645315764,餐饮服务;中餐厅;中餐厅
向小二串串(总店),30.68987795897228,104.10628273416143,餐饮服务;中餐厅;中餐厅
打牙祭柴火鸡休闲庄(龙潭店),30.728437610095384,104.17752170940915,餐饮服务;中餐厅;中餐厅
味绝美蛙鱼头(龙潭店),30.698410650198504,104.17108815463814,餐饮服务;中餐厅;中餐厅
重庆万杰老灶火锅(八里店),30.68925389615723,104.10637691596376,餐饮服务;中餐厅;火锅店
三顾冒菜(龙潭寺店),30.70114199193435,104.16710017414381,餐饮服务;中餐厅;中餐厅
吴铭火锅(成都龙潭寺店),30.707643855526754,104.16214513449275,餐饮服务;中餐厅;火锅店
四方阁(水脉青龙店),30.703157488795625,104.10555093816033,餐饮服务;中餐厅;综合酒楼
绝城芋儿鸡(动物园店),30.715510240256247,104.10487382576365,餐饮服务;中餐厅;中餐厅
老船舫自选火锅(成都东林店),30.71822923836251,104.10564521406185,餐饮服务;中餐厅;火锅店
竹韵餐厅(熊猫大道),30.738759227727847,104.14154376385858,餐饮服务;中餐厅;中餐厅
阿牛故事生态火锅山庄(天回镇店),30.759850862897704,104.12663489502751,餐饮服务;中餐厅;火锅店
师徒情人民食堂(八里店),30.68804980644134,104.10715126273534,餐饮服务;中餐厅;中餐厅
墨脱石锅菌汤馆(二台子店),30.759821590845938,104.14706951131551,餐饮服务;中餐厅;中餐厅
人民公社食堂(新风路店),30.689638146922192,104.10604316179364,餐饮服务;中餐厅;中餐厅
乐山牛华绿缘串串香(八里小区店),30.692938567660352,104.10372780108301,餐饮服务;中餐厅;火锅店
芙蓉树下冒菜(荆翠中路店),30.720733410009228,104.10199165292735,餐饮服务;中餐厅;中餐厅
三江烤鱼(新风路店),30.689939671008332,104.10582957558063,餐饮服务;中餐厅;特色/地方风味餐厅
部落烧烤,30.70311693043043,104.16402063747616,餐饮服务;中餐厅;特色/地方风味餐厅
金楠阁,30.697005783514143,104.16308816960246,餐饮服务;中餐厅;四川菜(川菜)
汉堡王(成都上古天地店),30.708108180449756,104.161864383944,餐饮服务;快餐厅;快餐厅
蜀辣居火锅(天回店),30.765011252036746,104.11552006287562,餐饮服务;中餐厅;火锅店
牙牙饭(八里小区店),30.68855097688801,104.10690229121485,餐饮服务;中餐厅;中餐厅
宽席家宴(保利198店),30.755446604274972,104.14686430891372,餐饮服务;中餐厅;综合酒楼
延续主题火锅(首创花与城店),30.714876795367868,104.10999819447832,餐饮服务;中餐厅;中餐厅
打牙祭老坛花椒活鱼(八里小区总店),30.689177269287104,104.11058645315764,餐饮服务;中餐厅;中餐厅
向小二串串(总店),30.68987795897228,104.10628273416143,餐饮服务;中餐厅;中餐厅
打牙祭柴火鸡休闲庄(龙潭店),30.728437610095384,104.17752170940915,餐饮服务;中餐厅;中餐厅
味绝美蛙鱼头(龙潭店),30.698410650198504,104.17108815463814,餐饮服务;中餐厅;中餐厅
重庆万杰老灶火锅(八里店),30.68925389615723,104.10637691596376,餐饮服务;中餐厅;火锅店
三顾冒菜(龙潭寺店),30.70114199193435,104.16710017414381,餐饮服务;中餐厅;中餐厅
吴铭火锅(成都龙潭寺店),30.707643855526754,104.16214513449275,餐饮服务;中餐厅;火锅店
四方阁(水脉青龙店),30.703157488795625,104.10555093816033,餐饮服务;中餐厅;综合酒楼
绝城芋儿鸡(动物园店),30.715510240256247,104.10487382576365,餐饮服务;中餐厅;中餐厅
老船舫自选火锅(成都东林店),30.71822923836251,104.10564521406185,餐饮服务;中餐厅;火锅店
竹韵餐厅(熊猫大道),30.738759227727847,104.14154376385858,餐饮服务;中餐厅;中餐厅
阿牛故事生态火锅山庄(天回镇店),30.759850862897704,104.12663489502751,餐饮服务;中餐厅;火锅店
师徒情人民食堂(八里店),30.68804980644134,104.10715126273534,餐饮服务;中餐厅;中餐厅
墨脱石锅菌汤馆(二台子店),30.759821590845938,104.14706951131551,餐饮服务;中餐厅;中餐厅
人民公社食堂(新风路店),30.689638146922192,104.10604316179364,餐饮服务;中餐厅;中餐厅
乐山牛华绿缘串串香(八里小区店),30.692938567660352,104.10372780108301,餐饮服务;中餐厅;火锅店
芙蓉树下冒菜(荆翠中路店),30.720733410009228,104.10199165292735,餐饮服务;中餐厅;中餐厅
三江烤鱼(新风路店),30.689939671008332,104.10582957558063,餐饮服务;中餐厅;特色/地方风味餐厅
部落烧烤,30.70311693043043,104.16402063747616,餐饮服务;中餐厅;特色/地方风味餐厅
金楠阁,30.697005783514143,104.16308816960246,餐饮服务;中餐厅;四川菜(川菜)
汉堡王(成都上古天地店),30.708108180449756,104.161864383944,餐饮服务;快餐厅;快餐厅
蜀辣居火锅(天回店),30.765011252036746,104.11552006287562,餐饮服务;中餐厅;火锅店
牙牙饭(八里小区店),30.68855097688801,104.10690229121485,餐饮服务;中餐厅;中餐厅
宽席家宴(保利198店),30.755446604274972,104.14686430891372,餐饮服务;中餐厅;综合酒楼
延续主题火锅(首创花与城店),30.714876795367868,104.10999819447832,餐饮服务;中餐厅;中餐厅
留恋人家茶楼,30.69113293610585,104.17780873009423,餐饮服务;茶艺馆;茶艺馆|餐饮服务;中餐厅;中餐厅
贵州笋子芋儿鸡兔,30.702555967282304,104.17001893883865,餐饮服务;中餐厅;中餐厅
水泊风情特色川菜,30.70513589969001,104.16508335585003,餐饮服务;中餐厅;四川菜(川菜)
青春派,30.705077181715538,104.16985573486947,餐饮服务;休闲餐饮场所;休闲餐饮场所
瓦罐罐酒楼(龙潭店),30.69753597686511,104.16070007549148,餐饮服务;中餐厅;综合酒楼
重庆坝坝火锅(东林店),30.717930094914728,104.10641768269149,餐饮服务;中餐厅;火锅店
乔一乔农夫烤鱼(八里店),30.689640268159287,104.10582513719879,餐饮服务;中餐厅;特色/地方风味餐厅
皇冠假日酒店御公馆-中餐厅,30.756603717630295,104.14032079563763,餐饮服务;中餐厅;中餐厅
李鸭子同乐饭店(鹤林J线),30.711146932778018,104.16937316467708,餐饮服务;中餐厅;中餐厅
赞碟串串,30.68745955726103,104.1039350777016,餐饮服务;中餐厅;特色/地方风味餐厅
灌县老妈砂锅串串(六合广场店),30.699962201815318,104.16923633504909,餐饮服务;中餐厅;中餐厅
嘎嘎鸭脑壳(八里社区店),30.68922066772136,104.10629497079552,餐饮服务;中餐厅;特色/地方风味餐厅
茗都・蓉和,30.705772781846232,104.16429526915613,餐饮服务;中餐厅;综合酒楼
九门侠火锅(蜀龙店),30.75803429815837,104.1526227449671,餐饮服务;中餐厅;中餐厅
辣手D,30.690775759243532,104.10083553308883,餐饮服务;中餐厅;火锅店
牛王庙(李妹面分店),30.689066521412506,104.10818943909402,餐饮服务;中餐厅;中餐厅
正宗羊马渣渣面(老龙青路),30.72232175716179,104.143320275729,餐饮服务;中餐厅;中餐厅
万州烤鱼,30.688264941099,104.10422857886344,餐饮服务;中餐厅;中餐厅
愚头记(保利店),30.7565776152479,104.14049180875097,餐饮服务;中餐厅;中餐厅
天回镇何氏豆腐(总店),30.763782301947142,104.11273544520996,餐饮服务;中餐厅;中餐厅
三顾冒菜(西大街西二段),30.750105815812773,104.10773675905575,餐饮服务;中餐厅;中餐厅
三顾冒菜(荆翠中路店),30.720704284497174,104.10191568190733,餐饮服务;中餐厅;中餐厅
三顾冒菜(富丽花城店),30.71946524640413,104.11004601963334,餐饮服务;中餐厅;中餐厅
三顾冒菜(成都北湖店),30.720448037032327,104.16249589654774,餐饮服务;中餐厅;中餐厅
三顾冒菜(桃源店),30.688825653825987,104.10803387874243,餐饮服务;中餐厅;中餐厅
巴蜀醉飘香火锅,30.687996565071135,104.10465712780022,餐饮服务;中餐厅;火锅店
佐记(六合店),30.70006240690326,104.16828310559521,餐饮服务;中餐厅;中餐厅
老潼关肉夹馍,30.750202350335492,104.10896885191055,餐饮服务;快餐厅;快餐厅
万州烤鱼(东裕路),30.713263022778097,104.11527298415339,餐饮服务;中餐厅;特色/地方风味餐厅
宜宾燃面(东裕店),30.71365500415664,104.11632651238595,餐饮服务;中餐厅;中餐厅
川西坝子(驿站路),30.758884947831323,104.145945327936,餐饮服务;中餐厅;火锅店
裕龙斑鱼庄(动物园店),30.71596902931262,104.10493419566748,餐饮服务;中餐厅;海鲜酒楼
万州烤鱼(东紫路店),30.718435255541863,104.10603297989445,餐饮服务;中餐厅;特色/地方风味餐厅
鸿运饭店(成宏路),30.698098630818592,104.17245878222741,餐饮服务;中餐厅;中餐厅
天天曾记(天回镇店),30.767240361103166,104.10987834232634,餐饮服务;中餐厅;中餐厅
凉山自助火盆烧烤,30.718212916669074,104.10610327898085,餐饮服务;中餐厅;特色/地方风味餐厅
华莱士(六合广场店),30.700113401867398,104.16908706415761,餐饮服务;快餐厅;快餐厅
柏老五回民餐馆,30.6879965578568,104.10467212924067,餐饮服务;中餐厅;清真菜馆
重庆老梭边鱼府(火神庙店),30.71072063745178,104.16625262288464,餐饮服务;中餐厅;四川菜(川菜)
竹山老鸭(银杏园路),30.764861184979708,104.11583304400496,餐饮服务;中餐厅;综合酒楼
拐拐面(双建路分店),30.688399475610176,104.10748363219074,餐饮服务;中餐厅;中餐厅
丰烨火锅,30.712538149500098,104.11571108150302,餐饮服务;中餐厅;火锅店
小林私房菜,30.750290436772936,104.10907484110068,餐饮服务;中餐厅;中餐厅
中国兰州拉面馆,30.68789128263601,104.10136601183865,餐饮服务;中餐厅;中餐厅
廖记简阳羊肉汤(龙港路),30.702979921278278,104.16612999593312,餐饮服务;中餐厅;中餐厅
浩客土菜馆,30.698256721366214,104.17477563046698,餐饮服务;中餐厅;中餐厅
万州烤鱼(致顺路店),30.70383453311138,104.10527478088491,餐饮服务;中餐厅;特色/地方风味餐厅
宜宾燃面(富丽花城西),30.719716860344437,104.10766647552784,餐饮服务;中餐厅;中餐厅
老家乡村菜,30.74973161395383,104.10890896209943,餐饮服务;中餐厅;中餐厅
重庆小堂倌老火锅,30.68865617639935,104.10826422019183,餐饮服务;中餐厅;火锅店
功夫烤脑花(八里店),30.688045970776862,104.10464503305734,餐饮服务;中餐厅;特色/地方风味餐厅
六合特色小吃(六合广场店),30.699696118565853,104.16943180880115,餐饮服务;中餐厅;中餐厅
羊街⒖径垢成都市金牛区,30.767497547530418,104.11298273487704,餐饮服务;中餐厅;中餐厅
嘎嘎鸭脑壳(东林社区店),30.718475614987184,104.10578290326679,餐饮服务;中餐厅;特色/地方风味餐厅
粤式轩(理工店),30.687923081583882,104.15491639204171,餐饮服务;中餐厅;中餐厅
野火火锅,30.68791790279012,104.10471028191591,餐饮服务;中餐厅;中餐厅
顽鱼帮巫山纸上烤鱼,30.715626318190413,104.1102391683855,餐饮服务;中餐厅;特色/地方风味餐厅
码头故事(龙潭店),30.702724929103834,104.16226218725411,餐饮服务;中餐厅;火锅店
笑拿百串砂锅串串,30.712951810266052,104.11571947694057,餐饮服务;中餐厅;火锅店
苏记武陵山珍(龙潭店),30.70194749779786,104.17006397225202,餐饮服务;中餐厅;中餐厅
小尖椒自贡私房菜,30.71836103814933,104.10559203555924,餐饮服务;中餐厅;中餐厅
一品龙虾(上东二分店),30.720343261908287,104.1019021328031,餐饮服务;中餐厅;中餐厅
蔬菜面馆,30.700741398203647,104.16007742803025,餐饮服务;快餐厅;快餐厅
双流蘸水肥肠(华彩路),30.701599948450443,104.17005756378329,餐饮服务;中餐厅;中餐厅
三颗米特色中餐(成都龙潭寺店),30.70247739048939,104.17002707203216,餐饮服务;中餐厅;中餐厅
蜀香手工披萨,30.712903507759574,104.11570354596759,餐饮服务;快餐厅;快餐厅
桥头香干锅王,30.71519622369874,104.1663231061857,餐饮服务;中餐厅;中餐厅
和记豆汤饭(新怡路),30.690476975274255,104.10165617062792,餐饮服务;中餐厅;中餐厅
六顺酒楼,30.759724138389615,104.14794056289502,餐饮服务;中餐厅;综合酒楼
妈妈厨房(东紫路店),30.71560567801578,104.10517972212905,餐饮服务;中餐厅;中餐厅
李记冒菜馆(总医院店),30.749956745563324,104.1073967632587,餐饮服务;中餐厅;中餐厅
云水越过桥米线(成宏路),30.69809889170378,104.17400886738574,餐饮服务;中餐厅;特色/地方风味餐厅
缘味缘冒菜坊(致顺路),30.70316280195013,104.10292567889027,餐饮服务;中餐厅;中餐厅
鑫溢楼,30.689955806753474,104.10581654408456,餐饮服务;中餐厅;中餐厅
宜宾燃面(致顺南一街),30.702893050116952,104.10248408959029,餐饮服务;中餐厅;中餐厅
临邛人家炖鸡面,30.688384582827027,104.10700661555181,餐饮服务;中餐厅;中餐厅
宜宾燃面(民兴北一路),30.687667524319785,104.15384780416458,餐饮服务;中餐厅;中餐厅
芙蓉冒菜,30.697802540938454,104.17003516882127,餐饮服务;中餐厅;中餐厅
pizza 4U披萨(保利198店),30.759296648002692,104.14675642788609,餐饮服务;快餐厅;快餐厅
罗四烧烤,30.68862086651894,104.10831629174396,餐饮服务;中餐厅;特色/地方风味餐厅
罗记乡村菜(东裕店),30.713637325054396,104.11544245837818,餐饮服务;中餐厅;中餐厅
巫山纸上烤鱼,30.702942035234113,104.16324388313761,餐饮服务;中餐厅;特色/地方风味餐厅
吴姐手提式串串香,30.751667449797264,104.10713137139645,餐饮服务;中餐厅;中餐厅
白家肥肠粉(东紫路店),30.71872312165601,104.10565656766327,餐饮服务;中餐厅;中餐厅
小粤轩港式茶餐厅,30.687633179969115,104.10138850355268,餐饮服务;快餐厅;茶餐厅
成都醉鲜小龙虾,30.718581257528253,104.10573176007605,餐饮服务;中餐厅;海鲜酒楼
汉哆堡,30.75189466321024,104.10732034882773,餐饮服务;快餐厅;快餐厅
娇小妹油炸串串,30.691914695679078,104.10530984320955,餐饮服务;中餐厅;特色/地方风味餐厅
避风塘(北大街),30.751690369982704,104.10735238814455,餐饮服务;休闲餐饮场所;休闲餐饮场所|餐饮服务;中餐厅;中餐厅
台资味(成都龙潭寺店),30.70279905023354,104.16313111668691,餐饮服务;快餐厅;快餐厅
李庄白肉(龙潭店),30.701776314072646,104.1699132548405,餐饮服务;中餐厅;中餐厅
成都兄弟串串(龙潭寺分店),30.70268666338565,104.16431337909579,餐饮服务;中餐厅;火锅店
宝祥卤肉面,30.70094016190469,104.16155518028413,餐饮服务;中餐厅;中餐厅
口福们(军区总医院店),30.74992878811184,104.10920894070694,餐饮服务;中餐厅;中餐厅
多・乐(八里庄店),30.690907612316764,104.10543272749996,餐饮服务;快餐厅;快餐厅
靓靓龙虾(东紫路店),30.718744254048943,104.10563753830661,餐饮服务;中餐厅;海鲜酒楼
龙潭豆汤饭家常菜,30.69846812426834,104.17100604875147,餐饮服务;中餐厅;中餐厅
方脑壳串串香,30.719485511113856,104.10974496567725,餐饮服务;中餐厅;火锅店
杨记特色餐馆,30.749921594558504,104.1075827895219,餐饮服务;中餐厅;中餐厅
宜宾烧烤(成康路),30.69940295201229,104.16310793996071,餐饮服务;中餐厅;特色/地方风味餐厅
隆井烧烤,30.707689854859492,104.16280110277971,餐饮服务;中餐厅;特色/地方风味餐厅
小小叶花甲米线(龙潭寺店),30.701058656719937,104.16235102690445,餐饮服务;快餐厅;快餐厅
老成都杂酱面(成康店),30.700223162588607,104.16295350467438,餐饮服务;中餐厅;中餐厅
潘二姐棒棒鸡兔丁肺片,30.688639228069384,104.10786921525313,餐饮服务;中餐厅;中餐厅
春红火锅兔,30.691178878282376,104.10522320208194,餐饮服务;中餐厅;中餐厅
小龙潭重庆老火锅串串(华甸路店),30.700787667551122,104.16023135825219,餐饮服务;中餐厅;火锅店
友记烧烤(东裕店),30.713323167465678,104.11576194101771,餐饮服务;中餐厅;特色/地方风味餐厅
简阳二姐羊肉汤(东裕路),30.7127807217472,104.11569572463999,餐饮服务;中餐厅;中餐厅
祥和烤鱼(天裕街),30.767962289446412,104.10859752013675,餐饮服务;中餐厅;特色/地方风味餐厅
小龙坎老火锅(八里庄店),30.691944346370143,104.10444370595289,餐饮服务;中餐厅;火锅店
汪记太婆面(怡福路),30.691404137728796,104.10425569091096,餐饮服务;中餐厅;中餐厅
布德糍粑冰粉(八里小区店),30.68937301037391,104.106051661082,餐饮服务;中餐厅;中餐厅
博玺御房粥品(龙潭寺店),30.69850929881351,104.171291992478,餐饮服务;中餐厅;中餐厅
正宗兰州拉面,30.748657020689492,104.10835220520013,餐饮服务;快餐厅;快餐厅
真情味串串香,30.692071884477187,104.10543456381018,餐饮服务;中餐厅;中餐厅
鱼香排骨面,30.69001954591462,104.10324918022384,餐饮服务;中餐厅;中餐厅
大肚水饺,30.69095601190385,104.10540563467065,餐饮服务;快餐厅;快餐厅
憨叁砂锅串串(怡福路店),30.688636940889356,104.10424187690245,餐饮服务;中餐厅;火锅店
珍馐私房冒菜,30.692012063196866,104.10407054491867,餐饮服务;中餐厅;中餐厅
门记家常豆汤馆,30.7133093550868,104.11519891030389,餐饮服务;中餐厅;中餐厅
罗记重庆利民饭店,30.702757762091178,104.16726243739748,餐饮服务;中餐厅;中餐厅
弟庄・面,30.7004934358493,104.16241000350033,餐饮服务;快餐厅;快餐厅
品味(欣然二街),30.69068904255566,104.10088369966559,餐饮服务;中餐厅;中餐厅
五八筒四川麻辣烫,30.698500261096388,104.17122800476307,餐饮服务;中餐厅;特色/地方风味餐厅
谷满仓老食堂,30.70104632332118,104.16285507959086,餐饮服务;中餐厅;中餐厅
彝海情凉山特色烧烤(东裕路店),30.714214010283197,104.1153656248733,餐饮服务;中餐厅;特色/地方风味餐厅
沉味居,30.71151958704001,104.15452767113267,餐饮服务;中餐厅;中餐厅
天新火锅,30.76821055109417,104.11350008364323,餐饮服务;中餐厅;火锅店
亿口香龙虾(青龙场八分店),30.703610037813355,104.10500912971007,餐饮服务;中餐厅;湖南菜(湘菜)
憨叁砂锅串串(青龙场店),30.71829248414718,104.10590015493517,餐饮服务;中餐厅;火锅店
五区结子砂锅串串,30.70029375541755,104.17115287051237,餐饮服务;中餐厅;中餐厅
酒鬼烧烤王(土门店),30.748822577549884,104.10784110873941,餐饮服务;中餐厅;特色/地方风味餐厅
福源老面馆,30.71788209266563,104.10178830399468,餐饮服务;快餐厅;快餐厅
王姐小吃,30.68867472125025,104.10743610763173,餐饮服务;快餐厅;快餐厅
三盆菜(东裕路店),30.714675745945645,104.11569299874455,餐饮服务;中餐厅;中餐厅
白家肥肠粉(新风路),30.691143589026087,104.10523926932701,餐饮服务;中餐厅;中餐厅
鹏记面庄,30.690857576435764,104.10676194639305,餐饮服务;中餐厅;中餐厅
骨汤大抄手(怡福路),30.691157287335415,104.10400912678637,餐饮服务;中餐厅;中餐厅
鑫源聚冒菜馆,30.71996290519454,104.1063630396507,餐饮服务;中餐厅;中餐厅
四姐小吃(昭觉路店),30.704202279694908,104.10096675727011,餐饮服务;中餐厅;中餐厅
龙虾飞鱼儿追,30.69230938090713,104.10415800301702,餐饮服务;中餐厅;中餐厅
老麻抄手(西大街西二段),30.749957699811016,104.10749077190873,餐饮服务;中餐厅;中餐厅
双流冒节子肥肠粉(土门村店),30.749887611016252,104.10942697134158,餐饮服务;中餐厅;中餐厅
勇记牛肉面,30.748591311497687,104.10753514764994,餐饮服务;中餐厅;中餐厅
味妙串串(金科一城店),30.715120517403776,104.10957781288272,餐饮服务;中餐厅;中餐厅
友福面庄,30.691495820355502,104.10435552998045,餐饮服务;中餐厅;中餐厅
许仙三和面(驿站路),30.758778698322423,104.14637935063357,餐饮服务;中餐厅;中餐厅
小谢家常川菜馆,30.760032686207712,104.11313672311852,餐饮服务;中餐厅;四川菜(川菜)
蜀渝小龙坎老火锅(东荆店),30.715085078310945,104.11002390402783,餐饮服务;中餐厅;火锅店
楠栖餐吧(理工东苑店),30.68753800964112,104.1485026765279,餐饮服务;休闲餐饮场所;休闲餐饮场所
PIZZA 4U(动物园店),30.72002685203371,104.10315565294819,餐饮服务;快餐厅;快餐厅
张妈串串香(怡福路店),30.68800878182138,104.104410081144,餐饮服务;中餐厅;中餐厅
自家菜(东荆路店),30.71554285085728,104.11014427560782,餐饮服务;中餐厅;中餐厅
老地方串串(八里小区店),30.68757030017534,104.10426089848828,餐饮服务;中餐厅;中餐厅
陈记腾飞牛杂火锅,30.71834661143891,104.10628612027162,餐饮服务;中餐厅;火锅店
老麻本味抄手(浅水半岛店),30.690465891282635,104.1016461903921,餐饮服务;中餐厅;中餐厅
中腾黄焖鸡米饭(理工东苑店),30.68793739692755,104.1481638946781,餐饮服务;中餐厅;中餐厅
程县川菜馆,30.703162689306286,104.10933728491825,餐饮服务;中餐厅;四川菜(川菜)
隆昌一绝(文德路),30.692415724647145,104.10728510239151,餐饮服务;中餐厅;中餐厅
康巴拉牦牛馆(龙潭店),30.70098105688753,104.16240416346632,餐饮服务;中餐厅;中餐厅
蜀香九碗,30.703125825799486,104.11056446051825,餐饮服务;中餐厅;四川菜(川菜)
爱尚披萨,30.702819060529634,104.16341210044546,餐饮服务;外国餐厅;外国餐厅
尤卤,30.699889195176542,104.16811239615119,餐饮服务;中餐厅;中餐厅
贵州羊肉米粉(成康路),30.700225139892822,104.16303150610838,餐饮服务;中餐厅;中餐厅
大众自助烤肉(金牛店),30.768089986901845,104.1128929755115,餐饮服务;中餐厅;特色/地方风味餐厅
怡品食坊,30.700393818208962,104.16007002713236,餐饮服务;中餐厅;中餐厅
香邻居酒楼,30.73592657709897,104.13727843443834,餐饮服务;中餐厅;综合酒楼
可米(青龙店),30.70331706105262,104.10470259020694,餐饮服务;快餐厅;快餐厅
大爱小吃面馆(师友路店),30.68971173630565,104.10814022066964,餐饮服务;中餐厅;中餐厅
味真香中餐馆(东紫路店),30.718844820076505,104.10567541095882,餐饮服务;中餐厅;中餐厅
恬享千层,30.692338545816582,104.10638216003937,餐饮服务;快餐厅;快餐厅
老地方鲜兔庄,30.71473774068022,104.16558970639912,餐饮服务;中餐厅;中餐厅
味在小龙坎老火锅(龙潭寺直营店),30.70469444967892,104.16780224364256,餐饮服务;中餐厅;中餐厅
屋头串串香(海纳时代店),30.70523338322425,104.11799564177596,餐饮服务;中餐厅;中餐厅
Pizza PLUS,30.71955753788118,104.10242118005793,餐饮服务;快餐厅;快餐厅
Pizza 4U(浅水半岛店),30.688452900267166,104.10121293391244,餐饮服务;快餐厅;快餐厅
钟何鸭子酒楼,30.736097366936974,104.13693927908399,餐饮服务;中餐厅;综合酒楼
8姊妹串串香(青龙场总店),30.705385303537376,104.1039250961655,餐饮服务;中餐厅;火锅店
口味川菜,30.68856422170573,104.15497318267404,餐饮服务;中餐厅;中餐厅
青龙场温鸭子(保利店),30.758022526815097,104.15215671169834,餐饮服务;中餐厅;四川菜(川菜)
东和苑,30.723652663880472,104.16195399528073,餐饮服务;中餐厅;综合酒楼
彭州佬l肥肠鸡(二仙桥店),30.68964810176802,104.12726303793472,餐饮服务;中餐厅;中餐厅
牟记邛崃奶汤面(海滨堰街),30.766386551324693,104.10702774538427,餐饮服务;中餐厅;特色/地方风味餐厅
油泼扯面,30.719091649250515,104.11095058468243,餐饮服务;中餐厅;中餐厅
粤饺皇(文德路店),30.689317500891825,104.11037116925405,餐饮服务;中餐厅;特色/地方风味餐厅
七掌柜(旗舰店),30.703600230990318,104.10446509431222,餐饮服务;中餐厅;火锅店
鑫港湾酒楼,30.705627322711877,104.10125144466436,餐饮服务;中餐厅;海鲜酒楼
卖面郎,30.690513311859053,104.10574049294934,餐饮服务;快餐厅;快餐厅
付记菜香缘,30.760270298592157,104.12586688560346,餐饮服务;中餐厅;四川菜(川菜)
简阳刘羊肉(青龙店),30.70381892827129,104.10834709622021,餐饮服务;中餐厅;中餐厅
瑶大妈鲜兔火锅,30.716053650669764,104.1047230589013,餐饮服务;中餐厅;中餐厅
李庄白肉,30.693065960873305,104.17200283812053,餐饮服务;中餐厅;中餐厅
乐山钵钵鸡(八里店),30.69035992366756,104.1060748114482,餐饮服务;中餐厅;中餐厅
果真爽,30.708167380937013,104.16228731746664,餐饮服务;快餐厅;快餐厅|餐饮服务;冷饮店;冷饮店
成都军区总医院餐厅,30.748392616734236,104.11415482223366,餐饮服务;中餐厅;中餐厅
三义私房菜馆,30.701911364802807,104.16770789637502,餐饮服务;中餐厅;中餐厅
羊马查渣面(总店),30.696902145664716,104.15231264642962,餐饮服务;中餐厅;中餐厅
屋头串串香(八里小区店),30.69316750126907,104.10346535482567,餐饮服务;中餐厅;火锅店
雷记黑豆花美蛙鱼,30.756763039213975,104.14785036158017,餐饮服务;中餐厅;中餐厅
花溪牛肉粉(龙潭寺店),30.698386463799917,104.17109519765201,餐饮服务;中餐厅;中餐厅
灌县老妈砂锅串串(怡福路店),30.687775693465237,104.10483056296975,餐饮服务;中餐厅;火锅店|餐饮服务;中餐厅;特色/地方风味餐厅
鸡汤铺盖面(华泰路),30.700943806002055,104.16235222420546,餐饮服务;中餐厅;中餐厅
重庆欢水鱼火锅(成宏路),30.698097536927897,104.17263779413402,餐饮服务;中餐厅;火锅店
印象李庄家宴馆,30.721190466734804,104.10095898632234,餐饮服务;中餐厅;中餐厅
贵州花溪牛羊肉米粉(青龙店),30.7070236978938,104.10420847690331,餐饮服务;中餐厅;云贵菜
百味小jun肝砂锅串串,30.720618650739432,104.10222681885591,餐饮服务;中餐厅;火锅店
龙潭蜀味砂锅串串,30.704162348712547,104.17049627903374,餐饮服务;中餐厅;中餐厅
潘二姐兔丁,30.718384758827764,104.11049946443316,餐饮服务;中餐厅;中餐厅
重庆万州烤鱼(成康路),30.699480536813212,104.16310280428989,餐饮服务;中餐厅;特色/地方风味餐厅
无知烧烤,30.71410432588992,104.11535178017918,餐饮服务;中餐厅;特色/地方风味餐厅
香里香馄饨黄焖鸡米饭,30.700011497153362,104.16313288263596,餐饮服务;快餐厅;快餐厅
曹氏鸭脖(美立方店),30.68877498909056,104.1548217744672,餐饮服务;中餐厅;特色/地方风味餐厅
台资味(成都动物园店),30.715839380511557,104.10463834660615,餐饮服务;快餐厅;快餐厅
米易特色铜火锅(东紫路),30.71829248414718,104.10590015493517,餐饮服务;中餐厅;中餐厅
旺旺包点(文德路),30.689406253732557,104.11028999475548,餐饮服务;中餐厅;中餐厅
一把骨砂锅(川陕店),30.72099622374818,104.10129025851317,餐饮服务;中餐厅;中餐厅
左米线,30.72187953525565,104.16332118296927,餐饮服务;中餐厅;中餐厅
家佳香冒菜(新风路),30.690586916794164,104.10570735223591,餐饮服务;中餐厅;中餐厅
佐记九味鸡(上东店),30.705005032518226,104.15873817047216,餐饮服务;中餐厅;中餐厅
川魂帽牌货冒菜(东裕路店),30.713452788089917,104.1161827912601,餐饮服务;中餐厅;中餐厅
168砂锅串串,30.719447076535957,104.11017905529224,餐饮服务;中餐厅;火锅店
主心骨排骨连锅汤(龙潭寺店),30.70239320236861,104.16498091549965,餐饮服务;中餐厅;中餐厅
鸡汤铺盖面手工刀削面,30.748671161638374,104.10812317947718,餐饮服务;快餐厅;快餐厅
林哥烤鱼,30.68929598645689,104.15521681918017,餐饮服务;中餐厅;特色/地方风味餐厅
乡坝头家常菜(成宏路),30.69804113816067,104.17257689041344,餐饮服务;中餐厅;中餐厅
大抄手(民兴北二路),30.688883848234813,104.15485557136296,餐饮服务;中餐厅;中餐厅
重庆一绝鱼摆摆(新风分店),30.691958044465142,104.10530076200722,餐饮服务;中餐厅;中餐厅
沙漠胡杨新疆主题餐厅,30.7047009125474,104.16901230394504,餐饮服务;中餐厅;中餐厅
漫花庄园美食坊(新都店),30.767311647237698,104.13696872141882,餐饮服务;中餐厅;中餐厅
正宗重庆炭香烤鱼,30.718622347431474,104.10603573515634,餐饮服务;中餐厅;特色/地方风味餐厅
知味轩川菜馆,30.750390407815406,104.10944485256171,餐饮服务;中餐厅;四川菜(川菜)
签香源砂锅串串(龙潭店),30.70272020404091,104.16785453572822,餐饮服务;中餐厅;火锅店
李记鸡汤泡饭(东裕店),30.713341476426255,104.11536987919065,餐饮服务;快餐厅;快餐厅
龙当家干锅烤鱼,30.7031430907133,104.16408159734888,餐饮服务;中餐厅;四川菜(川菜)
田记家宴馆(龙潭店),30.70074556939672,104.16394966448325,餐饮服务;中餐厅;中餐厅
宜宾特色烧烤,30.691243418053286,104.10517107697756,餐饮服务;中餐厅;中餐厅
廖记煌砂锅串串,30.759236226988257,104.14557433434149,餐饮服务;中餐厅;中餐厅
勇娃坝坝火锅(八里店),30.68984871649401,104.10629879054825,餐饮服务;中餐厅;火锅店
天乡月,30.76428710156838,104.11067839662448,餐饮服务;中餐厅;中餐厅
张记羊肉汤(成金青快速通道),30.723163637948062,104.17102911101745,餐饮服务;中餐厅;中餐厅
早点见面(蜀龙大道南段店),30.760778238281535,104.14194826481702,餐饮服务;中餐厅;中餐厅
毛焦火辣砂锅串串(龙潭寺店),30.700217261858427,104.17099399386383,餐饮服务;中餐厅;火锅店
留一手烤鱼(东林店),30.71878705772072,104.11059794740197,餐饮服务;中餐厅;特色/地方风味餐厅
老麻抄手(荆竹东路),30.716774143279135,104.11058162357544,餐饮服务;中餐厅;中餐厅
民族风情园(严家祠路),30.76107583404633,104.12484492409251,餐饮服务;中餐厅;中餐厅
宴上宴酒楼,30.71873709599857,104.10587357001754,餐饮服务;中餐厅;综合酒楼
武记牛杂火锅(天回店),30.76813825433631,104.10829756739565,餐饮服务;中餐厅;火锅店
九妹土碗菜,30.689107831359824,104.10823736573381,餐饮服务;中餐厅;中餐厅
面面聚道(北大街),30.751994794741215,104.10732433199168,餐饮服务;中餐厅;中餐厅
双流老字号冒节子肥肠粉,30.748451156411257,104.10931835736908,餐饮服务;中餐厅;中餐厅
让签签飞小郡肝串串香(八里店),30.69019788129102,104.10553906412514,餐饮服务;快餐厅;快餐厅
牛华绿缘串串香(东裕店),30.712934001481585,104.11509544666924,餐饮服务;中餐厅;中餐厅
大邑肥肠血旺(蜀龙路),30.722668622437478,104.14331786143185,餐饮服务;中餐厅;中餐厅
马记芙蓉黄牛肉蒸肉馆,30.767347938714547,104.11249462899713,餐饮服务;中餐厅;中餐厅
平蕃・滋味美式餐咖,30.699156523852846,104.17057181582125,餐饮服务;快餐厅;快餐厅
红烧鸭子干锅(八里小区店),30.692302868904317,104.10720430339133,餐饮服务;中餐厅;中餐厅
双流冒节子肥肠粉三碗面,30.719244709961913,104.10248158781923,餐饮服务;中餐厅;中餐厅
李记美蛙鱼头自助火锅,30.7052362075876,104.11428130400216,餐饮服务;中餐厅;中餐厅
一品轩(鹤林四路),30.704785753054956,104.17059725575719,餐饮服务;中餐厅;中餐厅|餐饮服务;茶艺馆;茶艺馆
老坛酸菜卤肉面(土门村店),30.750128974305856,104.1074957307264,餐饮服务;中餐厅;中餐厅
七婆串串香(金科一城店),30.714705116730247,104.10716217167011,餐饮服务;中餐厅;中餐厅
老字号锅魁夹牛肉,30.771004026806303,104.10940806083059,餐饮服务;中餐厅;中餐厅
胖哥餐馆(熊猫大道),30.72932540016004,104.13152170928838,餐饮服务;中餐厅;中餐厅
姐妹果园农庄,30.75493246528704,104.12237836466664,餐饮服务;中餐厅;中餐厅
周记有家粥庄,30.70105047172169,104.16261005717048,餐饮服务;中餐厅;中餐厅
牛牛面馆(昭青路),30.707685554293246,104.10162317612368,餐饮服务;中餐厅;中餐厅
6你妹(新风路店),30.690820888614677,104.10549689537838,餐饮服务;中餐厅;特色/地方风味餐厅
方院坝土碗菜,30.70360365167419,104.10365001080349,餐饮服务;中餐厅;中餐厅
夫妻小吃,30.70644849705021,104.15814078598574,餐饮服务;快餐厅;快餐厅
重庆刀削面(东荆路),30.715019897270228,104.10956795319721,餐饮服务;中餐厅;四川菜(川菜)
杨登金金牌卤肉面(怡福路店),30.68763651909735,104.10492783625158,餐饮服务;中餐厅;中餐厅
蜀州香河鲜自助,30.688610778386565,104.10833031210852,餐饮服务;中餐厅;火锅店
龙王庙面(成康路),30.700476336334148,104.16651928482963,餐饮服务;中餐厅;中餐厅
竹林兔,30.72164451218326,104.17095492399802,餐饮服务;中餐厅;中餐厅
查渣面刘蹄花(蓉都大道将军碑路辅路),30.742619287569685,104.1084326689211,餐饮服务;中餐厅;中餐厅
简阳三岔湖鲫鱼羊肉汤锅(八里店),30.68812060250788,104.10458688618799,餐饮服务;中餐厅;中餐厅
黑龙滩藤椒鱼,30.699773079685134,104.17071474862833,餐饮服务;中餐厅;海鲜酒楼
成华区喜O厨快餐店,30.725178221003905,104.1038155825832,餐饮服务;快餐厅;快餐厅
客满楼(青龙公社店),30.701900523881704,104.10918040235393,餐饮服务;中餐厅;特色/地方风味餐厅
重庆生态自由河鲜,30.718615266675442,104.10611575198584,餐饮服务;中餐厅;中餐厅
老赵烧土鸭,30.72255272913002,104.1703337936973,餐饮服务;中餐厅;中餐厅
好惠佳饭店,30.716812929362646,104.12370174222615,餐饮服务;中餐厅;中餐厅
乐山特色珍珠抄手面,30.705807082355395,104.10846783868644,餐饮服务;中餐厅;中餐厅
印象天回(银杏园路),30.764604104374932,104.11628600596825,餐饮服务;中餐厅;中餐厅
聚友屋鲜火锅,30.724124930881644,104.16233847572668,餐饮服务;中餐厅;火锅店
九龙王肥肠粉(致祥路),30.705513096675265,104.10415991013288,餐饮服务;中餐厅;特色/地方风味餐厅
大邑血旺渣渣面豆花饭,30.76994109956994,104.11818131657927,餐饮服务;中餐厅;中餐厅
江油肥肠(成都八里店),30.689696556999564,104.10826026039803,餐饮服务;中餐厅;中餐厅
醉家川菜,30.688484621632043,104.15488732729467,餐饮服务;中餐厅;四川菜(川菜)
黄记开元米粉,30.75228802862228,104.10761931163816,餐饮服务;中餐厅;中餐厅
河边风味,30.723668998001944,104.12693738200133,餐饮服务;中餐厅;中餐厅
向龙小区冷锅串串,30.69916821499651,104.15888008126564,餐饮服务;中餐厅;中餐厅
千客寻食府,30.71289257559217,104.1154215365277,餐饮服务;中餐厅;中餐厅
佳味面庄(西大街西二段),30.750119872624992,104.10766874925416,餐饮服务;中餐厅;中餐厅
正宗富顺豆花饭(桃蹊路),30.68898994287121,104.10810857587374,餐饮服务;中餐厅;中餐厅
兰州拉面(华彩路),30.69304586715123,104.17186786750635,餐饮服务;中餐厅;中餐厅
沉香豆瓣抄手,30.767122972581152,104.11086538786759,餐饮服务;快餐厅;快餐厅
肖记快餐,30.68989337438363,104.1077648445922,餐饮服务;中餐厅;中餐厅
双双面馆(致强环街),30.706789101182185,104.10822923218387,餐饮服务;中餐厅;中餐厅
重庆思味老火锅,30.744987984246166,104.15300821076153,餐饮服务;中餐厅;火锅店
馄饨大王(致祥路),30.70748494146011,104.10413173501627,餐饮服务;中餐厅;中餐厅
包记家常味,30.70647817084756,104.16131294273204,餐饮服务;中餐厅;中餐厅
魏记查渣面肥肠血旺(二仙桥西一巷),30.69041232294878,104.11448549121074,餐饮服务;中餐厅;中餐厅
重庆小面(新风路店),30.6921320380038,104.10402431834486,餐饮服务;中餐厅;特色/地方风味餐厅
牛肉米线馄饨大王,30.70678790738663,104.15805323516443,餐饮服务;快餐厅;快餐厅
重庆菜园坝鸭肠王老火锅(龙潭店),30.700066169271675,104.17092325160341,餐饮服务;中餐厅;火锅店
努力餐馆,30.71155452664122,104.16952956347404,餐饮服务;中餐厅;中餐厅
蜀食一家五馅包(华彩店),30.69934378840318,104.17086950549334,餐饮服务;中餐厅;中餐厅
杨祭厨冒菜王,30.703179456822294,104.16386852324031,餐饮服务;中餐厅;中餐厅
牛肉抄手,30.698195124434385,104.17086552206234,餐饮服务;快餐厅;快餐厅
内江小面(成康路),30.700199152028702,104.16260252433909,餐饮服务;中餐厅;中餐厅
小巷巷特色冷锅串串,30.68760465508557,104.10410081801433,餐饮服务;中餐厅;中餐厅
八千里庄串串,30.693971289695536,104.10250478934067,餐饮服务;中餐厅;中餐厅
成都市很好吃的火锅粉(新风店),30.69087863590769,104.10489973097805,餐饮服务;中餐厅;中餐厅
灌县老妈砂锅串串(北湖店),30.721259279996545,104.16303592262673,餐饮服务;中餐厅;中餐厅
简阳刘羊肉(青龙店),30.703198418477154,104.11043132646492,餐饮服务;中餐厅;中餐厅
盐帮菜(翠微路店),30.750639158601757,104.13459599006006,餐饮服务;中餐厅;中餐厅
火苑花园快餐厅,30.697984214785127,104.17988337908189,餐饮服务;快餐厅;快餐厅
鼎味美蛙鱼头(龙潭寺店),30.7002157694303,104.17199805313892,餐饮服务;中餐厅;中餐厅
重庆小龙坎老火锅(龙潭寺店),30.69684336891983,104.1613533506743,餐饮服务;中餐厅;火锅店
原汤羊肉粉(军区总医院店),30.749990833259158,104.10733274882772,餐饮服务;中餐厅;中餐厅
鸿一锅,30.69810500259526,104.17387384919903,餐饮服务;中餐厅;中餐厅
兄弟重庆美蛙鱼(金科店),30.714762833964137,104.1064360216786,餐饮服务;中餐厅;四川菜(川菜)
简阳肖八仙羊肉汤锅,30.700103815903834,104.17016014275232,餐饮服务;中餐厅;中餐厅
三台饭馆,30.69893343693245,104.10281192666135,餐饮服务;中餐厅;中餐厅
五味钢管厂小郡肝串串,30.700223791772967,104.16165242197467,餐饮服务;中餐厅;中餐厅
汤姐豆汤,30.689562591003735,104.10802849042888,餐饮服务;中餐厅;中餐厅
友基汇鸡排(金牛天回镇店),30.750308388628362,104.10922685115357,餐饮服务;快餐厅;快餐厅
cS面馆,30.768275505477256,104.10948673909408,餐饮服务;中餐厅;中餐厅
何氏烧烤(怡福路),30.69129029237222,104.10412589031611,餐饮服务;中餐厅;特色/地方风味餐厅
知味冒菜(新风路),30.692095736364845,104.10405238822635,餐饮服务;中餐厅;中餐厅
湘满园,30.75098986867537,104.13223372340755,餐饮服务;中餐厅;中餐厅
青年火锅店(八里店),30.691945944969472,104.10530778509575,餐饮服务;中餐厅;火锅店
黄焖鸡(荆翠中路),30.71997810213668,104.10613899917816,餐饮服务;中餐厅;中餐厅
大邑李血旺(龙绵街),30.71283808953169,104.11569864104757,餐饮服务;中餐厅;中餐厅
客家饭庄(回龙湾小区A区东),30.747074932078647,104.15229834394538,餐饮服务;中餐厅;中餐厅
品味白肉,30.7071887983005,104.10841261048063,餐饮服务;中餐厅;中餐厅
蜀皇全牛宴,30.700393939885746,104.16190114337998,餐饮服务;中餐厅;火锅店
乐山烧烤(八里小区店),30.688341454372814,104.10444945515734,餐饮服务;中餐厅;特色/地方风味餐厅
留一手烤鱼(上东店),30.720553178385465,104.10243892119199,餐饮服务;中餐厅;特色/地方风味餐厅
红门周记串串(青龙店),30.703106620593598,104.10245672809518,餐饮服务;中餐厅;火锅店
彬彬恋火锅米线(龙潭寺店),30.700157791221333,104.16271160278613,餐饮服务;中餐厅;中餐厅
上上签(天裕街),30.76812804416455,104.1087356043034,餐饮服务;中餐厅;中餐厅
大骨汤石锅鱼,30.720384716994385,104.10347823235982,餐饮服务;中餐厅;中餐厅
可乐堡(理工东苑店),30.687841720544107,104.14796106146812,餐饮服务;快餐厅;快餐厅
福建馄饨蒸饺大王,30.76723376709274,104.1090862653431,餐饮服务;中餐厅;中餐厅
大嘴鲜,30.704423199486836,104.17052984941252,餐饮服务;中餐厅;中餐厅
川凉品,30.769129571753172,104.10938311642346,餐饮服务;快餐厅;快餐厅
寒翔小吃店,30.69868825745676,104.16793548388786,餐饮服务;中餐厅;中餐厅
汉安面道,30.689125488902892,104.15548915853347,餐饮服务;快餐厅;快餐厅
沱江鱼府世家,30.68835638404762,104.15531959887251,餐饮服务;中餐厅;中餐厅
芭比馒头,30.688164039033396,104.15488693365508,餐饮服务;中餐厅;中餐厅
蜀小渔黑砂锅河鲜(青龙场店),30.70523932696395,104.11408128076489,餐饮服务;中餐厅;海鲜酒楼
叶记稀饭,30.69853089192651,104.16203940146183,餐饮服务;中餐厅;中餐厅
重庆冷锅鱼(华彩路),30.698340110491998,104.17110027963734,餐饮服务;中餐厅;中餐厅
小月君肝砂锅串串,30.720651862218492,104.10217577244025,餐饮服务;中餐厅;中餐厅
幸福面馆,30.70630460145602,104.108443031197,餐饮服务;快餐厅;快餐厅
钢管厂正门小郡肝串串香,30.71571347949701,104.10489854575188,餐饮服务;中餐厅;中餐厅
特色班冒菜小面,30.7036160140825,104.10514713284795,餐饮服务;中餐厅;中餐厅
自助餐青龙场,30.71707999266994,104.12480347519518,餐饮服务;外国餐厅;外国餐厅
社员食堂土菜馆,30.748946914254187,104.10761405169427,餐饮服务;中餐厅;中餐厅
宜宾特色姜鸭面老鸭汤饭,30.698444055109558,104.17077007771532,餐饮服务;中餐厅;中餐厅
缘老街面馆,30.70952916021357,104.16942162897254,餐饮服务;中餐厅;中餐厅
管鲍寿司,30.707561410601375,104.16395737797872,餐饮服务;外国餐厅;日本料理
潜江虾皇(成都总店),30.703585172222184,104.10848049825348,餐饮服务;中餐厅;海鲜酒楼
聚源思味,30.693084892357525,104.17245982885673,餐饮服务;中餐厅;中餐厅
老表砂锅串串,30.698720051811154,104.17095560281926,餐饮服务;中餐厅;中餐厅
吴记酸菜卤肉面,30.726942091330407,104.12170630700764,餐饮服务;中餐厅;中餐厅
宜宾烧烤(桃源街),30.688635996787017,104.10829926157614,餐饮服务;中餐厅;特色/地方风味餐厅
钢管厂小肫肝串串香,30.705810699605372,104.15673772439575,餐饮服务;中餐厅;特色/地方风味餐厅
万象城大渔铁板,30.694223007160634,104.10720277615123,餐饮服务;快餐厅;快餐厅
自然美食,30.691829701452033,104.1018016653486,餐饮服务;中餐厅;中餐厅
开心面馆(北大街),30.75178559561222,104.1071623530521,餐饮服务;中餐厅;中餐厅
樊都烤鱼,30.7499165485599,104.10765779785557,餐饮服务;中餐厅;特色/地方风味餐厅
久久川菜馆(新风路),30.692706674953904,104.10385124015451,餐饮服务;中餐厅;四川菜(川菜)
老味道,30.705320024641225,104.11382612569317,餐饮服务;中餐厅;中餐厅
盐帮特色菜,30.72071618756859,104.16320560571077,餐饮服务;中餐厅;中餐厅
宜宾燃面(北大街),30.751609258230147,104.10735240298726,餐饮服务;中餐厅;中餐厅
聚友一品香干锅,30.707135167081542,104.16250396538548,餐饮服务;中餐厅;中餐厅
灌县老妈砂锅串串(二台子店),30.756443062810266,104.14740032748493,餐饮服务;中餐厅;特色/地方风味餐厅
八块钱干锅炒菜烧烤,30.687601588731493,104.10418783213099,餐饮服务;中餐厅;中餐厅
绵阳特色鲜米粉(青龙店),30.70678014919755,104.10800222528424,餐饮服务;中餐厅;特色/地方风味餐厅
特色野生菌面,30.721876499121084,104.1633611891387,餐饮服务;中餐厅;四川菜(川菜)
川香小厨,30.705240436909417,104.1138712598864,餐饮服务;中餐厅;中餐厅
十里香,30.68788580487707,104.15486545925548,餐饮服务;中餐厅;特色/地方风味餐厅
金牌卤肉面(东林店),30.717885856140597,104.11043211698282,餐饮服务;中餐厅;中餐厅
龙祥周记串串(东荆店),30.708996006149633,104.10886180809162,餐饮服务;中餐厅;火锅店
雅竹轩面庄,30.721882532915803,104.16335918170088,餐饮服务;中餐厅;中餐厅
黄家酸杂面(天新路),30.767847715185606,104.11195278524242,餐饮服务;中餐厅;中餐厅
重庆青花椒鱼庄(公交苑南),30.688184259318113,104.10428973738242,餐饮服务;中餐厅;海鲜酒楼
重庆美味面庄,30.71869600996989,104.11367934893826,餐饮服务;中餐厅;中餐厅
重庆杂酱面(民兴北二路店),30.68851487613106,104.15486426856023,餐饮服务;中餐厅;四川菜(川菜)
龙博饭店,30.68761600773766,104.13507851400654,餐饮服务;中餐厅;中餐厅
华妹李庄白肉(总医院店),30.750613911095023,104.11111995814777,餐饮服务;中餐厅;中餐厅
柴焖鸡生态火锅,30.751039555332095,104.13300377597906,餐饮服务;中餐厅;火锅店
蓉城湘味,30.745018599080474,104.14991698035679,餐饮服务;中餐厅;综合酒楼|餐饮服务;中餐厅;湖南菜(湘菜)
星原食坊(成华店),30.703177997321166,104.11099341260575,餐饮服务;中餐厅;中餐厅
牛肉面砂锅饭,30.71009699731494,104.11385057115606,餐饮服务;快餐厅;快餐厅
周记宜宾燃面,30.718346589555964,104.1022737371686,餐饮服务;中餐厅;中餐厅
味争香餐厅(上东店),30.72071335258246,104.10188066721555,餐饮服务;中餐厅;中餐厅
九龙王大包(双建路店),30.687917682935158,104.10726452370915,餐饮服务;中餐厅;特色/地方风味餐厅
好运来冒菜,30.69971425725526,104.16316840124931,餐饮服务;中餐厅;中餐厅
黄记面馆(火神庙西街),30.710013765685765,104.16455259475764,餐饮服务;中餐厅;中餐厅
留一手专业烤鱼,30.75050768153609,104.10727662181294,餐饮服务;中餐厅;特色/地方风味餐厅
胖哥饭馆,30.750280412873582,104.10909084494753,餐饮服务;中餐厅;中餐厅
涛涛烤鱼,30.768279136060066,104.10822962229024,餐饮服务;中餐厅;特色/地方风味餐厅
重庆万州杂酱面(桃蹊路),30.688550619920832,104.10764436157343,餐饮服务;中餐厅;中餐厅
重庆古城烤鱼,30.749359595074704,104.10769594533821,餐饮服务;中餐厅;特色/地方风味餐厅
华阳稀饭庄,30.75950889606373,104.14635242136102,餐饮服务;中餐厅;中餐厅
川江滋香老火锅(龙潭寺店),30.70296171014109,104.1662940363971,餐饮服务;中餐厅;火锅店
小米快跑火锅米线,30.719408646812106,104.10249537816249,餐饮服务;中餐厅;中餐厅
上道首座家宴坊(龙潭寺店),30.69683932934209,104.16137135903179,餐饮服务;中餐厅;火锅店
农家小院土菜馆,30.70022923425253,104.16289849073631,餐饮服务;中餐厅;中餐厅
曹二姐家宴馆,30.69310291653498,104.17270680946129,餐饮服务;中餐厅;中餐厅
幺妹手工肥肠粉,30.72033117492572,104.10194015168007,餐饮服务;中餐厅;中餐厅
忠义堂,30.69683333358761,104.16126636309123,餐饮服务;中餐厅;中餐厅
橘子的快餐店,30.71890800093742,104.106052364565,餐饮服务;中餐厅;中餐厅
啤酒烤鸭,30.750216460920697,104.10680664464898,餐饮服务;中餐厅;特色/地方风味餐厅
馄饨蒸饺面王(天回镇店),30.76773361992556,104.11237277620525,餐饮服务;中餐厅;中餐厅
重庆片片鱼自助火锅(西大街西二段),30.75022548937955,104.10677863985784,餐饮服务;中餐厅;火锅店
幺妹串串香(美立方店),30.687544880766474,104.15522613032223,餐饮服务;快餐厅;快餐厅
重庆渝A小面,30.690588070697228,104.10122592140536,餐饮服务;中餐厅;中餐厅
重庆小面馆(天回镇店),30.749771430019184,104.10940599855749,餐饮服务;中餐厅;特色/地方风味餐厅
老麻抄手(龙潭寺店),30.69809298699235,104.17371586176357,餐饮服务;中餐厅;中餐厅
乡土菜(东紫路),30.718303376537936,104.10624817354632,餐饮服务;中餐厅;中餐厅
潘格餐吧,30.738939943641654,104.14128162583701,餐饮服务;外国餐厅;外国餐厅
老成都杂酱面(新风路店),30.69060103600236,104.10569432461907,餐饮服务;中餐厅;中餐厅
福岭居,30.7619981525277,104.12601119825206,餐饮服务;中餐厅;中餐厅
绵阳米粉(东丽街),30.71478001098101,104.10629398401214,餐饮服务;中餐厅;特色/地方风味餐厅
枫竹苑,30.754447308280962,104.12180234754096,餐饮服务;休闲餐饮场所;休闲餐饮场所|体育休闲服务;休闲场所;休闲场所
老麻抄手(成康路),30.700215162458072,104.16282951079478,餐饮服务;中餐厅;中餐厅
大众串串香(龙潭店),30.698981996290225,104.17310826397365,餐饮服务;中餐厅;中餐厅
高原烤肉烤羊腿,30.72039779514958,104.10346921506394,餐饮服务;中餐厅;中餐厅
COCO蛙自助火锅(东裕路店),30.71273644042234,104.11568778870868,餐饮服务;中餐厅;火锅店
哑巴兔串串香,30.718775433001912,104.10564249815053,餐饮服务;中餐厅;火锅店
太板,30.720276098135027,104.10349037018297,餐饮服务;外国餐厅;日本料理
东山客家羊肉汤(二仙桥老店),30.68776503466746,104.1354542610897,餐饮服务;中餐厅;中餐厅
青龙场老街饭店,30.702013537346097,104.10261758944706,餐饮服务;中餐厅;中餐厅
天天串串香(龙潭寺店),30.706294432928036,104.15811203234148,餐饮服务;中餐厅;火锅店
九香冒菜(东荆路店),30.718963673123543,104.1114287945792,餐饮服务;中餐厅;中餐厅
客家乡园饭店,30.71016985708599,104.16857359730291,餐饮服务;中餐厅;中餐厅
幺姑蒸牛肉兔子面,30.767183253965406,104.11217853375167,餐饮服务;中餐厅;特色/地方风味餐厅
阿里饭店(熊猫大道),30.726674861961996,104.11753122243623,餐饮服务;中餐厅;中餐厅
钢管厂后庭小郡肝串串香(怡福店),30.687830564013638,104.10393737385269,餐饮服务;中餐厅;中餐厅
宵味烧烤(云龙路),30.705324576121875,104.10247805663896,餐饮服务;中餐厅;特色/地方风味餐厅
忆香缘串串(青龙店),30.703722239339776,104.1042078663557,餐饮服务;中餐厅;火锅店
袁记幺哥串串香(北湖店),30.72044201701667,104.16246790233994,餐饮服务;中餐厅;火锅店
千百味啤酒生活馆,30.700306206319112,104.16206830557837,餐饮服务;中餐厅;特色/地方风味餐厅
川西民居・土菜馆,30.75008891502977,104.10947292628015,餐饮服务;中餐厅;四川菜(川菜)
小君肝串串(新风路),30.692752050265515,104.1038171532389,餐饮服务;中餐厅;火锅店
有友饭店(荆竹东路),30.71669338720813,104.11112778379083,餐饮服务;中餐厅;中餐厅
龙凤串串香烧烤旗舰店,30.69147434894817,104.10498262953432,餐饮服务;中餐厅;中餐厅
新津园川味馆(文德路),30.693191704255483,104.10344030794235,餐饮服务;中餐厅;四川菜(川菜)
成华区紫云小吃店,30.697811746738694,104.10521213286063,餐饮服务;中餐厅;中餐厅
双流肥肠粉(天新路),30.767286198912945,104.11209556721563,餐饮服务;中餐厅;中餐厅
成都红面馆,30.745975311123818,104.15085665335032,餐饮服务;中餐厅;中餐厅
红番茄川菜馆,30.751721505784975,104.10716736500403,餐饮服务;中餐厅;四川菜(川菜)
好口福面庄(蓝光・乐彩城南),30.69254432269276,104.13533330160641,餐饮服务;中餐厅;中餐厅
周记万州烤鱼,30.70373035630654,104.10820623053291,餐饮服务;中餐厅;特色/地方风味餐厅
五味缘钢管厂小郡肝串串香(新都保利店),30.757084882706998,104.14454912331803,餐饮服务;中餐厅;特色/地方风味餐厅
大碗牛肉面,30.766369596977928,104.10696473315504,餐饮服务;中餐厅;中餐厅
兰氏鱼庄,30.724189527770644,104.16180336810926,餐饮服务;中餐厅;海鲜酒楼
街坊快餐(隆兴路),30.707624933564304,104.16378126644737,餐饮服务;中餐厅;中餐厅
渣渣面,30.69387044560848,104.10261298412433,餐饮服务;中餐厅;中餐厅
陈氏简阳羊肉汤,30.693537349915896,104.10360368906325,餐饮服务;中餐厅;中餐厅
九龙王大包肥肠粉(金科店),30.716600693709324,104.10530036429223,餐饮服务;中餐厅;中餐厅
渔家院子,30.689039581739028,104.12858529335823,餐饮服务;中餐厅;海鲜酒楼
五馅包,30.702898129433194,104.10239707267623,餐饮服务;快餐厅;快餐厅
极品双绍兔子面,30.765049268352474,104.11544106780686,餐饮服务;中餐厅;中餐厅
吉萌饺子,30.714401983164745,104.1157913956452,餐饮服务;快餐厅;快餐厅
粥新吃(总店),30.768886282417597,104.10855292531359,餐饮服务;中餐厅;中餐厅
宴遇川菜馆(二台子店),30.759986859685213,104.14657949651387,餐饮服务;中餐厅;四川菜(川菜)
郑稀饭老川菜,30.6986071894383,104.17097680238638,餐饮服务;中餐厅;中餐厅
沈家肥肠,30.718984755714082,104.10542420538971,餐饮服务;中餐厅;特色/地方风味餐厅
鱼摆摆,30.71585298070812,104.10968880318383,餐饮服务;中餐厅;中餐厅
蝶之媛休闲吧,30.70561428813108,104.10524084819171,餐饮服务;休闲餐饮场所;休闲餐饮场所
牛肉面馄饨王(东荆路),30.715133597597823,104.10957979472711,餐饮服务;中餐厅;特色/地方风味餐厅
韩记蒸菜馆,30.75009677056191,104.10779776699277,餐饮服务;中餐厅;中餐厅
中华园(海滨堰街店),30.766483974935674,104.10602968640285,餐饮服务;中餐厅;中餐厅
周记豆汤(天裕街店),30.766407250603837,104.10758980634402,餐饮服务;中餐厅;中餐厅
老詹面馆,30.705818339214122,104.15759476867508,餐饮服务;中餐厅;中餐厅
缘味,30.719035107386564,104.11138669810843,餐饮服务;中餐厅;中餐厅
渝美人自助火锅(成都分店),30.715574001500904,104.11022824007067,餐饮服务;中餐厅;中餐厅
美炉家宴馆,30.704947177754505,104.1679488368913,餐饮服务;中餐厅;综合酒楼
8号串串,30.71569824369518,104.10518759437282,餐饮服务;中餐厅;中餐厅
胖娃虾馆(动物园店),30.71790554251805,104.10115721181204,餐饮服务;快餐厅;快餐厅
一品砂锅,30.697685049000256,104.16292295107333,餐饮服务;中餐厅;中餐厅
赵鸭子,30.71618901988044,104.1076851528286,餐饮服务;快餐厅;快餐厅
花甲先生,30.718189729656764,104.10823551031686,餐饮服务;快餐厅;快餐厅
五花肉包子铺,30.687636265570486,104.10755308451108,餐饮服务;中餐厅;中餐厅
钟记牛肉馆,30.70036015137753,104.17135776730392,餐饮服务;中餐厅;中餐厅
好又来家常面(熊猫大道),30.726437319674705,104.12839641523485,餐饮服务;中餐厅;中餐厅
乐山烧烤(东紫路),30.718617298747446,104.10607474544815,餐饮服务;中餐厅;特色/地方风味餐厅
人民食堂(蓉都大道天回路辅路),30.750263151561228,104.10955589254132,餐饮服务;中餐厅;中餐厅
家乡味道生鲜直营店,30.75783076952576,104.1435310738761,餐饮服务;中餐厅;中餐厅
正宗富顺豆花(蓝光・COCO国际西),30.713224449386665,104.11594010017564,餐饮服务;中餐厅;中餐厅
辣妹串串香(东荆店),30.715622783342813,104.10517969836312,餐饮服务;中餐厅;火锅店
黄焖鸡米饭,30.71633304310738,104.10535473516772,餐饮服务;中餐厅;特色/地方风味餐厅
兴正街酒楼,30.69207077629424,104.10772878205563,餐饮服务;中餐厅;中餐厅
辣妹子冷热锅串串,30.701377714537816,104.16505464733282,餐饮服务;中餐厅;特色/地方风味餐厅
铜锅鸡酒楼,30.758222287678485,104.13088109603649,餐饮服务;中餐厅;综合酒楼
银鸽湾,30.7271327476204,104.12425832667824,餐饮服务;中餐厅;中餐厅
鼎上烧(龙潭店),30.728016639494374,104.17754213764754,餐饮服务;中餐厅;中餐厅
兰州牛肉拉面(成宏路),30.697694090580192,104.16297993858863,餐饮服务;中餐厅;清真菜馆
三顾冒菜(东裕路),30.713449900508493,104.11591577145198,餐饮服务;中餐厅;中餐厅
胖仔双流冒节子肥肠粉,30.6882457770591,104.10844001242648,餐饮服务;中餐厅;中餐厅
六合稀饭庄(龙潭分店),30.70147901789619,104.17014177509628,餐饮服务;中餐厅;中餐厅
绝味老妈兔头,30.71817235455387,104.16380690623029,餐饮服务;中餐厅;中餐厅
黄姐饭店(蓉都大道天回路辅路),30.763645402442954,104.11265140052497,餐饮服务;中餐厅;中餐厅
重庆奇香鱼府,30.749820507663117,104.10941298682415,餐饮服务;中餐厅;四川菜(川菜)
泰香喽羊肉汤,30.703954242627816,104.10147821827235,餐饮服务;中餐厅;中餐厅
重庆饭庄(蓉都大道天回路辅路),30.74411926787405,104.1082729183491,餐饮服务;中餐厅;四川菜(川菜)
巴州特色牛肉面,30.71858697323281,104.10232042645467,餐饮服务;中餐厅;中餐厅
一碗香面馆,30.71336221587634,104.11617192130474,餐饮服务;中餐厅;中餐厅
正宗简阳羊肉汤,30.701970808951547,104.16769079431097,餐饮服务;中餐厅;中餐厅
甘姐肥肠粉,30.688588788352483,104.10793731690168,餐饮服务;中餐厅;中餐厅
小川饭店,30.713313152538337,104.16482169710189,餐饮服务;中餐厅;中餐厅
佳香菜餐饮休闲庄,30.76163787428762,104.12666718232373,餐饮服务;中餐厅;中餐厅
陈氏重庆烧鸡公,30.704822813350557,104.10080171714904,餐饮服务;中餐厅;中餐厅
大碗面(驷马桥路),30.6989202632275,104.1029649644463,餐饮服务;中餐厅;中餐厅
大碗面,30.761955629032272,104.14696185552741,餐饮服务;中餐厅;中餐厅
云南过桥米线(成宏路),30.69805145892691,104.16997872510697,餐饮服务;中餐厅;特色/地方风味餐厅
御公馆,30.756568723524875,104.1402647911942,餐饮服务;中餐厅;中餐厅
竹林盘(龙青路),30.721529247439474,104.1722501379672,餐饮服务;中餐厅;中餐厅
重庆小面(致强环街),30.70576753922764,104.1110651439598,餐饮服务;中餐厅;四川菜(川菜)
金牌卤肉面(向龙一路),30.68928980162233,104.15550184998193,餐饮服务;中餐厅;中餐厅
内江面(紫桐路),30.756609522974852,104.14470212847138,餐饮服务;中餐厅;中餐厅
李家庄(玉垒路),30.756047745299146,104.12359742791382,餐饮服务;中餐厅;中餐厅
巫山烤鱼(天回镇店),30.75005007175135,104.1090368948469,餐饮服务;中餐厅;中餐厅
刁记老火锅,30.71016649491928,104.16514939792187,餐饮服务;中餐厅;火锅店
香辣菜馆,30.698982865268277,104.10269982924967,餐饮服务;中餐厅;中餐厅
竹篱飘香,30.717815883261363,104.16662454977258,餐饮服务;中餐厅;中餐厅
安岳面坊,30.768244045080536,104.11443118363964,餐饮服务;中餐厅;中餐厅
宜宾燃面(中环路八里庄路段),30.6941836699618,104.10934504812384,餐饮服务;中餐厅;中餐厅
富顺豆花,30.707522622517143,104.16296637804491,餐饮服务;中餐厅;中餐厅
浪子冷锅鱼芋儿鸡(天回分店),30.767869372927755,104.11258685306649,餐饮服务;中餐厅;中餐厅
奇味虾广场,30.689844699047736,104.10626779516247,餐饮服务;中餐厅;中餐厅
唐记牛肉米线面,30.703550988270216,104.10628934952821,餐饮服务;中餐厅;中餐厅
陈二姐美食坊,30.7059210790733,104.1039662284456,餐饮服务;中餐厅;中餐厅
阿莲饭店,30.76858430153302,104.10722766267759,餐饮服务;中餐厅;中餐厅
老碗味道,30.77099502402314,104.10944005901013,餐饮服务;中餐厅;中餐厅
烤鱼道,30.76929978562167,104.1085451178351,餐饮服务;中餐厅;中餐厅
鼎味美蛙鱼头(保利198店),30.75807916886697,104.15291776816721,餐饮服务;中餐厅;中餐厅
翘脚牛肉,30.703287796884837,104.10480864929714,餐饮服务;中餐厅;火锅店
香辣厨家常菜,30.704556905012126,104.16482229130581,餐饮服务;中餐厅;中餐厅
老地方家常菜(天裕街),30.76975517977731,104.10859634267251,餐饮服务;中餐厅;中餐厅
胖哥老灶火锅,30.702646054373588,104.16496448740692,餐饮服务;中餐厅;火锅店
刘姐特色烧烤,30.689995948222194,104.10619450452464,餐饮服务;中餐厅;特色/地方风味餐厅
宜宾燃面(金科天籁城店),30.703201736694282,104.16362247069364,餐饮服务;中餐厅;特色/地方风味餐厅
一口香鹅肠火锅,30.751288922589023,104.10712344234555,餐饮服务;中餐厅;火锅店
乐山正宗烧烤王,30.75945012254165,104.14587737968881,餐饮服务;快餐厅;快餐厅
喜香缘干锅香家常菜,30.707138179742795,104.16252096164574,餐饮服务;中餐厅;中餐厅
酸菜鱼米线宜宾燃面(龙潭寺店),30.69801550647605,104.16930874998268,餐饮服务;中餐厅;特色/地方风味餐厅
真过瘾中式快餐,30.702811168709285,104.16306809236286,餐饮服务;中餐厅;中餐厅
中国兰州牛肉拉面(成宏路),30.698102181088252,104.16927359475343,餐饮服务;中餐厅;清真菜馆
闷墩火锅,30.713901706556136,104.16517787073788,餐饮服务;中餐厅;火锅店
鹅当家风味家常菜馆,30.76401913872501,104.11681288275416,餐饮服务;中餐厅;中餐厅
那年・遇见串串(美立方店),30.688785904278397,104.15518577842046,餐饮服务;中餐厅;特色/地方风味餐厅
新疆烤羊肉串,30.699773193148513,104.17047973501525,餐饮服务;中餐厅;特色/地方风味餐厅
资中兔儿面,30.697807857290464,104.16945812612848,餐饮服务;中餐厅;特色/地方风味餐厅
素花面,30.74576580841198,104.15293288205037,餐饮服务;中餐厅;中餐厅
唐记煌砂锅串串(二台子店),30.758782628280564,104.14652136142719,餐饮服务;中餐厅;中餐厅
王品巴山黄牛肉,30.70356508312437,104.10424513200604,餐饮服务;中餐厅;中餐厅
刘小厨手工水饺,30.76070919309736,104.14203626052287,餐饮服务;中餐厅;中餐厅
千百味中式快餐,30.700124864725062,104.16204661815402,餐饮服务;中餐厅;中餐厅
桥头香砂锅兔,30.71525569389805,104.16611101022166,餐饮服务;中餐厅;中餐厅
自贡餐馆(文德路),30.692657781427926,104.10699262804222,餐饮服务;中餐厅;中餐厅
钢管厂小郡肝串串香,30.720654914423797,104.10210476177724,餐饮服务;中餐厅;火锅店
武胜猪肝面(东大街),30.74838251107637,104.10835928824075,餐饮服务;中餐厅;中餐厅
张妈手撕烤兔,30.759313786888466,104.14648740991525,餐饮服务;中餐厅;中餐厅
苗苗面馆,30.747032535025813,104.15091726196185,餐饮服务;中餐厅;中餐厅
漫花庄园-花园餐厅,30.754935532098923,104.14614928143455,餐饮服务;中餐厅;中餐厅
蒸好吃(024乡道),30.757775305903003,104.15238171436947,餐饮服务;中餐厅;中餐厅
红房子美食休闲村,30.765596707456574,104.10394617091713,餐饮服务;中餐厅;中餐厅
HY韩国馆,30.759036357306485,104.1432211382999,餐饮服务;外国餐厅;韩国料理
重庆特色鸡汤铺盖面,30.689542407689565,104.10807253248586,餐饮服务;中餐厅;四川菜(川菜)
川味面馆(花城店),30.71956113297047,104.10936283322664,餐饮服务;中餐厅;中餐厅
成都特色小吃(成康路),30.699650195467242,104.16855383764157,餐饮服务;中餐厅;特色/地方风味餐厅
回味来川菜馆,30.704505392879422,104.10110226915695,餐饮服务;中餐厅;四川菜(川菜)
天下第一羊肉汤,30.76895336237794,104.1082369264098,餐饮服务;中餐厅;中餐厅
香牌火锅菜(龙潭店),30.701061026447302,104.16161797669818,餐饮服务;中餐厅;火锅店
奇味烧烤(天裕街),30.76948458713351,104.1084791999892,餐饮服务;中餐厅;特色/地方风味餐厅
火木烧烤,30.748230029013275,104.10874937186365,餐饮服务;中餐厅;特色/地方风味餐厅
舒心烫面蒸饺,30.751773595931105,104.10712935206459,餐饮服务;中餐厅;特色/地方风味餐厅
川渝特色面馆,30.71006978579853,104.1694077986951,餐饮服务;中餐厅;中餐厅
双流老字号冒节子肥肠粉,30.691521022058772,104.10435348295107,餐饮服务;中餐厅;中餐厅
谭记冒菜,30.68781918322213,104.10454245309782,餐饮服务;中餐厅;中餐厅
天香面馆,30.690805088460607,104.15513798533645,餐饮服务;中餐厅;中餐厅
渣渣面,30.733149741436286,104.10549289599622,餐饮服务;中餐厅;中餐厅
蹄花面砂锅饭,30.697816994206246,104.16931710177653,餐饮服务;中餐厅;中餐厅
周记面馆,30.71958743636057,104.16604420495341,餐饮服务;中餐厅;中餐厅
华林社区惠民食堂,30.687505842634984,104.13776193440951,餐饮服务;中餐厅;中餐厅
九龙锅魁王,30.709392295452684,104.16930683338688,餐饮服务;中餐厅;中餐厅
姊妹饭店,30.723936784923048,104.11805930375773,餐饮服务;中餐厅;中餐厅
怪味抄手(紫桐路),30.757194025696002,104.1443841136161,餐饮服务;中餐厅;特色/地方风味餐厅
烧烤印象(北湖店),30.719342435295353,104.16318634381163,餐饮服务;中餐厅;中餐厅
路路发饭店,30.741268272796216,104.12086053095236,餐饮服务;中餐厅;中餐厅
肥肠鸡杂特色面,30.689489344376142,104.11569033085199,餐饮服务;中餐厅;中餐厅
糍粑冰粉,30.719843246234603,104.10429299496055,餐饮服务;中餐厅;中餐厅
十里香南充小吃,30.762138645418258,104.11505726063751,餐饮服务;中餐厅;特色/地方风味餐厅
老号太婆饺子,30.707934204807245,104.10380799311692,餐饮服务;中餐厅;特色/地方风味餐厅
山珍九斗碗酒楼,30.69259882428779,104.17929108864335,餐饮服务;中餐厅;综合酒楼
佳味香椒卤肉面,30.75017402379214,104.10754072420465,餐饮服务;中餐厅;中餐厅
材火鸡,30.751040559812967,104.13299777528448,餐饮服务;中餐厅;中餐厅
瞧一瞧快餐配送中心,30.737219828796544,104.10392356222178,餐饮服务;中餐厅;中餐厅
灌汤米线,30.759389549785503,104.14300815825482,餐饮服务;中餐厅;中餐厅
真味快餐(民兴北二路),30.688855622276037,104.15485362447511,餐饮服务;中餐厅;中餐厅
乐山跷脚牛肉(荆翠中路),30.72058038654973,104.1023268763478,餐饮服务;中餐厅;中餐厅
刘记家常面馆(银杏园路),30.764210210629255,104.11648690771908,餐饮服务;中餐厅;中餐厅
优味,30.70280005756137,104.1631311149907,餐饮服务;快餐厅;快餐厅
宜宾燃面鱼米线(荆翠中路店),30.72035535185633,104.10185811334631,餐饮服务;中餐厅;中餐厅
迎客来快餐(隆兴路),30.707752289362784,104.16279100339007,餐饮服务;中餐厅;中餐厅
老坛酸菜鱼米线,30.69801550647605,104.16930874998268,餐饮服务;中餐厅;中餐厅
六妹宜宾燃面,30.705934643855304,104.16072778317849,餐饮服务;中餐厅;中餐厅
小蒙铜锅涮,30.7053798728812,104.16457592604546,餐饮服务;中餐厅;火锅店
重庆特色面馆,30.72352483766364,104.11763374243586,餐饮服务;中餐厅;四川菜(川菜)
唐大侠油焖虾,30.714970318789977,104.11011807396741,餐饮服务;中餐厅;特色/地方风味餐厅
重庆碗杂面,30.76175123739175,104.11202490325263,餐饮服务;中餐厅;四川菜(川菜)
云南过桥米线(石锅拌饭),30.69283016661293,104.17187726512456,餐饮服务;快餐厅;快餐厅
渣渣面(海滨堰街),30.764802072456487,104.10225574934296,餐饮服务;中餐厅;四川菜(川菜)
简阳一绝羊肉名汤(四娃店),30.76978563312524,104.10960045213018,餐饮服务;中餐厅;中餐厅
云南过桥米线(煲仔饭、鲜味煲),30.709138243474374,104.17000726682242,餐饮服务;快餐厅;快餐厅
金牌卤肉面馆,30.6876012344245,104.1049249029417,餐饮服务;中餐厅;中餐厅
开元米粉(东昌路),30.717900062401963,104.10206530688585,餐饮服务;中餐厅;中餐厅
馄饨王成都旗舰店,30.71974947314904,104.10882854278555,餐饮服务;中餐厅;中餐厅
谭氏烧鸡公,30.688580518298828,104.10836337235872,餐饮服务;中餐厅;中餐厅
绵阳米粉(东紫路),30.718864945846295,104.10565738307851,餐饮服务;中餐厅;中餐厅
口口香(龙港二路),30.705029971175772,104.16544955164552,餐饮服务;中餐厅;中餐厅
辣串串香,30.715605707703574,104.1051197163836,餐饮服务;中餐厅;中餐厅
春风满面(中环路二仙桥西路段),30.688210201121,104.1174379002498,餐饮服务;中餐厅;中餐厅
重庆麻辣面,30.691348234857387,104.10729908280065,餐饮服务;中餐厅;中餐厅
鲜滋味包点,30.69908366902394,104.10261464448223,餐饮服务;中餐厅;中餐厅
羊马正宗查渣面(火神庙南二路),30.709863404381554,104.16941411490116,餐饮服务;中餐厅;中餐厅
钟记原汤肥肠粉,30.705202668108914,104.17069257742384,餐饮服务;中餐厅;中餐厅
闽南特色小吃,30.72274817845275,104.11669457100811,餐饮服务;中餐厅;中餐厅
自贡荣县特色浑浆豆花,30.725284269526004,104.11892685828997,餐饮服务;中餐厅;中餐厅
实惠餐厅,30.688155015061362,104.10430579427205,餐饮服务;中餐厅;中餐厅
青龙廖记羊肉店,30.701891680624588,104.10872237472356,餐饮服务;中餐厅;中餐厅
蒸味包点(东荆路),30.71794520191113,104.11044203917398,餐饮服务;中餐厅;中餐厅
郑记面馆(老龙青路店),30.720343641734765,104.1376572718218,餐饮服务;中餐厅;中餐厅
好人饭店,30.696435479046865,104.12329022255952,餐饮服务;中餐厅;中餐厅
家常面(北大街),30.751332890224635,104.10731245163001,餐饮服务;快餐厅;快餐厅
百味干椒火锅鸡火锅兔,30.700828216734436,104.15971425524418,餐饮服务;中餐厅;中餐厅
海鲜大排档(东紫路),30.717965754016724,104.10550754921528,餐饮服务;中餐厅;中餐厅
口福来面馆,30.706351141681132,104.10184632966535,餐饮服务;中餐厅;中餐厅
吉顺面店,30.70762092578772,104.16374027026197,餐饮服务;中餐厅;中餐厅
新桥家常菜(蜀陵路),30.733134844140874,104.10717106770228,餐饮服务;中餐厅;中餐厅
家常园中餐,30.702645047519944,104.16496348904433,餐饮服务;中餐厅;中餐厅
乐山烧烤,30.71250115707656,104.11520709043471,餐饮服务;中餐厅;特色/地方风味餐厅
香街坊冒菜,30.710173395888088,104.16544840556946,餐饮服务;中餐厅;中餐厅
牛羊开胃粉,30.69032174200722,104.10163445893961,餐饮服务;快餐厅;快餐厅
大面小面(东紫路店),30.718223187021838,104.1056772250739,餐饮服务;中餐厅;中餐厅
肥肠粉,30.72228474848299,104.16328169183693,餐饮服务;中餐厅;中餐厅
大碗面生椒牛肉米线,30.720679913947553,104.1104875234142,餐饮服务;快餐厅;快餐厅
玫瑰苑餐厅(熊猫大道),30.739037866775995,104.14206862230722,餐饮服务;中餐厅;中餐厅
酸菜卤肉面,30.736642851328646,104.10581715932508,餐饮服务;中餐厅;中餐厅
升钟湖土菜馆,30.750022415024514,104.10627864116094,餐饮服务;中餐厅;中餐厅
舌尖好味,30.74924039413784,104.10768597669745,餐饮服务;中餐厅;中餐厅
馄钝面蒸饺王,30.757874162783047,104.15275574543583,餐饮服务;快餐厅;快餐厅
天特色牛肉面,30.74825113064005,104.1086263537608,餐饮服务;中餐厅;中餐厅
蒋记双流老妈兔头,30.749196198501973,104.10792201107374,餐饮服务;中餐厅;中餐厅
山城放心蒸饺王(东大街),30.748415623006796,104.1082592687457,餐饮服务;中餐厅;特色/地方风味餐厅
樊老三家常菜,30.76543473100774,104.11402706455972,餐饮服务;中餐厅;中餐厅
家常菜(天新路),30.7697575043933,104.10992846905162,餐饮服务;中餐厅;中餐厅
砣砣牛肉面,30.766517233749504,104.11338738847182,餐饮服务;中餐厅;中餐厅
成都动物园-小吃服务点,30.713472243272083,104.10327156404975,餐饮服务;中餐厅;中餐厅
生滚灌汤米线,30.757555043505015,104.1526977267175,餐饮服务;中餐厅;中餐厅
卤当家,30.74473155646687,104.15264629717163,餐饮服务;中餐厅;中餐厅
徽州包点(银杏路),30.75794568156343,104.14380710067489,餐饮服务;中餐厅;中餐厅
怡然盐h,30.76098730224674,104.1418182893176,餐饮服务;中餐厅;中餐厅
花椒兔,30.746905292380692,104.15087730456628,餐饮服务;中餐厅;中餐厅
内江胖哥炒菜,30.73555923760628,104.11117447500816,餐饮服务;中餐厅;中餐厅
回味餐家常炒菜馆,30.707706056397146,104.1626150655154,餐饮服务;中餐厅;中餐厅
小幸运夜宵,30.703212861098706,104.16353144641668,餐饮服务;中餐厅;中餐厅
素椒杂酱面(成宏路店),30.698091109999343,104.16924661274902,餐饮服务;中餐厅;中餐厅
隆江猪脚饭(成宏路),30.69800751708584,104.16915975546486,餐饮服务;中餐厅;中餐厅
重庆鸡汤铺盖面,30.691074490442634,104.10429330812242,餐饮服务;中餐厅;中餐厅
雅馨阁(华西雅筑南区东),30.68854369275358,104.13046538445809,餐饮服务;中餐厅;中餐厅
兄弟火锅串串,30.706218998598846,104.15791714128979,餐饮服务;中餐厅;火锅店
陈氏正宗简阳羊肉汤,30.764237218806183,104.1164439116312,餐饮服务;中餐厅;中餐厅
世福苑,30.764045879069304,104.11730293443927,餐饮服务;中餐厅;中餐厅
馄饨王牛肉面黄焖鸡米饭(华彩路店),30.69926636152343,104.17054662233963,餐饮服务;快餐厅;快餐厅
佳味烧烤(天裕街店),30.769601426425996,104.10850225867716,餐饮服务;中餐厅;特色/地方风味餐厅
林记牛肉面馄饨蒸饺大王,30.722542155823973,104.16323338094807,餐饮服务;快餐厅;快餐厅
家常面,30.710168648347235,104.16898762333149,餐饮服务;快餐厅;快餐厅
富顺饭店(蜀陵路),30.741528807899456,104.11929324639124,餐饮服务;中餐厅;中餐厅
乐山豆花饭,30.709922856157853,104.16930201731208,餐饮服务;中餐厅;中餐厅
手工擀面,30.76641230905847,104.10746579645969,餐饮服务;中餐厅;中餐厅
天天见面(龙潭寺店),30.71154268223567,104.17935811643171,餐饮服务;中餐厅;中餐厅
老泡特色面,30.687661891681188,104.13189317083952,餐饮服务;中餐厅;中餐厅
四季小吃,30.702028241134748,104.1034516444565,餐饮服务;中餐厅;中餐厅
全家福米线(成宏路),30.69802215757961,104.17014378638767,餐饮服务;中餐厅;中餐厅
玉兰点杀正宗土鸡,30.770869101273902,104.10965501198315,餐饮服务;快餐厅;快餐厅
K+6中式快餐(理工东苑西区北),30.687902142613023,104.14809995690474,餐饮服务;中餐厅;中餐厅
馄饨大王(成泰路店),30.70104737143201,104.16277107255067,餐饮服务;中餐厅;特色/地方风味餐厅
中江鲜面馆,30.687447028387943,104.13215459998759,餐饮服务;中餐厅;中餐厅
湾湾鲜兔头,30.718220783006842,104.10646830313016,餐饮服务;中餐厅;中餐厅
文记状状兔,30.713888166951765,104.1169702348902,餐饮服务;中餐厅;中餐厅
鑫鑫工友饭店,30.702704660600865,104.1086949952821,餐饮服务;中餐厅;中餐厅
巴蜀鱼头王,30.718043157616176,104.1056154569595,餐饮服务;中餐厅;中餐厅
新繁一绝特色豆瓣抄手(天新路),30.7706569219854,104.10863880441272,餐饮服务;中餐厅;中餐厅
锅儿匠家常菜(天裕街),30.765922996925507,104.10686456302378,餐饮服务;中餐厅;中餐厅
资中兔儿面手工苕粉,30.769269485601896,104.11912707464857,餐饮服务;中餐厅;中餐厅
泡椒牛肉面,30.759965370836195,104.14555541804192,餐饮服务;快餐厅;快餐厅
阿金卤面,30.688907317743993,104.10802272364491,餐饮服务;中餐厅;中餐厅
土门稀饭王,30.749049069193152,104.10766602776775,餐饮服务;中餐厅;中餐厅
回龙家宴点,30.74752106129857,104.15383929693563,餐饮服务;中餐厅;中餐厅
瑞鑫饭店(024乡道),30.75845969726733,104.1541488788113,餐饮服务;中餐厅;中餐厅
胖子稀饭庄,30.74918931176626,104.10767298947597,餐饮服务;中餐厅;中餐厅
天溢居川菜馆,30.765180611513518,104.11063166706852,餐饮服务;中餐厅;四川菜(川菜)
胡记老邻居特色鹅唇干锅,30.74880919784539,104.10854817917146,餐饮服务;中餐厅;火锅店
火锅米线,30.692115901264284,104.10404234993644,餐饮服务;中餐厅;火锅店
隆江猪脚饭,30.68978252621848,104.1097702395336,餐饮服务;中餐厅;中餐厅
青龙正街饭店(致祥路店),30.707854604063865,104.10391412890482,餐饮服务;中餐厅;中餐厅
重庆老味渝州砂锅串串,30.72142010537329,104.16315673267718,餐饮服务;中餐厅;火锅店
川普发饭庄,30.753942408085862,104.11464275199786,餐饮服务;中餐厅;四川菜(川菜)
菜菜庄(桃溪店),30.689336747873323,104.10808392035031,餐饮服务;中餐厅;中餐厅
开心小吃(成泰路),30.700982879665375,104.16280118516129,餐饮服务;中餐厅;中餐厅
自贡饭店(熊猫大道),30.726999149853178,104.12214528494611,餐饮服务;中餐厅;中餐厅
大邑肥肠血旺(龙潭路),30.71759168795385,104.16636083252537,餐饮服务;中餐厅;中餐厅
重庆小吃,30.701491545468187,104.16507145377963,餐饮服务;中餐厅;四川菜(川菜)
如意冒菜,30.733185529124263,104.1062079334243,餐饮服务;中餐厅;中餐厅
爱辣无忧食府,30.705374501420167,104.16526697696928,餐饮服务;中餐厅;四川菜(川菜)
乱冒乱好吃,30.766392464687836,104.10718976295011,餐饮服务;中餐厅;中餐厅
周记快餐(隆华路店),30.75823373161583,104.10221751353372,餐饮服务;中餐厅;中餐厅
食府家园,30.760105317074053,104.11388580158687,餐饮服务;中餐厅;中餐厅
早点・爱(保利店),30.756513437094366,104.14475113189312,餐饮服务;中餐厅;中餐厅
邱记宜宾燃面,30.68901211058111,104.10813153623174,餐饮服务;中餐厅;中餐厅
子约美食屋(龙潭寺店),30.707701142913496,104.1644331859399,餐饮服务;中餐厅;中餐厅
何老三冷锅串串(八里小区店),30.689993442572206,104.10302720790003,餐饮服务;中餐厅;特色/地方风味餐厅
渝府河鲜馆(二台子店),30.758098194190975,104.15288276687343,餐饮服务;中餐厅;中餐厅
串串牛杂火锅,30.720641817757834,104.10215178267127,餐饮服务;中餐厅;火锅店
蜀宅川西坝子老火锅,30.691918749945167,104.10526383133116,餐饮服务;中餐厅;火锅店
吉盛休闲山庄,30.72123782011681,104.14132944257736,餐饮服务;中餐厅;中餐厅
大众冒菜,30.76654622355313,104.11335939673717,餐饮服务;中餐厅;中餐厅
口磨面庄,30.75639006848447,104.14731932172583,餐饮服务;中餐厅;中餐厅
韩国纸上烤肉,30.71447246508504,104.11571028825611,餐饮服务;外国餐厅;外国餐厅
家常面馆,30.718981983238216,104.11101473263784,餐饮服务;快餐厅;快餐厅
滨滨大排档,30.688265828971325,104.10447860099846,餐饮服务;中餐厅;特色/地方风味餐厅
再来二两手工水饺,30.767940318482978,104.1085855096484,餐饮服务;中餐厅;特色/地方风味餐厅
炖蹄花,30.68811355261167,104.10457189811083,餐饮服务;快餐厅;快餐厅
高乐基(青龙店),30.70509126639231,104.10381056613042,餐饮服务;快餐厅;快餐厅
大竹面馆,30.73311833064889,104.1060619768511,餐饮服务;中餐厅;中餐厅
渣渣面肥肠粉,30.719525296783047,104.16356213252715,餐饮服务;快餐厅;快餐厅
大不同,30.691018757674172,104.1048944691874,餐饮服务;中餐厅;四川菜(川菜)
简阳羊肉汤,30.68781562993423,104.13506213400792,餐饮服务;中餐厅;中餐厅
豆花庄川菜馆,30.704806676498915,104.10084574794948,餐饮服务;中餐厅;四川菜(川菜)
查渣面肥肠面粉,30.720623149000172,104.101269720722,餐饮服务;中餐厅;中餐厅
双流冒节子肥肠粉(东荆路),30.708675837409174,104.10883730434855,餐饮服务;中餐厅;中餐厅
吴记肥肠粉(致顺路),30.703541620775358,104.10690642334866,餐饮服务;中餐厅;中餐厅
阳光饭店(火神庙西街),30.709994697993274,104.16442961637989,餐饮服务;中餐厅;中餐厅
刘家别苑,30.72162415725293,104.17349409137327,餐饮服务;中餐厅;中餐厅
重庆冷锅鱼(华康路),30.70056969311268,104.16513804034683,餐饮服务;中餐厅;四川菜(川菜)
相里乡亲,30.703097086481215,104.16339763226723,餐饮服务;中餐厅;中餐厅
绿叶面庄,30.707547747926316,104.16306534436355,餐饮服务;中餐厅;中餐厅
绝味砂锅串串,30.70693400560668,104.15788399019529,餐饮服务;中餐厅;中餐厅
三岔湖特色稀饭庄(八里店),30.68809538025179,104.10462493756835,餐饮服务;中餐厅;中餐厅
陈记馄饨大王(荆翠中路),30.720318078771378,104.10198517250672,餐饮服务;中餐厅;中餐厅
贵州米线,30.694950098697188,104.16273084627193,餐饮服务;快餐厅;快餐厅
军帅饭庄,30.727326202071733,104.12118085762319,餐饮服务;中餐厅;中餐厅
牛王庙老味面(华彩路店),30.699337892611766,104.17055949811788,餐饮服务;中餐厅;中餐厅
洪鑫冒菜馆,30.698214524029613,104.16824733649769,餐饮服务;中餐厅;中餐厅
成都市永跃芳华小吃店,30.760342916894967,104.114723911344,餐饮服务;中餐厅;中餐厅
玉苑・张家院子,30.719370624483915,104.11426252820813,餐饮服务;中餐厅;中餐厅
福缘聚家常菜,30.690534936250213,104.10688756075568,餐饮服务;中餐厅;中餐厅
何继卤菜店,30.768726803450637,104.11383534405442,餐饮服务;中餐厅;中餐厅
王家冒菜(医学院店),30.751567199896943,104.10735241078078,餐饮服务;中餐厅;中餐厅
玉苑家常菜,30.764806840797345,104.10270879479249,餐饮服务;中餐厅;中餐厅
明霞冷锅串串,30.758019802376968,104.15160467276185,餐饮服务;中餐厅;中餐厅
胖哥家常菜(明月中心村东),30.76798593911523,104.11320595971245,餐饮服务;中餐厅;中餐厅
口福餐馆(怡福巷),30.68754613036739,104.10420593913643,餐饮服务;中餐厅;中餐厅
香香小餐馆,30.76408617042785,104.11668689031407,餐饮服务;中餐厅;中餐厅
孔记焖锅饭,30.768584632189416,104.10855278823564,餐饮服务;中餐厅;中餐厅
聚友川菜馆(隆兴路),30.707132164159848,104.16246696785652,餐饮服务;中餐厅;四川菜(川菜)
刘三姐串串香,30.760296923321558,104.11470390293626,餐饮服务;中餐厅;火锅店
兴旺火锅串串香,30.720277349622332,104.13749234232644,餐饮服务;中餐厅;火锅店
天津灌汤包(东紫路),30.716288819803907,104.10526178694995,餐饮服务;中餐厅;特色/地方风味餐厅
十里香冒菜,30.68771373230956,104.1352173396032,餐饮服务;中餐厅;中餐厅
鲜之爽(隆兴路),30.70770615856543,104.16447218039607,餐饮服务;中餐厅;中餐厅
老渔翁片片鱼(土门店),30.74970414785472,104.1077568607086,餐饮服务;中餐厅;海鲜酒楼
川东饭店,30.730214053882882,104.10400440136291,餐饮服务;中餐厅;中餐厅
好口福快餐小炒,30.7294252758997,104.11052677635224,餐饮服务;中餐厅;中餐厅
许记家常便饭,30.758331856828022,104.15373784131513,餐饮服务;中餐厅;中餐厅
唐饺子,30.69801550647605,104.16930874998268,餐饮服务;中餐厅;特色/地方风味餐厅
杨记家常菜(青龙路店),30.70870627107331,104.10427782671835,餐饮服务;中餐厅;中餐厅
特色珍珠抄手,30.724038319581645,104.1180471860149,餐饮服务;快餐厅;快餐厅
鑫宏快餐,30.771048977553185,104.10937308168785,餐饮服务;中餐厅;中餐厅
乡村锅巴米饭(东荆路),30.714856890325514,104.10955218109348,餐饮服务;中餐厅;中餐厅
陈记真心包点,30.70531192394705,104.10363318810904,餐饮服务;中餐厅;中餐厅
崇州饭店,30.733088375469126,104.10773416042629,餐饮服务;中餐厅;中餐厅
天蚕土豆串串香,30.743521192364977,104.10540293003255,餐饮服务;中餐厅;中餐厅
重庆老麻抄手(024乡道),30.758026215648286,104.15078561524084,餐饮服务;中餐厅;中餐厅
随意小吃(驿站环路),30.75959621481905,104.14774353333179,餐饮服务;中餐厅;中餐厅
宜宾燃面(民兴北二路),30.688578390265363,104.15485814814119,餐饮服务;中餐厅;中餐厅
光明食店,30.755338978201323,104.13000499331916,餐饮服务;中餐厅;中餐厅
阿代烧烤,30.759839766997544,104.11490786040589,餐饮服务;中餐厅;特色/地方风味餐厅
又见面面馆(驷马桥路店),30.698837615382118,104.10301011376885,餐饮服务;中餐厅;中餐厅
老兵芋儿鸡鱼庄,30.688221574565617,104.10426166408055,餐饮服务;中餐厅;火锅店
自贡小吃(蜀陵路),30.733344821572675,104.10690586434066,餐饮服务;中餐厅;中餐厅
鲜椒鱼米线家常菜,30.697821859522755,104.1696761139231,餐饮服务;中餐厅;中餐厅
鑫盛川菜馆,30.748581273975496,104.10757315422651,餐饮服务;中餐厅;四川菜(川菜)
甜蜜满屋,30.71831524117618,104.16370271162221,餐饮服务;中餐厅;中餐厅
大山土鸡,30.754238916465848,104.12217839738196,餐饮服务;中餐厅;中餐厅
味道串串香(驿站环路),30.75966730032214,104.1475985311441,餐饮服务;中餐厅;火锅店
胡记水饺(师友路),30.69057844568463,104.10655044768902,餐饮服务;中餐厅;特色/地方风味餐厅
陈记馄饨大王(东荆路店),30.718469242985616,104.1105203554973,餐饮服务;中餐厅;特色/地方风味餐厅
陈记羊肉汤火锅,30.749047578599875,104.1086361195356,餐饮服务;中餐厅;火锅店
巧味包子,30.692391059697407,104.10409284582826,餐饮服务;中餐厅;中餐厅
天回家常菜,30.759983010711963,104.1124806561466,餐饮服务;中餐厅;中餐厅
好胃到鲜卤大排档,30.758026102296846,104.15101163125088,餐饮服务;中餐厅;中餐厅
重庆特色烧鸡公,30.76819946925938,104.11368609591445,餐饮服务;中餐厅;特色/地方风味餐厅
大河鱼庄(玉垒路),30.759448984958873,104.1242626443098,餐饮服务;中餐厅;海鲜酒楼
乐合园川菜馆,30.729127987993653,104.10436548797924,餐饮服务;中餐厅;四川菜(川菜)
珍珠抄手(驿站环路店),30.759809557403997,104.14713251442856,餐饮服务;中餐厅;特色/地方风味餐厅
食全酒美,30.714332569248437,104.11574649030646,餐饮服务;中餐厅;中餐厅
袁记幺哥串串香(二台子店),30.75963226001216,104.14766653194711,餐饮服务;中餐厅;火锅店
宜宾燃面(隆兴路店),30.70771402705531,104.16278906378203,餐饮服务;中餐厅;特色/地方风味餐厅
碗碗香面馆(天回镇店),30.76884734099868,104.1105090910562,餐饮服务;中餐厅;中餐厅
巴蜀崽火锅(龙潭店),30.70997101213272,104.16345559252409,餐饮服务;中餐厅;火锅店
正宗兰州牛肉拉面(蜀陵路),30.73315850039285,104.10604694117163,餐饮服务;中餐厅;清真菜馆
宜宾燃面(东荆路),30.718006558667785,104.11045295889265,餐饮服务;中餐厅;特色/地方风味餐厅
聂三耳鹅肠火锅(天裕街店),30.768701756427483,104.10804079270375,餐饮服务;中餐厅;火锅店
正宗简阳羊肉汤锅(蜀陵路),30.739934915752364,104.11758602843759,餐饮服务;中餐厅;中餐厅
宜宾燃面(新鸿路店),30.692727849691845,104.10383619967429,餐饮服务;中餐厅;中餐厅
宜宾燃面(龙港二路),30.705419777776406,104.16535790861101,餐饮服务;中餐厅;中餐厅
食全食美(024乡道),30.758028064515063,104.1510886368138,餐饮服务;中餐厅;中餐厅
王记宜宾特色燃面(龙潭店),30.698295911624164,104.17081634143443,餐饮服务;中餐厅;特色/地方风味餐厅
兄弟饭店(蜀陵路店),30.741360538316503,104.120863479089,餐饮服务;中餐厅;中餐厅
姐妹饭店(龙潭寺东路),30.711927895999484,104.16965801544357,餐饮服务;中餐厅;中餐厅
资中面,30.70773727559939,104.16260601556692,餐饮服务;中餐厅;特色/地方风味餐厅
白家肥肠粉(龙潭路),30.70768916173672,104.16215706352227,餐饮服务;中餐厅;中餐厅
金牌卤肉面(成宏路),30.697850778131837,104.17030609893007,餐饮服务;中餐厅;中餐厅
美味轩家常菜(华康路),30.700678509479918,104.16512085170436,餐饮服务;中餐厅;中餐厅
王婆香快餐店,30.707582093119836,104.1628412759488,餐饮服务;中餐厅;中餐厅
客家卤肉面,30.707646642447315,104.16262516018709,餐饮服务;中餐厅;中餐厅
石锅记,30.687887959335036,104.14824499419333,餐饮服务;中餐厅;四川菜(川菜)
轻食主义,30.716695289511158,104.11134980167542,餐饮服务;快餐厅;快餐厅
尊煌食府,30.705387850267478,104.10078478980911,餐饮服务;中餐厅;中餐厅
顿顿香牛杂火锅,30.70609923427367,104.15776032450309,餐饮服务;中餐厅;火锅店
何记六合特色小吃,30.69965018194612,104.1685818393028,餐饮服务;中餐厅;特色/地方风味餐厅
重庆万州杂酱面(火神庙路),30.71041117229677,104.1671081432972,餐饮服务;中餐厅;特色/地方风味餐厅
嘉州百味鸡,30.702253795654894,104.10366628230709,餐饮服务;快餐厅;快餐厅
大盖亮馄饨大王黄焖鸡米饭,30.705239367097263,104.11399927325816,餐饮服务;中餐厅;中餐厅
拾果果(八里庄店),30.690684860534063,104.10955352979852,餐饮服务;快餐厅;快餐厅
小厨私语,30.70296786419345,104.16398888581416,餐饮服务;中餐厅;中餐厅
吴记餐馆,30.69288026074879,104.11174765982027,餐饮服务;中餐厅;中餐厅
粤式轩(龙潭寺店),30.69784178531792,104.17014810579666,餐饮服务;中餐厅;中餐厅
东北人水饺,30.71287764513267,104.11508352783332,餐饮服务;中餐厅;中餐厅
福鑫家常菜(华泰路),30.70034330165611,104.16244526508656,餐饮服务;中餐厅;中餐厅
重庆豌杂刀削面(成宏路),30.698035313894895,104.17002575634984,餐饮服务;中餐厅;中餐厅
鸭萌萌冒菜,30.70063014798562,104.1651259353617,餐饮服务;中餐厅;中餐厅
迎辛村餐饮休闲庄,30.753372757228725,104.12864003834831,餐饮服务;中餐厅;中餐厅
李记正宗白家冒节子肥肠粉,30.69800957817962,104.16906474630002,餐饮服务;中餐厅;中餐厅
好口福冒菜,30.698104928784606,104.16984462290195,餐饮服务;中餐厅;中餐厅
实惠冒菜,30.70755376182245,104.16312233837577,餐饮服务;中餐厅;中餐厅
乐山烧烤(鹤林J线店),30.710591785750044,104.16625081786182,餐饮服务;中餐厅;特色/地方风味餐厅
绵阳米粉(荆竹中路店),30.718121283900267,104.10223603044494,餐饮服务;中餐厅;中餐厅
黄记酸菜卤肉面(天新路),30.769973302798906,104.1097625603954,餐饮服务;中餐厅;中餐厅
美味家常菜(鹤林J线店),30.710429449364046,104.16884921818557,餐饮服务;中餐厅;中餐厅
成都醉美小龙虾,30.718583297048585,104.10567575209654,餐饮服务;中餐厅;中餐厅
潮客美食,30.752267301702688,104.10702425864235,餐饮服务;中餐厅;潮州菜
胡记三倒拐家常菜,30.699065671752376,104.1709239948888,餐饮服务;中餐厅;中餐厅
卿江烧鹅,30.765020286959697,104.11147469404848,餐饮服务;中餐厅;中餐厅
五八筒四川麻辣烫,30.692089156017996,104.15960589292818,餐饮服务;快餐厅;快餐厅
静居雅舍,30.763646465398555,104.13834460040262,餐饮服务;快餐厅;茶餐厅
重庆福聚堂老火锅(总店),30.74917315980871,104.10791901713347,餐饮服务;中餐厅;火锅店
江湖川菜馆(成都机车厂生活小区东北),30.69217663646253,104.13486794416511,餐饮服务;中餐厅;四川菜(川菜)
红都鲜兔火锅(天回店),30.757934376340586,104.12450354058264,餐饮服务;中餐厅;火锅店
范记真情味串串香(八里店),30.691878437681513,104.10524690445716,餐饮服务;中餐厅;中餐厅
炊二哥(文德店),30.69252867645694,104.10716588258143,餐饮服务;中餐厅;火锅店
杨氏三姐羊肉汤,30.698106003975376,104.17388684814202,餐饮服务;中餐厅;中餐厅
大草原牛杂火锅,30.700599291665043,104.1706013114428,餐饮服务;中餐厅;中餐厅
代冒冒冒菜馆(东林店),30.718030711465644,104.11043192497308,餐饮服务;中餐厅;中餐厅
大凉山小院烧烤,30.71774131138902,104.12403152273238,餐饮服务;中餐厅;特色/地方风味餐厅
万家灯火炭烧鸽子,30.691623573221335,104.10490734513786,餐饮服务;中餐厅;特色/地方风味餐厅
