name,lat,lng,type
服务区成都城北出口高速公路有限公司,30.741978001180907,104.15750597687207,公司企业;公司;公司
中国石化,30.759590835883696,104.104773882488,公司企业;公司;公司
远峰科技发展有限公司,30.689927547097504,104.17102961458886,公司企业;公司;网络科技
利尔化学股份有限公司,30.689252186539886,104.17939133356724,公司企业;公司;公司
四川欧亚,30.690066915175457,104.16627207547964,公司企业;公司;公司
日丽风和,30.688813632434147,104.17101070915501,公司企业;公司;公司
成都市桃李食品有限公司,30.6960981776726,104.16232274725981,公司企业;公司;公司
成都成发(集团)物资有限公司,30.688732439098434,104.17004080700637,公司企业;公司;公司
四川建辉,30.753844330256307,104.1026846377369,公司企业;公司;公司
成都旭光电子股份有限公司电器厂,30.76668226686108,104.11700978049788,公司企业;工厂;工厂
福建华亚集团(裕和路),30.688334561727707,104.17782298455785,公司企业;公司;公司
成都焊研科技有限责任公司,30.69260921807852,104.16390320269565,公司企业;公司;公司
四川磨床厂,30.741882975144787,104.10699392441872,公司企业;工厂;工厂
国莎实业,30.69284248602608,104.17351333338542,公司企业;公司;公司
南光,30.695312863193404,104.16283619563366,公司企业;公司;公司
四川华气环境技术有限公司,30.689132983008612,104.1778014763392,公司企业;公司;公司
成都赛英科技有限公司,30.688465753790954,104.1775327213932,公司企业;公司;网络科技
成都易弘科技实业有限公司,30.690894026523043,104.17994428470841,公司企业;公司;网络科技
成都航天通信设备有限责任公司,30.693102989474333,104.16414530807995,公司企业;公司;电信公司
四川法斯特机械制造有限责任公司,30.756712672363243,104.10279051431857,公司企业;公司;机械电子
成都飞创科技有限公司,30.696904959673706,104.17994830031053,公司企业;公司;网络科技
上海依相燃气设备有限公司,30.689606872188516,104.17760157438295,公司企业;公司;公司
海鸿电子,30.688304186448676,104.16963659299303,公司企业;公司;机械电子
新概念印务,30.689875655370493,104.16992564885929,公司企业;公司;公司
四川亚细亚运业,30.717505377726006,104.16185567006029,公司企业;公司;公司
服务区成都城北出口高速公路有限公司,30.741978001180907,104.15750597687207,公司企业;公司;公司
中国石化,30.759590835883696,104.104773882488,公司企业;公司;公司
远峰科技发展有限公司,30.689927547097504,104.17102961458886,公司企业;公司;网络科技
利尔化学股份有限公司,30.689252186539886,104.17939133356724,公司企业;公司;公司
四川欧亚,30.690066915175457,104.16627207547964,公司企业;公司;公司
日丽风和,30.688813632434147,104.17101070915501,公司企业;公司;公司
成都市桃李食品有限公司,30.6960981776726,104.16232274725981,公司企业;公司;公司
成都成发(集团)物资有限公司,30.688732439098434,104.17004080700637,公司企业;公司;公司
四川建辉,30.753844330256307,104.1026846377369,公司企业;公司;公司
成都旭光电子股份有限公司电器厂,30.76668226686108,104.11700978049788,公司企业;工厂;工厂
福建华亚集团(裕和路),30.688334561727707,104.17782298455785,公司企业;公司;公司
成都焊研科技有限责任公司,30.69260921807852,104.16390320269565,公司企业;公司;公司
四川磨床厂,30.741882975144787,104.10699392441872,公司企业;工厂;工厂
国莎实业,30.69284248602608,104.17351333338542,公司企业;公司;公司
南光,30.695312863193404,104.16283619563366,公司企业;公司;公司
四川华气环境技术有限公司,30.689132983008612,104.1778014763392,公司企业;公司;公司
成都赛英科技有限公司,30.688465753790954,104.1775327213932,公司企业;公司;网络科技
成都易弘科技实业有限公司,30.690894026523043,104.17994428470841,公司企业;公司;网络科技
成都航天通信设备有限责任公司,30.693102989474333,104.16414530807995,公司企业;公司;电信公司
四川法斯特机械制造有限责任公司,30.756712672363243,104.10279051431857,公司企业;公司;机械电子
成都飞创科技有限公司,30.696904959673706,104.17994830031053,公司企业;公司;网络科技
上海依相燃气设备有限公司,30.689606872188516,104.17760157438295,公司企业;公司;公司
海鸿电子,30.688304186448676,104.16963659299303,公司企业;公司;机械电子
新概念印务,30.689875655370493,104.16992564885929,公司企业;公司;公司
四川亚细亚运业,30.717505377726006,104.16185567006029,公司企业;公司;公司
红泰家私,30.737457283160083,104.10266027275176,公司企业;公司;公司
成都微精电机股份公司,30.691938289807414,104.16102026291153,公司企业;公司;机械电子
四川爱得机电设备公司,30.689828786141597,104.17730614224368,公司企业;公司;机械电子
诚锦钢结构有限公司,30.754514033728924,104.10261757232546,公司企业;公司;公司
四川新华印刷有限责任公司,30.69730851940339,104.16638983188078,公司企业;公司;公司
众合总部,30.69286676530518,104.16912004020041,公司企业;公司;公司
成都东康运输有限公司,30.70208224370074,104.13733951241579,公司企业;公司;公司
成都金祥龙实业有限公司,30.687559913029876,104.16809991395179,公司企业;公司;公司
西南铁路物资有限公司,30.68906072655206,104.12653808221356,公司企业;公司;公司
福立盟,30.689379056812797,104.17758500183898,公司企业;公司;公司
成都特种门厂,30.695966603506474,104.11549537898114,公司企业;工厂;工厂
四川省建筑机械化工程公司(二仙桥西一巷),30.688996910742503,104.11038877474098,公司企业;公司;建筑公司
四川锦宇装备有限公司,30.69614597393565,104.15933447105232,公司企业;公司;公司
成都龙潭裕都实业有限公司,30.691720870016724,104.17934071580541,公司企业;公司;公司
成都市美诗特机电有限公司,30.695016570822734,104.11894140243407,公司企业;公司;机械电子
洪奎科技,30.695440826036002,104.17547669790113,公司企业;公司;网络科技
成都市将军碑建筑模板有限公司,30.7042453195892,104.17802455220539,公司企业;公司;公司
成都探矿机械厂(兴川路),30.75878018076471,104.10567088695035,公司企业;工厂;工厂
成都卡莫健身服务有限公司,30.699989507067116,104.16276989817673,公司企业;公司;公司
成都市种畜场,30.738938314678286,104.12448926361077,公司企业;农林牧渔基地;其它农林牧渔基地
成都桂湖置业集团,30.689584643264634,104.17982373016565,公司企业;公司;公司
苏米亚,30.706654821243383,104.11098270336221,公司企业;公司;公司
成都蜀光包装有限公司,30.75637362930125,104.11037423460066,公司企业;公司;公司
四川宝耳实业有限公司,30.696133872540425,104.1593514939006,公司企业;公司;公司
成都利尔药业有限公司,30.746432927164268,104.1096910787266,公司企业;公司;公司
成都中超碳素科技有限公司,30.739373928370952,104.11604724073166,公司企业;公司;公司
成都蜀香食品有限公司,30.751595130095467,104.1055822374352,公司企业;公司;公司
成都牧星禽业有限责任公司,30.737245241324505,104.12729765409912,公司企业;公司;公司
四川省邮电器材总公司,30.694118832535104,104.10794803616946,公司企业;公司;网络科技
成都龙腾科技有限公司,30.689359944427842,104.1648243154714,公司企业;公司;网络科技
成都市城北市政工程有限公司,30.706794110862134,104.10828122901869,公司企业;公司;公司
成都科尔药业有限公司,30.74674872562428,104.11342130637314,公司企业;公司;医药公司
成都生中利商贸有限公司,30.690919258521582,104.1251974841195,公司企业;公司;商业贸易
四川太格尔,30.689530318808533,104.17747671174159,公司企业;公司;公司
四川金域医学检验中心,30.690792740441292,104.16408558511529,公司企业;公司;公司
中铁电气化局集团,30.69121570305224,104.17968667228959,公司企业;公司;冶金化工
四川蜀能电力有限公司(成济路),30.6908244361032,104.16736572405786,公司企业;公司;公司
泽宇生科技,30.689043170666345,104.17799665568947,公司企业;公司;网络科技
尚源健康管理有限公司,30.704049786377333,104.17622078153323,公司企业;公司;公司
成都科微科技有限公司,30.687794173580667,104.15463661751065,公司企业;公司;网络科技
成都国光电子仪表有限责任公司,30.68972159141003,104.17802038065796,公司企业;公司;机械电子
成都三是科技有限公司,30.696698409903814,104.17359333442162,公司企业;公司;网络科技
中国电信股份有限公司龙潭分局,30.709471902812325,104.16296732887747,公司企业;公司;电信公司
成都升美天天广告,30.729568565122264,104.10923651671263,公司企业;公司;广告装饰|生活服务;生活服务场所;生活服务场所
成都香溢数码喷绘有限公司,30.68931049646895,104.12494047658315,公司企业;公司;公司
成都义丰泰实业有限公司,30.696904959673706,104.17994830031053,公司企业;公司;公司
成都三兴,30.752444396355433,104.10331387617923,公司企业;公司;公司
成都金万泰科技有限公司,30.688207543007355,104.17781622452468,公司企业;公司;网络科技
翱翔教育集团,30.689885423774847,104.17691501545181,公司企业;公司;公司
德仁堂中药分公司,30.694748153978,104.16142013054767,公司企业;公司;医药公司
四川中卫北斗科技有限公司,30.69777085738388,104.17933272887561,公司企业;公司;公司
康华药业有限公司包装生产基地,30.753212307727512,104.10135357963253,公司企业;公司;医药公司
四川广电网络有限公司,30.694365168398264,104.10294211243885,公司企业;公司;公司
锦绣前程图书有限公司,30.68838411184631,104.17115452863806,公司企业;公司;公司
秉承科技,30.690928255474716,104.14633613818816,公司企业;公司;公司
塑钢机器,30.728125326726694,104.10841987717218,公司企业;公司;公司
港威金属,30.705867290649895,104.17498273319416,公司企业;公司;公司
鑫丽玻璃,30.702582563424105,104.10087045712349,公司企业;公司;公司
锋宜刀具,30.68831673105859,104.1686985148192,公司企业;公司;公司
莱普帝斯,30.726579583681403,104.10908855312127,公司企业;公司;公司
吉翔・众益饰面板,30.723420508273925,104.1111222730127,公司企业;公司;公司
成都兴顺风塑胶有限公司(兴顺路),30.754933339027364,104.10475875029451,公司企业;公司;公司
涌邦资本,30.688720513607255,104.17814027171603,公司企业;公司;公司
四川得圆岩土工程有限责任公司,30.691670229734687,104.17984583539189,公司企业;公司;公司
四川成发普睿玛机械工业制造有限责任公司,30.75671267185831,104.10279151441536,公司企业;公司;机械电子
巨峰石化,30.704992424415956,104.15981226070193,公司企业;公司;公司
成都港泰实业有限公司,30.737457283160083,104.10266027275176,公司企业;公司;公司
晨升项目管理有限公司,30.695081349175894,104.17483131371435,公司企业;公司;公司
四川省盐业总公司八里庄支公司,30.69740487286816,104.10471580787062,公司企业;公司;公司
成都兴华申铸造有限公司(兴顺路),30.7548189209191,104.10340162686303,公司企业;公司;公司
英辉电器,30.757110130595912,104.10234747730519,公司企业;公司;公司
成都沃冉特,30.690137109336707,104.16704499013642,公司企业;公司;公司
四川欧府电器有限公司,30.726742602881718,104.11065352489953,公司企业;公司;公司
成都巨龙木业有限公司,30.738917246107544,104.10848883885294,公司企业;公司;公司
龙潭建筑,30.69674624541899,104.15169488214255,公司企业;公司;建筑公司
成都致力微波科技有限公司,30.688773425857544,104.17076477104582,公司企业;公司;网络科技
成都拓峰国际贸易有限公司,30.690685510796136,104.17964365868075,公司企业;公司;商业贸易
成都中天倍得科技有限公司,30.688400763659498,104.17005943468467,公司企业;公司;网络科技
远成集团成都投资有限公司,30.68906355644647,104.16907112648681,公司企业;公司;公司|金融保险服务;金融保险服务机构;金融保险机构
成都春意地暖公司,30.756639552886398,104.1446801269737,公司企业;公司;公司
保利物业,30.755368687869016,104.14457714283215,公司企业;公司;公司
郫县马可视觉广告设计中心,30.695703814981204,104.15880323261473,公司企业;公司;公司
四川三德餐饮管理有限公司,30.697386675289295,104.1735891067324,公司企业;公司;公司
出售河沙石子大小厂水泥,30.719013610769487,104.1243278769446,公司企业;公司;公司
阆润广告,30.717885097626272,104.10181430251686,公司企业;公司;广告装饰
成都龙潭裕都总部城,30.693042065347623,104.17559607904666,公司企业;公司;公司
千智广告传媒,30.72726542764199,104.11812065137971,公司企业;公司;广告装饰
成都森绅酒店用品有限公司,30.696904959673706,104.17994830031053,公司企业;公司;公司
成都金顿印章有限公司,30.69217266967757,104.10546538016189,公司企业;公司;公司
成都安居苑住人集装箱,30.727409797547658,104.17749376093349,公司企业;公司;公司
宝石机械成都装备制造公司,30.68787088914751,104.11653046202484,公司企业;公司;机械电子
安基陶瓷仓库,30.72107476071524,104.12134000912856,公司企业;公司;公司
四川远成运输有限公司,30.688929616269444,104.16878636240074,公司企业;公司;公司
成都市佳典美电器有限公司,30.75258121399647,104.10401492308213,公司企业;公司;公司|购物服务;家电电子卖场;家电电子卖场
四川诚冶贸易有限公司,30.70575979572425,104.17444087826897,公司企业;公司;商业贸易
中建地下空间有限公司,30.693692774219684,104.17642292874278,公司企业;公司;公司
兴蜀仓库,30.69156442966499,104.14609393642642,公司企业;公司;公司
四川萧氏公司,30.695754290970036,104.17538712729711,公司企业;公司;公司
龙武集团总部,30.69502482254819,104.17501642618397,公司企业;公司;公司
广东来德利陶瓷,30.73291003586148,104.1290552069335,公司企业;公司;公司
冠军美陶磁砖,30.732917064409637,104.12905520088849,公司企业;公司;公司
成都铁路局成都动车段,30.698978597213458,104.12390976658327,公司企业;公司;公司
成铁电化段材料库,30.69787422159066,104.1176621668048,公司企业;公司;公司
康拓兴业,30.688334575631593,104.17144563878514,公司企业;公司;公司
成都宏川印务有限责任公司,30.754627863202355,104.10118542488019,公司企业;公司;公司
国光电子,30.688329535065897,104.17144564831956,公司企业;公司;机械电子
六合建材仓储,30.729795361527323,104.12578677408787,公司企业;公司;公司
鼎立陶瓷,30.73080858763943,104.12627185514008,公司企业;公司;公司
蜀龙墙纸16号库,30.69184229899543,104.12374364340876,公司企业;公司;公司
欧帝诗壁纸,30.69183726283018,104.12373565206309,公司企业;公司;公司
一揽芳华装饰建材有限公司,30.71467533221847,104.11245470527828,公司企业;公司;公司
成都锦轩机械有限公司,30.754154763207946,104.11238052491233,公司企业;公司;机械电子
郑州一帆机械,30.761709775788106,104.11493416229926,公司企业;公司;机械电子
美惠库房,30.722756690494787,104.11979883660818,公司企业;公司;公司
角斗士仓库,30.723087404219,104.12394980684462,公司企业;公司;公司
宏泰建材瓷砖批发仓储,30.722755685112126,104.11979883780103,公司企业;公司;公司
鼎香坊商贸有限公司,30.718824905313344,104.1133831540113,公司企业;公司;商业贸易
科雷机器人,30.687607902556074,104.16894187209756,公司企业;公司;公司
成实仓库,30.70593494312011,104.17668971474197,公司企业;公司;公司
四川睿明建材有限公司,30.703633178763727,104.14636358489612,公司企业;公司;公司
瑞兴集团,30.68866466527655,104.17898642066282,公司企业;公司;公司
松达电焊接,30.687615035750454,104.16878184923809,公司企业;公司;公司
成都三方电气有限公司,30.692443293504088,104.16519858826967,公司企业;公司;机械电子
锦鑫仓储(华翰路),30.700751649631083,104.17429725514938,公司企业;公司;公司
万事达,30.688456476993824,104.11683638081644,公司企业;公司;公司
恒丰仓库,30.688456476993824,104.11683638081644,公司企业;公司;公司
成都中车电机有限公司,30.693625390159273,104.1362693874027,公司企业;公司;机械电子
国光气体,30.695854311666153,104.15182949229029,公司企业;公司;公司
金蒙龙盛,30.70385824503363,104.17240889194075,公司企业;公司;公司
成都艾德特实业,30.689195435373048,104.177903364006,公司企业;公司;公司
东联升,30.700751649631083,104.17429725514938,公司企业;公司;公司
悦声纸业,30.697877263968067,104.15508810216306,公司企业;公司;公司
安顺纸业有限公司,30.692371377608865,104.14702550902047,公司企业;公司;公司
虹盛钨钼,30.689314530811654,104.12493646864942,公司企业;公司;公司
卡诺普机器人有限公司,30.687613949478887,104.16894586085284,公司企业;公司;公司
福莫斯・智能,30.690137109336707,104.16704499013642,公司企业;公司;公司
中国航发动科科能,30.690152356292003,104.17733453704301,公司企业;公司;公司
新明珠集团,30.720352441259053,104.13003364774642,公司企业;公司;公司
爱雪仓库,30.688512914541878,104.11687427752837,公司企业;公司;公司
商鼎仓库,30.68851392219981,104.11687527571318,公司企业;公司;公司
豪萨建材3号库,30.729496471225353,104.12890532615194,公司企业;公司;公司
四维瓷业仓库,30.727458719926467,104.12545108781671,公司企业;公司;公司
成华区社会组织孵化园,30.687989304463184,104.12607606784509,公司企业;公司;公司
寰宇广告(中环路二仙桥西路段),30.68943688346672,104.1157724368811,公司企业;公司;广告装饰|生活服务;生活服务场所;生活服务场所
中国铁建中铁二十四局,30.68807940375728,104.17804447895307,公司企业;公司;公司
中国电信天回镇分局,30.76989896114585,104.10865441916997,公司企业;公司;电信公司
申丰玻璃,30.691970499488747,104.18006728969107,公司企业;公司;公司
万德集团(成济路),30.68959626958986,104.16391281523153,公司企业;公司;公司
华翰集团,30.695544034108572,104.17461646505122,公司企业;公司;公司
呈祥总部基地,30.697647404318683,104.17203555740318,公司企业;公司;公司
德格隆加工库,30.707355888805367,104.17865953654632,公司企业;公司;公司
鑫创业印务,30.732025587885946,104.12664677884145,公司企业;公司;公司
时新广告材料,30.73035393583061,104.10950078813124,购物服务;家居建材市场;建材五金市场|公司企业;公司;公司
廊坊红旗建材公司仓库,30.740381014321613,104.1181188053776,公司企业;公司;公司
辰兴商务,30.688047452050718,104.1015657352063,公司企业;公司;公司
成都华普,30.688329538879074,104.17143764786061,公司企业;公司;公司
成都廖氏,30.75398063072795,104.11229253281492,公司企业;公司;公司
川恒集团,30.69078985623958,104.17855540834182,公司企业;公司;公司
恒远西诺,30.688331551292276,104.17144564450577,公司企业;公司;公司
东升仓库,30.742257328375718,104.11635258742521,公司企业;公司;公司
世纪嘉创加工库,30.707363944426262,104.17865952373995,公司企业;公司;公司
家商集团,30.721182469368724,104.10086398696636,公司企业;公司;公司
成都中哈贸易有限公司,30.689239336067434,104.17885733051996,公司企业;公司;公司
锦鑫仓储,30.760484054031448,104.1025777889219,公司企业;公司;公司
福玛科技,30.760484054031448,104.1025777889219,公司企业;公司;公司
成都晟欣化工有限公司,30.750153919557107,104.10172517179933,公司企业;公司;冶金化工
中储天一五冶仓库,30.763764928793822,104.10556376669184,公司企业;公司;公司
成都晟宝商贸有限公司,30.751174074616497,104.1045072158578,公司企业;公司;公司
昶达仓库,30.7499448776061,104.10113716541977,公司企业;公司;公司
中国中铁二局,30.760616487219878,104.11163966851228,公司企业;公司;公司
成都智慧海派科技有限公司,30.69469005022276,104.16278632199031,公司企业;公司;公司
四川大漠科贸有限公司,30.759550548356202,104.10929230655022,公司企业;公司;公司
谷地公社物业服务中心,30.75587586910263,104.13105806244079,公司企业;公司;公司
成都玉山建材有限公司,30.72732116673196,104.10910877143243,公司企业;公司;公司
齐力建材仓库,30.75898403499814,104.10806113204028,公司企业;公司;公司
海都印品,30.757269360303003,104.10206545396946,公司企业;公司;公司
成都供水,30.765157289832366,104.1132809049412,公司企业;公司;公司
成都庆军科技有限公司,30.765243494652697,104.11276488540892,公司企业;公司;公司
成启起重,30.75725928775932,104.1021984665987,公司企业;公司;公司
凯雅特软包壁纸,30.757724285692863,104.12449552943255,公司企业;公司;公司
森源木业,30.723497268343714,104.11242530349172,公司企业;公司;公司
成都铁路局成都供电段,30.70056541943099,104.10133994595482,公司企业;公司;公司
成都铁路局成都工务段,30.700646967966964,104.10146381728056,公司企业;公司;公司
成都腾鑫,30.72776271747565,104.10821422950735,公司企业;公司;公司
科瑞得集团,30.691157557646914,104.17901974663836,公司企业;公司;公司
成都道合建材有限公司,30.72581353217906,104.12375869736532,公司企业;公司;公司
鑫升木业,30.724283859129244,104.11144730735968,公司企业;公司;公司
森尼陶瓷库房,30.733465267598085,104.12906073507452,公司企业;公司;公司
浩风电商,30.70325373070233,104.10649486607632,公司企业;公司;公司
古韵轩,30.727579849282755,104.1041860369486,公司企业;公司;公司
创新微波,30.69150418631576,104.16873353869751,公司企业;公司;公司
四川升晖实业,30.70487536870473,104.17479434204628,公司企业;公司;公司
四川中拓钢铁,30.705059663764768,104.17482304124539,公司企业;公司;公司
华南集团,30.7049400291524,104.17437721322547,公司企业;公司;公司
四川鑫航通,30.704516066518615,104.17425990446485,公司企业;公司;公司
四川拓睿建材有限公司,30.703840742151407,104.14622622915591,公司企业;公司;公司
科腾棉业仓库,30.71914766479902,104.16656480142824,公司企业;公司;公司
海滨仓库美美棉公司,30.697579272944754,104.12118499969888,公司企业;公司;公司
成都浩生钢铁有限公司,30.691329889988697,104.11398373399213,公司企业;公司;公司
榕盛达公司,30.705253453660657,104.17395867699312,公司企业;公司;公司
中坚监测,30.690559497357484,104.17966589522356,公司企业;公司;公司
名陶建材仓库,30.729252078204638,104.12545027420292,公司企业;公司;公司
新瓷汇西南营运总部,30.726612491103676,104.12978134297352,公司企业;公司;公司
成都圣达美公司,30.71724576578787,104.10085506405095,公司企业;公司;公司
长鑫创越公司,30.688675241618103,104.1631485028795,公司企业;公司;公司
闽新商贸有限公司,30.705155338266003,104.17275577109511,公司企业;公司;公司
宏御实业,30.691771075725548,104.17974464313629,公司企业;公司;公司
千程致远实业,30.69144266657724,104.17934123255223,公司企业;公司;公司
成都成华公司,30.69404491533268,104.1024056452748,公司企业;公司;公司
中通华林公司,30.69217685647765,104.1155833069062,公司企业;公司;公司
龙潭街道公司,30.68883669416848,104.17127168043315,公司企业;公司;公司
航谭公司,30.704881982188354,104.17361826698301,公司企业;公司;公司
成都滨智科技有限公司,30.720411777509614,104.10973978968882,公司企业;公司;公司
众力旺商贸有限公司,30.705984370748407,104.17444851447637,公司企业;公司;公司
成都化恩科技有限公司,30.696469522940372,104.15921188247334,公司企业;公司;公司
恒顺隆贸易有限公司,30.704015058270087,104.17513778118271,公司企业;公司;公司
成都优拓商贸有限公司,30.70499891424448,104.17340806349986,公司企业;公司;公司
瑞久物资公司,30.704468887078487,104.17393296445323,公司企业;公司;公司
四川煤矿基本建设公司,30.696904959193002,104.17994930036181,公司企业;公司;公司
光年轮公司,30.68881363434192,104.17100670892435,公司企业;公司;公司
锦汇饮品青龙场营运部,30.71935985181917,104.11773485423022,公司企业;公司;公司
成都市燃料公司,30.69853861046144,104.1024645868886,公司企业;公司;公司
成都羿航科技有限公司,30.688680744084824,104.17063193843175,公司企业;公司;公司
成都雅悦贸易有限公司,30.689771172476128,104.15863515229948,公司企业;公司;公司
柯世达集团,30.689771172476128,104.15863515229948,公司企业;公司;公司
海崴公司,30.689704175958138,104.16593273560537,公司企业;公司;公司
四川旺嘉门业有限公司,30.73037395042149,104.1297725561155,公司企业;公司;公司
中国航天科工,30.693914003449674,104.162769735785,公司企业;公司;公司
四川联创数控,30.707313786196632,104.16584888666083,公司企业;公司;公司
励志义合公司,30.704169954511894,104.1735054353437,公司企业;公司;公司
中国中材四川总队,30.692125221773406,104.168481372171,公司企业;公司;公司
熊运装饰有限公司,30.69240146988807,104.10549495987601,公司企业;公司;公司
艾依晾衣架成都总部,30.72464066686254,104.1236339892884,公司企业;公司;公司
成都华量科技有限公司,30.68909603146919,104.16861803889786,公司企业;公司;公司
龙威仓储(华翰路),30.700782678246473,104.17471722456335,公司企业;公司;公司
RBC仓库,30.720458923926625,104.14450564912802,公司企业;公司;公司
米龙公司,30.695909646769056,104.17715494123935,公司企业;公司;公司
成都朝日华日化公司,30.731886265986684,104.10201666653617,公司企业;公司;公司
成都卓弘原,30.703848778013874,104.17323795374482,公司企业;公司;公司
金艺恒不锈钢有限公司,30.696682021198196,104.15322210252525,公司企业;公司;公司
成都温瑞公司,30.70342121761061,104.17215560645332,公司企业;公司;公司
成南公司,30.68900058231243,104.17851876291999,公司企业;公司;公司
四川电力实业总公司,30.690527984459088,104.16755728906006,公司企业;公司;公司
鑫艾雪商贸有限公司,30.688341454372814,104.10444945515734,公司企业;公司;公司
成都宸果广告有限公司,30.70508349982415,104.15685391802182,公司企业;公司;公司
康贝药房连锁有限公司,30.70321105472332,104.10930920121496,公司企业;公司;公司
亿兴隆公司,30.704459722917825,104.17413799079851,公司企业;公司;公司
福盛海鑫公司,30.703895852233778,104.17378690570403,公司企业;公司;公司
四川菲罗米特有限公司,30.695318847045364,104.16296719297019,公司企业;公司;公司
成都潮锦嘉业,30.705705064097973,104.17308489273762,公司企业;公司;公司
欧阳婚礼道具,30.728336546438,104.10192204402517,公司企业;公司;公司
成都礼亮商贸有限公司,30.74548124831607,104.15076284580364,公司企业;公司;商业贸易
成都鑫华农业有限公司,30.719030656889757,104.15294907391343,公司企业;公司;公司
四川尚青化工有限公司,30.696469522940372,104.15921188247334,公司企业;公司;公司
四川锦宇化机有限公司,30.696468514709956,104.15921288434517,公司企业;公司;公司
柏藤楼梯销售中心,30.730345953889955,104.10939378570671,公司企业;公司;公司
六禾丰商贸公司,30.689704175480365,104.16593373566651,公司企业;公司;公司
成董集团有限公司,30.689975058736675,104.10770468574081,公司企业;公司;公司
香港博瀚教育集团,30.703745178512083,104.1087932606671,公司企业;公司;公司
瑞源建筑工程有限公司,30.6957689458922,104.11575875869664,公司企业;公司;公司
海巍公司,30.68839404756905,104.17145952710017,公司企业;公司;公司
本草堂药业有限公司,30.720336208271597,104.10193014438129,公司企业;公司;公司
四川华氏公司,30.695474145257677,104.17534763076448,公司企业;公司;公司
睿途广告传媒有限公司,30.719604536354314,104.1090487484106,公司企业;公司;广告装饰
四川宏越建设工程有限公司,30.770776112743395,104.10197922864548,公司企业;公司;建筑公司
四川芙蓉大药房有限公司仓库,30.756370153099112,104.10536376149776,公司企业;公司;医药公司
东升木业有限公司,30.742256326110844,104.11635158786721,公司企业;公司;公司
百强公司,30.68909284014655,104.16685594091062,公司企业;公司;公司
晨扬管理咨询有限公司,30.69946908188148,104.17848669980847,公司企业;公司;公司
大成久丰公司,30.705756940514906,104.17409886424916,公司企业;公司;公司
天丰建材仓库,30.725351626729047,104.12091195834061,公司企业;公司;公司
广宸贸易公司,30.70459979638602,104.17398475136022,公司企业;公司;公司
成都领天科技有限公司,30.695844971753324,104.1586649691877,公司企业;公司;公司
壳品传播,30.69684266875317,104.16280644326247,公司企业;公司;公司
启帆仓库,30.734319183560416,104.12793393504653,公司企业;公司;公司
中盛恒美科技有限公司,30.697158808547265,104.17385552692461,公司企业;公司;公司
部落窝,30.688445022944737,104.10291711289034,公司企业;公司;公司
河北双奥卫浴,30.724501823279954,104.12187599423645,公司企业;公司;公司
二重进出口公司,30.692844154699458,104.17003013442051,公司企业;公司;公司
华润建材退补货仓库,30.73315467253493,104.10567090872206,公司企业;公司;公司
久盛腾源贸易公司,30.70550584075927,104.17270819603743,公司企业;公司;公司
中国医药集团总公司,30.691906322194157,104.16673167419556,公司企业;公司;公司
省建机司第三工程公司,30.688883978850313,104.11043399187758,公司企业;公司;公司
百思达彩印,30.6973296463005,104.16646179860619,公司企业;公司;公司
成都信合公司,30.705412579359248,104.17395841711726,公司企业;公司;公司
百强建材,30.722996105320874,104.12357188187961,公司企业;公司;公司
美国公牛实业有限公司,30.705872773332313,104.10389329982002,公司企业;公司;公司
易酒批公司,30.694918289755208,104.15134015061231,公司企业;公司;公司
沐华科技发展有限公司,30.69595851643385,104.17612079865297,公司企业;公司;公司
成都三雀一木框厂,30.76243524953348,104.10976883644713,公司企业;公司企业;公司企业
服舍装饰,30.73349205404007,104.1297047660628,公司企业;公司;公司
全生立达,30.690846918245335,104.17938234413953,公司企业;公司;公司
角斗士建材中铁库房,30.711891432585258,104.1331435257781,公司企业;公司;公司
采山制冷成都仓库,30.753024996119418,104.103524813901,公司企业;公司;公司
阳光电脑科技服务公司,30.69023232435701,104.10518996653047,公司企业;公司;公司
四川大承装饰,30.730114660792893,104.13409715526652,公司企业;公司;公司
成都锐狮安全有限公司,30.6918072824948,104.17991258445754,公司企业;公司;公司
名望千娇百媚生物科技有限公司,30.696904959673706,104.17994830031053,公司企业;公司;网络科技
成都华罗畜牧饲料科技有限公司,30.696904959673706,104.17994830031053,公司企业;公司;网络科技
国电金堂发电有限公司,30.695828846056784,104.16285426520346,公司企业;公司;公司
俱进货车服务公司,30.762250355331332,104.11360515169922,公司企业;公司;公司
星颢伟业经贸公司,30.704209313514337,104.17334536132323,公司企业;公司;商业贸易
庄奴淋浴软管,30.737609415918296,104.1274564112042,公司企业;公司;公司
四川巨宁钢铁有限公司,30.701263489463578,104.17418337008375,公司企业;公司;公司
四川鸣昊贸易有限公司,30.692975055566247,104.11373766698013,公司企业;公司;公司
柯斯达集团,30.690047424026055,104.16276189716905,公司企业;公司;公司
四川华庭建设有限公司,30.697312111227046,104.17986257028943,公司企业;公司;公司
万年青广告有限公司,30.69492627107503,104.15150914791381,公司企业;公司;公司
成都科胜达科技,30.752634249460645,104.11201666972038,公司企业;公司;公司
天地通实业有限公司,30.705756584127567,104.17483290476875,公司企业;公司;公司
成都合锦商贸有限公司,30.705045007800628,104.17389301459356,公司企业;公司;商业贸易
竞大商贸有限公司,30.705041988297275,104.17388901932367,公司企业;公司;公司
成都闽航贸易有限公司,30.70447694608164,104.17392995098515,公司企业;公司;公司
科丰芯缘科技,30.695418457627518,104.1779858706749,公司企业;公司;公司
中联重科叉车,30.763508569756873,104.1124293438059,公司企业;公司;公司
成都地铁北郊车辆段,30.737447351464688,104.11445338540517,公司企业;公司;公司
成都龙元贸易有限公司,30.705965535552767,104.17383251132107,公司企业;公司;公司
成都一言科技有限公司,30.695610860514204,104.17606442221988,公司企业;公司;公司
成都海旺商贸有限公司,30.694954104967856,104.17957179285882,公司企业;公司;公司
依诺瓷砖西南区中心仓,30.757753824532873,104.10757199998916,公司企业;公司;公司
四川拉卡科技有限公司,30.763474766147944,104.10216136144737,公司企业;公司;公司
永安特种制冷,30.76240756372953,104.11114095834851,公司企业;公司;公司
天安达公司,30.758323451807808,104.10680395986014,公司企业;公司;公司
尖嗒金属制品有限公司,30.758543278489565,104.10334164415518,公司企业;公司;公司
成都发动机公司,30.7567156535221,104.10283151830842,公司企业;公司;公司
成都致鼎科技有限公司,30.75469989927921,104.12905494981936,公司企业;公司;公司
成都冠雁商贸有限公司,30.76203913114556,104.1141301551718,公司企业;公司;公司
成兴广告,30.748849169104865,104.10874818642476,公司企业;公司;公司
鹏兴建材,30.732462892558996,104.12767447945345,公司企业;工厂;工厂
成都宝铁商贸有限公司,30.75731430958156,104.10221346964909,公司企业;公司;公司
泉来建材商贸有限公司,30.738310501417462,104.10799619423011,公司企业;公司;公司
普洛斯,30.74021903510484,104.10910207888448,公司企业;公司;公司
成都葳乐电气公司,30.688478836561973,104.12906339140119,公司企业;公司;公司
成都市汇洋水泥制品厂,30.704740088216397,104.15471633860768,公司企业;工厂;工厂
四川万强食品有限公司,30.770290020504728,104.10154693409089,公司企业;公司;公司
成都欧格利门窗有限公司,30.694918289755208,104.15134015061231,公司企业;公司;公司
嘉吉饲料(成都)有限公司,30.698888370300786,104.15416025753768,公司企业;公司;公司
梓宁商砼,30.76933140692949,104.17890239073661,公司企业;公司;公司
川庆钻探工程有限公司,30.745094500245564,104.10255493905764,公司企业;公司;公司
斯亚蓝家私,30.744914523140807,104.1036531224229,公司企业;公司;公司
华建(隆华路),30.75174866267289,104.10295895760194,公司企业;公司;建筑公司
驰度沙发,30.762713964564735,104.10821075332008,公司企业;公司;公司
开元彩钢,30.75451403322409,104.1026185724223,公司企业;公司;公司
金属开平公司,30.76182123424111,104.11201191590617,公司企业;公司;公司
鑫尚佳门窗厂,30.728152037618248,104.12941070723535,公司企业;工厂;工厂
成都视可文化传媒有限公司,30.746874189352962,104.15095432120373,公司企业;公司;公司
成都三森源实业有限公司,30.689661152592148,104.17792648930009,公司企业;公司;公司
钢花广告,30.744105243965446,104.10825092277662,公司企业;公司;广告装饰
平价广告,30.70063821848274,104.16510392011034,公司企业;公司;广告装饰
朵以仓库,30.68856431884672,104.16532584605557,公司企业;公司企业;公司企业
保利紫荆花语物业服务中心,30.758695686587625,104.14834448722296,公司企业;公司;公司
成都康运微科技有限公司,30.696904959673706,104.17994830031053,公司企业;公司;公司
诺马建材仓库,30.720110772554268,104.1286218353346,公司企业;公司企业;公司企业
妃宇门窗厂,30.718273738100997,104.11328086607296,公司企业;公司企业;公司企业
沈阳现代交通成都分公司,30.75236508107821,104.10572511970767,公司企业;公司;公司
成都尤立科电器有限公司,30.688631975484387,104.16720083080155,公司企业;公司;公司
中国第二重机械集团公司,30.69157387092797,104.17056151472825,公司企业;公司;机械电子
成都金华泰塑胶有限公司,30.727577509470468,104.10887348267369,公司企业;公司;公司
成都佰伊汇服装有限公司,30.765681088649046,104.11297805144766,公司企业;公司;公司
成都姿绒华羽羊毛衫编织厂,30.754283909023282,104.11234551053798,公司企业;工厂;工厂
四川祥云光谷医疗科技有限公司,30.72097015668796,104.11125223312986,公司企业;公司;医药公司
成都市长瑞精细涂料有限公司,30.767749755261104,104.17978172691579,公司企业;公司;公司
G7手机管车(成都南门店),30.719340075251402,104.10488069476175,公司企业;公司;公司
成都铁路材料总厂,30.68906072655206,104.12653808221356,公司企业;工厂;工厂
尚之诚装饰设计有限公司,30.702904031280838,104.10474828767993,公司企业;公司;公司
成都市成华区运输三公司,30.696144014319493,104.12165660460066,公司企业;公司;公司
成都欧凯易科技有限公司,30.73009842371666,104.13443019750312,公司企业;公司;公司
成都广升源商贸有限公司,30.69698753359385,104.16541034476202,公司企业;公司;商业贸易
诺比琪卫生用品有限公司,30.696693416963956,104.17349833812686,公司企业;公司;公司
四川大红亿实业有限公司,30.704780690355285,104.17480449819708,公司企业;公司;公司
成都市俊发实业有限公司,30.690837303786346,104.11117439506266,公司企业;公司;公司
成都亿邻通科技有限公司,30.697449430368536,104.17929229720082,公司企业;公司;公司
成都万联达建材有限公司,30.72743457769595,104.10333610641408,公司企业;公司;公司
四川盛桂园食品有限公司,30.718072341562777,104.14220955143796,公司企业;公司;公司
天欣沅建设工程有限公司,30.6914292554876,104.17998429003836,公司企业;公司;公司
成都安程通科技有限公司,30.696469522940372,104.15921188247334,公司企业;公司;公司
成都华美益商贸有限公司,30.710870730618556,104.16810350629879,公司企业;公司;公司
成都市弘川贸易有限公司,30.704385083396296,104.17643623777376,公司企业;公司;公司
成都地铁三号线指挥中心,30.737082199777685,104.12423851001479,公司企业;公司;公司
成都橡木轩洁具有限公司,30.725777903651466,104.1044889854671,公司企业;公司;公司
四川南阳刚结构有限公司,30.696094418520552,104.1764245703257,公司企业;公司;公司
凯卓立液压设备有限公司,30.696748535837138,104.15530312495945,公司企业;公司;公司
瑞彼得餐饮管理有限公司,30.690399874857338,104.17407289932386,公司企业;公司;公司
成都倚天斋工贸有限公司,30.695323760895768,104.15903793432456,公司企业;公司;公司
四川南虹暖亿家暖通工程有限公司,30.728039057269704,104.10412155815347,公司企业;公司;公司
成都开普锐科技有限公司,30.72078901868356,104.11151148201876,公司企业;公司;公司
庆立木业,30.695646110644656,104.1530659530769,公司企业;公司;公司
成都市秦皇建材有限公司,30.72508237761335,104.12068523763828,公司企业;公司;建筑公司
成都嘉英教育咨询有限公司,30.7595427712088,104.14661444451046,公司企业;公司;公司
成都伊兰度科技有限公司,30.689159258428102,104.16709783019328,公司企业;公司;公司
成都澳本斯运输有限公司,30.76203913114556,104.1141301551718,公司企业;公司;公司
德胜集团,30.704225764667143,104.17473040984969,公司企业;公司企业;公司企业
成都创美特电器有限公司,30.68923863158125,104.16554258743292,公司企业;公司;公司
成都利德尔科技有限公司,30.696132803228604,104.17623749141012,公司企业;公司;公司
邦辰商贸有限责任公司,30.71236417547841,104.11744449256669,公司企业;公司;商业贸易
成都玉满庭装饰有限公司,30.757411088615015,104.1106822781249,公司企业;公司;公司
成都神韵磁砖天回镇仓库,30.766371607467352,104.11685065001696,公司企业;公司;公司
成都晓梦纺织品有限公司,30.717859460227466,104.11091919708224,公司企业;公司;公司
四川金保莱钢铁有限公司,30.763731011303125,104.10146936211295,公司企业;公司;公司
四川楷高工程检测有限公司,30.69787422110522,104.11766316689456,公司企业;公司;公司
成都商业储运公司109仓库,30.69609059188238,104.10296799111823,公司企业;公司;公司
荣邦速达,30.760751283904003,104.1140329101281,公司企业;公司企业;公司企业
成都久景制冷设备有限公司,30.697877263968067,104.15508810216306,公司企业;公司;公司
兴俊达,30.761345407852637,104.11375298571397,公司企业;公司企业;公司企业
四川三江丝印实业有限责任公司,30.687638127659483,104.10787411105676,公司企业;公司;公司
成都添彩电子设备有限公司,30.696904959673706,104.17994830031053,公司企业;公司;机械电子
四川省蜀仓建材商贸有限公司,30.75786520041849,104.10891013157935,公司企业;公司;公司
成都长林标准型材有限公司,30.698197326533958,104.13918738565599,公司企业;公司;公司
申露达(国际)卫浴有限公司,30.735867115020678,104.12572153258367,公司企业;公司;公司
成都汇丰德源印务有限公司,30.69039598886535,104.17376688984588,公司企业;公司;公司
陕西汉中古龙米业有限公司,30.699449803179128,104.10184993093355,公司企业;公司;公司
四川旺利建设工程有限公司,30.689838594772198,104.17787615354294,公司企业;公司;公司
格莱斯美酒店管理有限公司,30.695833230404773,104.16840459292234,公司企业;公司;公司
中铁・北城华府物业服务中心,30.703487402603045,104.11066686459097,公司企业;公司;公司
成都华西汽车附件有限责任公司,30.688356609145472,104.1632941140411,公司企业;公司;公司
山东莱工驻四川省办事处,30.753158918029573,104.10994340574409,公司企业;公司;公司
攀登瓷业,30.737190124489008,104.10512469825164,公司企业;公司企业;公司企业
成都昊坤舞台设备有限公司,30.73178218451304,104.12741506127645,公司企业;公司;公司
甘肃天赐石化产品有限公司,30.696904959673706,104.17994830031053,公司企业;公司;公司
四川俊成项目管理咨询有限公司,30.696904959673706,104.17994830031053,公司企业;公司;公司
广东尚御臻品陶瓷(成都分公司),30.75664101208646,104.10797600954841,公司企业;公司;公司
成都勤鸿建筑安装有限公司,30.749084737334847,104.10646290388547,公司企业;公司;公司
四川伯源建筑材料有限公司,30.77089087782812,104.10211230243571,公司企业;公司;公司
成都吉丰工贸有限公司,30.729390673756757,104.12551714409089,公司企业;公司;商业贸易
中国储运西南建材仓储中心,30.75722426712337,104.11013222117693,公司企业;公司;公司
成都创辰投资策划有限公司,30.76473872283497,104.11292574017052,公司企业;公司;公司
成都创联大港贸易有限公司,30.704034169431175,104.17519175237318,公司企业;公司;公司
中国第二重型机械集团公司,30.692272302679378,104.170756231397,公司企业;公司;机械电子
成都东骏智博科技有限公司,30.695206056090008,104.17957633646826,公司企业;公司;公司
成都榕和物业管理有限公司,30.696779996984453,104.163206580162,公司企业;公司;公司
成都益泰医疗器械有限公司,30.71892849488239,104.11137683544116,公司企业;公司;公司
四川强华机电安装有限公司,30.695633550702627,104.17708243508372,公司企业;公司;公司
成都东方广益投资有限公司,30.696049608807314,104.1627298600582,公司企业;公司;公司
成都新盛瑞兴贸易有限公司,30.70105433227796,104.16712432595719,公司企业;公司;公司
四川鸿吉建设工程有限公司,30.696465674580065,104.15883286478294,公司企业;公司;公司
成都德智恒电子科技限公司,30.697151499327347,104.1785757906744,公司企业;公司;公司
麒麟舞美文化发展有限公司,30.695240942490027,104.17828220709816,公司企业;公司;公司
四川德信工程管理有限公司,30.696074134715353,104.16830715362644,公司企业;公司;公司
爱源检测技术服务有限公司,30.69727065663512,104.17386832845207,公司企业;公司;公司
成都迅翼卫通科技有限公司,30.697806217545356,104.17495443655402,公司企业;公司;公司
西勘岩土工程设备制造有限公司,30.70832834907691,104.11316624735937,公司企业;公司;机械电子
四川格式化装饰工程有限公司,30.7662157579055,104.13865143462228,公司企业;公司;公司
四川科洛智能科技有限公司,30.694604834942353,104.15137072225667,公司企业;公司;公司
成都启帆中原商贸有限公司,30.720672760174544,104.10869236531272,公司企业;公司;公司
成都市益荣大药房有限公司,30.713407788433184,104.11763798639699,公司企业;公司;公司
四川省寻音坊乐器有限公司,30.688537281203136,104.1543901941323,公司企业;公司;公司
成都亚沃航空科技有限公司,30.68862758694799,104.1700610061424,公司企业;公司;公司
成都市诚安帮科技有限公司,30.696190011317817,104.17672441439414,公司企业;公司;公司
成都宜川电子科技有限公司,30.69618200742463,104.17660342238408,公司企业;公司;公司
成都市渝三峡贸易有限公司,30.727761522157426,104.10658307712966,公司企业;公司;公司
四川晨希电子科技有限公司,30.70467878757503,104.15443342033075,公司企业;公司;公司
成都东岭华杰贸易有限公司,30.70456239135248,104.17427182870922,公司企业;公司;公司
四川物流物资贸易有限公司,30.704080674835378,104.17483465593062,公司企业;公司;公司
成都中州通讯设备有限公司,30.707142446581567,104.10847269000203,公司企业;公司;公司
成都众智慧视科技有限公司,30.718173474363287,104.11058975093687,公司企业;公司;公司
四川联盛建筑劳务有限公司,30.68821276184424,104.1100092208213,公司企业;公司;公司
四川宝轮时代科技有限公司,30.720931996038253,104.11114727076333,公司企业;公司;公司
成都盛点企业管理有限公司,30.698549450978163,104.17788127946932,公司企业;公司;公司
成都荣德机电设备有限公司,30.68755587999251,104.16810092166745,公司企业;公司;公司
成都博达微特电机有限公司,30.695206056090008,104.17957633646826,公司企业;公司;公司
成都市百旺鑫伞业有限公司,30.738738551448005,104.12471941393783,公司企业;公司;公司
成都莱达机械电子有限公司,30.692111355374433,104.15955584860382,公司企业;公司;公司
成都翼猫晨风科技有限公司,30.687825269593034,104.13809135394438,公司企业;公司;公司
加纳森雅自贸股份有限公司,30.68937663263104,104.16365421223819,公司企业;公司;公司
成都金房物业服务有限公司,30.71700190226364,104.10776105211576,公司企业;公司;公司
四川贝睿信息技术有限公司,30.69764752109871,104.17388565973783,公司企业;公司;公司
成都力好机械设备有限公司,30.734365828642716,104.11495776423567,公司企业;公司;公司
四川祥普物业管理有限公司,30.702010987215544,104.17001386148725,公司企业;公司;公司
四川联星环保科技有限公司,30.69603944847508,104.15871562242127,公司企业;公司;公司
四川德峰工贸有限责任公司,30.71563570893878,104.10752690223433,公司企业;公司;公司
四川川恒化工股份有限公司,30.691137445371286,104.17891977898337,公司企业;公司;公司
四川君邦环境监测有限公司,30.6968335944557,104.17328207561195,公司企业;公司;公司
四川荣世贸易有限公司,30.689445534694563,104.17769988278111,公司企业;公司;商业贸易
宝贝天使家庭服务有限公司,30.703042573551716,104.16364173888753,公司企业;公司;公司
成都鑫光明彩印有限公司,30.69288629253202,104.10135666952475,公司企业;公司;公司
成都回龙市场经营管理有限公司,30.746633586331495,104.15315456289886,公司企业;公司;公司
盛世超凡广告(北富森店),30.727256979696122,104.11087900308578,公司企业;公司;广告装饰
成都泰盈运业服务有限公司,30.69611558988452,104.17850464089511,公司企业;公司;公司
丰源钢型,30.7572622903845,104.10219646648866,公司企业;公司;公司
四川休伯利安科技有限公司,30.694167727112017,104.17591403344792,公司企业;公司;公司
仪蓬货运有限公司(富森店),30.725737132406568,104.12379678418752,公司企业;公司;公司
成都志顺商贸有限公司,30.76334667377912,104.10244035545294,公司企业;公司;商业贸易
四川环网物资有限责任公司,30.691187752776862,104.17911369520996,公司企业;公司;公司
四川华夏汇海科技有限公司,30.69234225781088,104.159392410942,公司企业;公司;公司
成都大成制冷设备有限公司,30.687898482148693,104.10735956902545,公司企业;公司;公司
四川奥星防水工程有限公司,30.68942315146449,104.1633461056641,公司企业;公司;公司
成都首业电子科技有限公司,30.69560961008799,104.17866856064838,公司企业;公司;公司
成都协和生物技术有限公司,30.69671889713216,104.17080714188333,公司企业;公司;公司
成都泰昊贸易有限公司,30.70462891203428,104.17417571382379,公司企业;公司;商业贸易
成都忠驰信息技术有限公司,30.697716139554615,104.17996485787924,公司企业;公司;公司
成都万年体育用品有限公司,30.752124947025937,104.1033919345654,公司企业;公司;公司
世纪联发钢铁物质有限公司,30.711880051052173,104.17075814962654,公司企业;公司;公司
成都实力电控设备有限公司,30.694812645898377,104.17822898088912,公司企业;公司;公司
国家电网四川电力物资公司,30.690243906413954,104.1798274937355,公司企业;公司;公司
成都众牌医药有限责任公司,30.759021933492047,104.10828315653245,公司企业;公司;公司
四川升华电源科技有限公司,30.69732661165403,104.16648580544303,公司企业;公司;公司
德国博士国际集团有限公司,30.7455111600309,104.10714520325372,公司企业;公司;公司
成都钛丰工程机械有限公司,30.697764776775358,104.17940474331319,公司企业;公司;公司
成都众禾阀门制造有限公司,30.688148985705496,104.17799834481423,公司企业;公司;公司
成都三一合众商贸有限公司,30.758726566490637,104.10685499519008,公司企业;公司;公司
四川强伟玛咖食品有限公司,30.745780573137097,104.10753913088938,公司企业;公司;公司
四川光明交通设施有限公司,30.750134511175666,104.10247424908123,公司企业;公司;公司
成都陶淋伟业商贸有限公司,30.739926848384815,104.10768112365167,公司企业;公司;公司
四川德峰工贸有限责任公司,30.740748865179253,104.10863872018952,公司企业;公司;公司
成都金蒙龙食品有限责任公司,30.704125973824166,104.17281046978314,公司企业;公司;公司
成都克伏特航空设备有限公司,30.689549380940694,104.16710609665755,公司企业;公司;公司
四川智东华电器设备有限公司,30.68839951716704,104.17055946566785,公司企业;公司;公司
白连金三角仓储,30.722249907955643,104.11585909096789,公司企业;公司;公司
金核研发基地,30.69521048045162,104.16826370940132,公司企业;公司;公司
成都海科工控有限公司,30.68939641481237,104.16867047645489,公司企业;公司;公司
金干总部,30.69661510613261,104.1749865593877,公司企业;公司;公司
华亚集团华晟实业总部,30.696852992108752,104.17485512691283,公司企业;公司;公司
中国节能,30.69599054767239,104.16818729693728,公司企业;公司;公司
蓉城渝商总部基地,30.696796156748384,104.17988549150043,公司企业;公司;公司
四川江淮叉车有限公司,30.688544129141473,104.12955530870275,公司企业;公司;公司
成都瑞亿,30.68937254399332,104.17855906451788,公司企业;公司;公司
成都友源机械有限公司,30.695016570822734,104.11894140243407,公司企业;公司;机械电子
成都藩格斯商贸有限公司,30.70181731298465,104.16221872184309,公司企业;公司;商业贸易
金地福集团公司成都服务中心,30.68860470195953,104.12727600461315,公司企业;公司;公司
成锦昊贸易,30.70567897332757,104.17289192444932,公司企业;公司;商业贸易
四川科锐得实业集团有限公司,30.69038840055993,104.17910418659405,公司企业;公司;公司
成都兴华欣风机制造有限公司,30.722232525272638,104.14281234470745,公司企业;公司;公司
宝石机械成都装备制造分公司,30.690105704372904,104.17370142973192,公司企业;公司;公司
成都力加力环境工程有限公司,30.696904959673706,104.17994830031053,公司企业;公司;公司
湖北成龙威专用汽车有限公司,30.75071201003879,104.10327419410203,公司企业;公司;公司
成都德仁源贸易有限公司,30.7015278179186,104.14843028796332,公司企业;公司;商业贸易
成都力士德工程机械有限公司,30.760427821487404,104.1149249420282,公司企业;公司;机械电子
成都祥福殡仪服务公司(服务点),30.71689608751811,104.16524970052913,公司企业;公司;公司
川宏展示,30.7534946773026,104.11315866328916,公司企业;公司企业;公司企业
润都科技,30.693305578188802,104.17045531013322,公司企业;公司企业;公司企业
成都宝福伞厂,30.766629900188306,104.11981001118188,公司企业;工厂;工厂
成都柴可夫电器设备有限公司,30.695359976655407,104.15917387763177,公司企业;公司;公司
白特瓷器有限公司成都办事处,30.726194746582447,104.10293338317685,公司企业;公司;公司
四川欣科奥电子科技有限公司,30.697152508468022,104.17857278872202,公司企业;公司;公司
成都市蓉达科技有限责任公司,30.698589806499978,104.17777520296781,公司企业;公司;公司
成都博尔特厨房电器有限公司,30.71926499899709,104.14276703689845,公司企业;公司;公司
四川宏宇新材料工程有限公司,30.72653062154113,104.11054474091651,公司企业;公司;公司
成都市鑫源同创商贸有限公司,30.718615812965705,104.16406834029216,公司企业;公司;公司
成都印象川之味餐饮有限公司,30.700695180149594,104.12037547724437,公司企业;公司;公司
成都恒鑫和环保科技有限公司,30.69571966578402,104.1740401167418,公司企业;公司;公司
成都云中雀科技发展有限公司,30.732858618081636,104.13752593642253,公司企业;公司;公司
成都易掌柜信息技术有限公司,30.716039218614227,104.10745533734446,公司企业;公司;公司
四川亿万达建设工程有限公司,30.690837303786346,104.11117439506266,公司企业;公司;公司
成都印之美数码科技有限公司,30.688939086612265,104.16795329573561,公司企业;公司;公司
方德利五金卫浴(北湖总仓库),30.720220244547008,104.14112069467254,公司企业;公司;公司
成都易特固科技股份有限公司,30.68880171713707,104.17908916720792,公司企业;公司;公司
云饰科技成都有限公司(库房),30.733543181434037,104.12985773582182,公司企业;公司;公司
成都炎兴自动化工程有限公司,30.69632857489833,104.15892711676489,公司企业;公司;公司
成都市川盾保安服务有限公司,30.697512931390975,104.17925618254775,公司企业;公司;公司
四川拓普新技术有限责任公司,30.695089437693504,104.1684819414459,公司企业;公司;公司
四川豪恩帮电子商务有限公司,30.69750688052354,104.17926619380472,公司企业;公司;公司
方岳成都北湖鑫乐园总仓库,30.719918466468762,104.14126608756807,公司企业;公司;公司
成都成发科能动力工程有限公司,30.690208804758438,104.1773384315205,公司企业;公司;公司
浙江罗贝电器有限公司成都办,30.76474188144412,104.1126077118086,公司企业;公司;公司
永欣万兴1号库房,30.727791680473,104.11863815107073,公司企业;公司企业;公司企业
成都华盛纸箱厂,30.690273418032746,104.14552230223437,公司企业;工厂;工厂
翠竹厅澜海木业,30.725351956787236,104.10410341732981,公司企业;公司企业;公司企业
成都高新区华汇实业有限公司,30.69118124017194,104.16532793676876,公司企业;公司;公司
罗浮宫陶瓷仓库,30.734407825930333,104.1273318125962,公司企业;公司企业;公司企业
成都长卓贸易,30.711878017933294,104.17079915498356,公司企业;公司企业;公司企业
成都动车段材料科,30.701645526247376,104.13631417499286,公司企业;公司企业;公司企业
凯利网络科技,30.697151499327347,104.1785757906744,公司企业;公司企业;公司企业
蜀山世家商贸公司,30.721707911799662,104.14232794274415,公司企业;公司企业;公司企业
欧美庄园仓库,30.723360519106564,104.12057219368647,公司企业;公司企业;公司企业
成都跃凡广告有限公司,30.762324868617604,104.11652243350248,公司企业;公司企业;公司企业
四川昊冶贸易有限公司,30.705657821358415,104.17289795917884,公司企业;公司企业;公司企业
法制军训基地,30.711779062536998,104.17556356576587,公司企业;公司企业;公司企业
成都蜀食一家餐饮管理有限公司,30.688302453745926,104.17115668320207,公司企业;公司;公司
大鹏仓储,30.72884617632331,104.12352751084592,公司企业;公司企业;公司企业
洪兴地毯厂,30.72846693741648,104.13055948330495,公司企业;公司企业;公司企业
蜀能公司库房,30.701773360020475,104.15105905535337,公司企业;公司企业;公司企业
方圆电缆厂,30.728399543963857,104.106540422025,公司企业;公司企业;公司企业
石油总机厂,30.688512914541878,104.11687427752837,公司企业;公司企业;公司企业
首创・光和城项目部,30.712704473683385,104.11111541890554,公司企业;公司企业;公司企业
成都阿普奇科技股份有限公司,30.688445298389702,104.16968632901552,公司企业;公司;公司
亚飞商贸库房,30.74937941764392,104.10612879152774,公司企业;公司企业;公司企业
中科万德海外建设发展有限公司,30.68868326493292,104.16323549313176,公司企业;公司;公司
伊兰度科技(成都公司)组装车间,30.68953348151097,104.16662509786735,公司企业;公司;公司
二重万安物业,30.693037240095574,104.17094083100203,公司企业;公司企业;公司企业
光彩霓虹灯吸塑厂,30.710551625930574,104.10445400393246,公司企业;公司企业;公司企业
四川新先达测控技术有限公司,30.697517964959268,104.1792661741169,公司企业;公司;公司
中泰联合认证有限公司,30.69611674770914,104.15933652371159,公司企业;公司企业;公司企业
四通仓库(中环路二仙桥西路段),30.688456476993824,104.11683638081644,公司企业;公司;公司
成都莱达CNG改装厂,30.68891574330309,104.16617023369629,公司企业;公司企业;公司企业
成都聚合力广告有限公司,30.734701172614372,104.11685466538492,公司企业;公司;广告装饰
中国新兴,30.704881982188354,104.17361826698301,公司企业;公司企业;公司企业
图锐达,30.705867290649895,104.17498273319416,公司企业;公司企业;公司企业
固佳复合材料有限公司,30.72048595321933,104.10820355323894,公司企业;公司企业;公司企业
美的空调龙港仓库,30.709632668583538,104.17600283601833,公司企业;公司企业;公司企业
四川省长城安全事务有限公司,30.697312111227046,104.17986257028943,公司企业;公司;公司
成都市金食坊食品厂,30.70326392887326,104.1165477732044,公司企业;公司企业;公司企业
冠承建材5号库,30.727680901624147,104.11914931058885,公司企业;公司企业;公司企业
欧立优智能科技,30.697305099160275,104.17349224650398,公司企业;公司企业;公司企业
中天恒泰,30.705156346376384,104.17275376933377,公司企业;公司企业;公司企业
千山木业,30.7229704260609,104.11252693028483,公司企业;公司企业;公司企业
成都阿普奇自动化技术有限公司,30.688301157812415,104.16964559924207,公司企业;公司;公司
就业扶贫,30.722349914934938,104.1433082410758,公司企业;公司企业;公司企业
成都依然服装有限公司,30.705183450655593,104.15842485777296,公司企业;公司企业;公司企业
四川广电兴维东,30.69391886495584,104.10253188778402,公司企业;公司企业;公司企业
四川石油运输一分公司,30.74512455925984,104.10257792845614,公司企业;公司企业;公司企业
卓马陶瓷仓库,30.721223322546503,104.12186987192709,公司企业;公司企业;公司企业
成都豪豪商贸有限公司,30.714634566529924,104.11961240588667,公司企业;公司企业;公司企业
展恒仓库,30.70575722118371,104.17352083207356,公司企业;公司企业;公司企业
冰润制冰机,30.695850687472934,104.12177714286513,公司企业;公司企业;公司企业
钣金厂,30.712021895140555,104.17709828702016,公司企业;公司企业;公司企业
成都禹越商贸有限公司,30.69397043387986,104.13347253328122,公司企业;公司企业;公司企业
成都创恒安科智能科技有限公司,30.73109135505267,104.11913897540724,公司企业;公司;公司
锤子科技成都,30.69226827084799,104.17075623885303,公司企业;公司企业;公司企业
河北宝兴龙骨配送中心,30.724370617590523,104.11082115074119,公司企业;公司企业;公司企业
辉煌卫浴仓库,30.73389286538725,104.12724122609033,公司企业;公司企业;公司企业
合能物业,30.717817952669304,104.11145130131935,公司企业;公司企业;公司企业
小蜜蜂仓库,30.722201760775462,104.12778618587403,公司企业;公司企业;公司企业
中国铁建商业租售中心,30.70647532212488,104.1094248476368,公司企业;公司企业;公司企业
伊莉莎白仓库,30.73279323919722,104.12769019347274,公司企业;公司企业;公司企业
史密斯净水器办事处,30.71580301323876,104.10493142483905,公司企业;公司企业;公司企业
四川英利拓贸易有限公司,30.697333366489616,104.17338419026012,公司企业;公司;商业贸易
艺景石膏线装饰材料厂,30.72124850029939,104.14006633283358,公司企业;公司企业;公司企业
成华区顺兴塑料制品厂,30.7311401747141,104.10184532713477,公司企业;公司企业;公司企业
金D宏N商贸有限公司,30.705754711291963,104.17246777775935,公司企业;公司企业;公司企业
联谊仓库,30.740297476686905,104.11868690607042,公司企业;公司企业;公司企业
纸箱业务接给室,30.690341987870003,104.14547617050947,公司企业;公司企业;公司企业
洪氏钢锅厂,30.687950420373497,104.11676633236388,公司企业;公司企业;公司企业
云海农业,30.690064364261243,104.18005984177645,公司企业;公司企业;公司企业
领都售楼部,30.7050464706091,104.10478973291748,公司企业;公司企业;公司企业
奥鑫源亚美,30.70447492975523,104.1739339545327,公司企业;公司企业;公司企业
河北廊坊宇帆龙骨厂,30.741158869346794,104.1170342536399,公司企业;公司企业;公司企业
四川成都成华,30.688138797463154,104.10448684221709,公司企业;公司企业;公司企业
志豪文化用品厂,30.694604834942353,104.15137072225667,公司企业;公司企业;公司企业
中创环宇,30.715817203620833,104.10472138520088,公司企业;公司企业;公司企业
富奎集团成都仓,30.695157988439497,104.10787613951067,公司企业;公司企业;公司企业
航建铝业,30.72755904698231,104.10962757217234,公司企业;公司企业;公司企业
成都艺康卫浴有限公司,30.73956379526449,104.11551307261593,公司企业;公司企业;公司企业
四川万联物业,30.695423459433414,104.1070335800415,公司企业;公司企业;公司企业
中国二重传动所,30.692844154699458,104.17003013442051,公司企业;公司企业;公司企业
成都航天印制板,30.694354631110368,104.16447703700655,公司企业;公司企业;公司企业
慕斯卫浴,30.7413116540568,104.12634798006034,公司企业;公司企业;公司企业
欣陶库房,30.7397728444019,104.11672305118627,公司企业;公司企业;公司企业
MAC MIOCO,30.719452481508238,104.10536659653982,公司企业;公司企业;公司企业
成华城管局景观科,30.692969659262452,104.10613297233209,公司企业;公司企业;公司企业
龙发装饰(龙潭店),30.700013210363046,104.16792716998475,公司企业;公司企业;公司企业
成都明金达建材库房,30.720945667629064,104.12210223528189,公司企业;公司企业;公司企业
盛桂园食品东门仓库,30.699247814528285,104.1401406135396,公司企业;公司企业;公司企业
晶匠文化传媒有限公司,30.71303030676663,104.11573436389996,公司企业;公司企业;公司企业
成都中微电微波技术有限公司,30.695277743234165,104.17509997256202,公司企业;公司;公司
成都新雄鑫净化工程有限公司,30.697740322492734,104.17996681510971,公司企业;公司;公司
成都思瑞伏酒店用品有限公司,30.687983194281344,104.10730440330961,公司企业;公司;公司
成都古特卫浴有限公司,30.757934376340586,104.12450354058264,公司企业;公司企业;公司企业
宏锦铭达,30.704623016877868,104.17387070684755,公司企业;公司企业;公司企业
成都艺美莱装饰工程有限公司,30.74480830610264,104.1035811617841,公司企业;公司;公司
格莱斯库房,30.756649128636862,104.10775498871588,公司企业;公司企业;公司企业
德美PVC地板仓库,30.71743626627008,104.14285244629812,公司企业;公司企业;公司企业
成都市擎天弹簧实业有限公司,30.761790489224747,104.11548122794532,公司企业;公司;公司
四川众合三友商贸有限公司,30.719648234382255,104.136574068095,公司企业;公司;商业贸易
百胜成都办事处,30.740921230611278,104.10892964706628,公司企业;公司企业;公司企业
大宗天诚,30.705984370748407,104.17444851447637,公司企业;公司企业;公司企业
成都新城金贸游乐,30.769895825618644,104.10101068326347,公司企业;公司企业;公司企业
北宸商品广告有限公司,30.76540831286086,104.11290895299945,公司企业;公司企业;公司企业
奥卡索仓库,30.69588677209057,104.10346840584094,公司企业;公司企业;公司企业
甲乙仓库,30.711887514391144,104.17402432119842,公司企业;公司企业;公司企业
金广大仓库,30.6876210958256,104.11604889271574,公司企业;公司企业;公司企业
成都铁展科技有限公司,30.697149498840034,104.17854479264422,公司企业;公司企业;公司企业
恒祥石膏线厂,30.763478345062943,104.12083309469276,公司企业;公司企业;公司企业
万林徒步探险旅游公司,30.70872615221619,104.16649670108683,公司企业;公司企业;公司企业
成都优芯微电子,30.695544034108572,104.17461646505122,公司企业;公司企业;公司企业
成都意卓科技有限公司,30.741603051145912,104.11923119962792,公司企业;公司企业;公司企业
鼎固雨阳篷成都办事处,30.765731820659486,104.11343711112774,公司企业;公司企业;公司企业
后区仓库,30.75658282892969,104.10628284885628,公司企业;公司企业;公司企业
海滨一队,30.696898896771255,104.12568059734319,公司企业;公司企业;公司企业
三友库房,30.724947747615115,104.10845927964088,公司企业;公司企业;公司企业
成都市二仙桥机车厂,30.692338834421566,104.13504765849137,公司企业;公司企业;公司企业
东风渠南北分水闸,30.723211422553298,104.12929711268612,公司企业;公司企业;公司企业
成都铁路局-中国铁建,30.69490446591684,104.10901270534491,公司企业;公司企业;公司企业
武侯区高原厨房设备厂,30.692081330032636,104.11301125085208,公司企业;公司企业;公司企业
华邦保和办公总部,30.697518004888288,104.17918316981599,公司企业;公司企业;公司企业
纽菲特生物科技(成都)有限公司,30.690729825007544,104.17972458003007,公司企业;公司;公司
成都闽成贸易,30.70499891424448,104.17340806349986,公司企业;公司企业;公司企业
胜辉科技,30.699828643037645,104.17458086720055,公司企业;公司企业;公司企业
新生活电子厂,30.690899161192398,104.1649834415066,公司企业;公司企业;公司企业
邛崃川丰纯粮酒厂,30.75051240271982,104.10585848612031,公司企业;公司企业;公司企业
罗玛库房,30.72819833927363,104.11109705200916,公司企业;公司企业;公司企业
鸿伟瓷砖加工厂,30.759055020160176,104.10812914514716,公司企业;公司企业;公司企业
上东国际物业管理中心,30.705538986725205,104.15838527474548,公司企业;公司企业;公司企业
天回电器厂,30.76668226686108,104.11700978049788,公司企业;公司企业;公司企业
成都兴鑫扁丝厂,30.756869529528718,104.11913603489208,公司企业;公司企业;公司企业
中国石油化工股份有限公司西南环境保护技术中心,30.707832910157695,104.10298007372518,公司企业;公司;公司
四维仓库,30.7285199759572,104.12492595725021,公司企业;公司企业;公司企业
行政经理,30.692267122021796,104.15843048739512,公司企业;公司企业;公司企业
利物仓储,30.687817490417398,104.11856074378308,公司企业;公司企业;公司企业
华莲仓库,30.729145065364627,104.11039903946671,公司企业;公司企业;公司企业
绪光电器厂,30.76631986831596,104.11641659180292,公司企业;公司企业;公司企业
世永总部基地,30.696765879038967,104.17998155046452,公司企业;公司企业;公司企业
海川仓库,30.72402516509263,104.11822121658115,公司企业;公司企业;公司企业
恒威达贸易有限公司,30.705984367348844,104.17445551486286,公司企业;公司企业;公司企业
四川唯高公司,30.695864661655058,104.17639598223805,公司企业;公司企业;公司企业
三友仓库,30.740445068927453,104.11839679186801,公司企业;公司企业;公司企业
动车基地,30.68923448540803,104.14680534641766,公司企业;公司企业;公司企业
蓝阳机电设备有限公司,30.695821534406903,104.17596503702747,公司企业;公司企业;公司企业
长金钢铁有限公司,30.705511463456542,104.17357323475088,公司企业;公司企业;公司企业
香木林实业公司,30.697155050022182,104.16282788726953,公司企业;公司企业;公司企业
闽正公司,30.705133378835264,104.17442389883189,公司企业;公司企业;公司企业
千仞钢铁贸易有限公司,30.705164117133563,104.1733437893068,公司企业;公司企业;公司企业
天微电子有限责任公司,30.688877212986842,104.1687494590809,公司企业;公司企业;公司企业
安华卫浴仓库,30.75248189214521,104.10440797572583,公司企业;公司企业;公司企业
成都东能自控技术工程有限公司,30.688772418236095,104.17076377289062,公司企业;公司;公司
四川中新浩峰电力工程有限公司,30.696904959673706,104.17994830031053,公司企业;公司;公司
四川安广科技发展有限公司,30.727618829395787,104.17741353981418,公司企业;公司;公司
成都世名文体用品贸易有限公司,30.700180197654557,104.10204467992307,公司企业;公司;商业贸易
启达窗饰制品有限公司,30.76668226686108,104.11700978049788,公司企业;公司企业;公司企业
成都智达电力,30.697158808547265,104.17385552692461,公司企业;公司企业;公司企业
哈森仓库,30.68836638677333,104.170271511852,公司企业;公司企业;公司企业
四川诚正工程检测技术有限公司,30.760709517112666,104.11158567801166,公司企业;公司;公司
成都锋宜精密工具制造有限公司,30.68835487919673,104.16903446223328,公司企业;公司;公司
四川华章教育发展咨询有限公司,30.75926720897391,104.11579487551134,公司企业;公司;公司
四川鑫安达代理记账有限公司(天新路),30.769560621633385,104.11020039845377,公司企业;公司;公司
成都成实冶金储运有限责任公司,30.7057941891911,104.1741268052919,公司企业;公司;公司
四川五宝清洁服务有限责任公司,30.703044465208794,104.1059641669715,公司企业;公司;公司
成都味兴邦调味品设备有限公司,30.69238597754698,104.17332916548283,公司企业;公司;公司
中国航油集团四川石油有限公司,30.729396477779368,104.10583736450508,公司企业;公司;公司
成都吉兆射频通信有限责任公司,30.688353601689453,104.16959949738465,公司企业;公司;公司
成都兴兴建筑机械租赁有限公司,30.710551625930574,104.10445400393246,公司企业;公司;公司
成都莱达机械电子有限公司配套部,30.687978159241975,104.10729241172373,公司企业;公司;机械电子
成都欣山海商贸有限公司,30.70423107367129,104.174167370423,公司企业;公司;商业贸易
成都焊科机器人有限公司,30.692606193280717,104.16390520840024,公司企业;公司;公司
四川杭叉工程机械销售有限公司,30.700438194370843,104.1620570767371,公司企业;公司;公司
同心缘壁纸有限公司成都分公司,30.730739523083415,104.10569006711108,公司企业;公司;公司
成都浩晨博览会议服务有限公司,30.70750080924785,104.10873014386483,公司企业;公司;公司
四川新亿日盛科技发展有限公司,30.689940320855868,104.1780589721794,公司企业;公司;公司
成都金龙燃气有限公司(老龙青路),30.719236619248235,104.13506247646778,公司企业;公司;公司
四川蓉创精工信息技术有限公司,30.696805500486096,104.17302811177096,公司企业;公司;公司
成都灵通智远维修服务有限公司,30.690011214859883,104.16048482127296,公司企业;公司;公司
四川省科学城中物科技有限公司,30.710344026986977,104.12126685464084,公司企业;公司;公司
成都市坎二哥餐饮管理有限公司,30.692302868904317,104.10720430339133,公司企业;公司;公司
四川成探地质勘查有限责任公司,30.693097016062215,104.10957005986627,公司企业;公司;公司
成都华桂防水保温工程有限公司,30.688145204228192,104.10164755798922,公司企业;公司;公司
成都人和厨房设备厂,30.697262214321754,104.151661959314,公司企业;工厂;工厂
杭川洁具厂,30.747549089332576,104.13190563118658,公司企业;工厂;工厂
四川省工业品电子商务有限公司,30.70397023324776,104.17618391163022,公司企业;公司;公司
成都圣菲体育场馆管理有限公司,30.71819008754181,104.10548425040511,公司企业;公司;公司
四川东方宇图信息技术有限公司,30.69606662702133,104.15878057776871,公司企业;公司;公司
三利水刀加工厂,30.720801887647408,104.13017909764004,公司企业;工厂;工厂
成都市年鑫泰商贸有限公司,30.759993948084997,104.11260766929404,公司企业;公司;商业贸易
黄金陶瓷加工厂,30.728569313928496,104.11664418231638,公司企业;工厂;工厂
中辉纸箱厂,30.731741774131326,104.12789813817993,公司企业;工厂;工厂
宏润陶瓷切割加工厂,30.728933358474805,104.12396746204617,公司企业;工厂;工厂
谋仕达陶瓷加工厂,30.729463074612415,104.10926462205504,公司企业;工厂;工厂
联宜加工厂,30.728618543047713,104.11664213272118,公司企业;工厂;工厂
成都长城宽带网络服务有限公司,30.718047986069482,104.16306902463104,公司企业;公司;公司
广州厨宝烘焙机械设备有限公司,30.68977278857551,104.11533976678624,公司企业;公司;公司
成都振源石化机械制造有限公司,30.698075848556307,104.1549317403537,公司企业;公司;公司
四川川恒控股集团股份有限公司,30.690781773476683,104.17859442543329,公司企业;公司;公司
旭阳传动系统工程(成都)有限公司,30.68949151782219,104.1658391295613,公司企业;公司;公司
成都恒泰汇盛商贸有限公司,30.768508367810828,104.10726663239828,公司企业;公司;商业贸易
四川顶锐液压设备制造有限公司,30.69002426105634,104.17115344025838,公司企业;公司;公司
四川成都鑫冠装饰材料有限公司,30.729747376313657,104.13137128650172,公司企业;公司;公司
群英纸箱厂,30.744690564099553,104.15243430047147,公司企业;工厂;工厂
成都佳奇金属机电制造有限公司,30.689569661937462,104.12476597430636,公司企业;公司;机械电子
唐氏原生态放养鸡,30.73173798868239,104.11938840859429,公司企业;农林牧渔基地;其它农林牧渔基地
四川精迅产品质量检测有限公司,30.704930434033823,104.17339517514267,公司企业;公司;公司
四川前锋门窗制造工程有限公司,30.68999224408192,104.16432009700823,公司企业;公司;公司
高嘉伟浴室柜水龙头,30.744006584710526,104.12702964736191,公司企业;工厂;工厂
白莲蜀绣厂,30.730967099934137,104.11053331024722,公司企业;工厂;工厂
西南广告字牌厂,30.71306274992405,104.12956051130466,公司企业;工厂;工厂
小东瓷砖切割加工厂,30.72777453377395,104.11877018043391,公司企业;工厂;工厂
野鸭子窗饰,30.705704863844083,104.11977202984313,公司企业;工厂;工厂
山美陶瓷,30.731475739594636,104.12972553102871,公司企业;工厂;工厂
腾飞水切割陶瓷加工厂,30.723428408506344,104.12759571699816,公司企业;工厂;工厂
顺福瓷砖加工厂,30.720938213759116,104.12902783299374,公司企业;工厂;工厂
欧美陶瓷加工厂,30.719278217336413,104.1302630337875,公司企业;工厂;工厂
兴达建材陶瓷加工厂,30.71948364302833,104.12976072832937,公司企业;工厂;工厂
盛延水刀磁砖加工厂,30.721044986780765,104.12866267036206,公司企业;工厂;工厂
成都三鼎暖通设备工程有限公司,30.728033031872332,104.10411556373738,公司企业;公司;公司
鑫源丰家具厂,30.762535209660008,104.10979986174236,公司企业;工厂;工厂
柯世达集团(东三环路二段辅路),30.690486035130593,104.16253006157825,公司企业;公司;公司
四川蓉众恒冷冻库安装有限公司,30.72028252312219,104.11080505100351,公司企业;公司;公司
成都云帆汽车配件销售有限公司,30.760272515465736,104.11550897274134,公司企业;公司;公司
成都东方广益投资有限公司,30.692128447724375,104.15964582276673,公司企业;公司;公司
成都市麒麟无纺布技术有限公司,30.765596445752546,104.11238896821263,公司企业;公司;公司
成都通威鱼有限公司生产配送中心,30.73099073536951,104.11348055959593,公司企业;公司;公司
中国石油成都润滑油厂,30.75961641549335,104.10759815453322,公司企业;工厂;工厂
旺嘉门业有限公司,30.757363429540053,104.17371704018667,公司企业;公司企业;公司企业
成都正大角线厂,30.720414554791333,104.14271457094061,公司企业;工厂;工厂
和谐水刀加工厂,30.722510448058884,104.12368946817207,公司企业;工厂;工厂
成都钢管厂,30.75956922182022,104.14771952844954,公司企业;公司企业;公司企业
金轩门窗加工厂,30.757007034164676,104.17412205324611,公司企业;公司企业;公司企业
精鑫模具厂,30.695621929734006,104.15305299582197,公司企业;工厂;工厂
成都华兴工具厂,30.69677491344232,104.15493705312892,公司企业;工厂;工厂
云智慧企业管理咨询有限责任公司,30.694605566021732,104.17921740797928,公司企业;公司;公司
成绵公司,30.768154968038314,104.17051039159985,公司企业;公司企业;公司企业
成都市斯达鑫辉视讯科技有限公司,30.695629790417165,104.1765184121469,公司企业;公司;公司
四川省世纪联发钢铁物资有限公司,30.704607446946678,104.17482378443506,公司企业;公司;公司
成都步步菲,30.754997562082323,104.1402158297178,公司企业;公司企业;公司企业
广州红日燃具有限公司四川市场部,30.687978159241975,104.10729241172373,公司企业;公司;公司
山顶鱼塘,30.747934519518484,104.12058554221697,公司企业;农林牧渔基地;其它农林牧渔基地
成都市海惠塑胶厂,30.727370481698305,104.10895070518322,公司企业;工厂;工厂
楚家刀,30.7620640940355,104.11816252536356,公司企业;工厂;工厂
成都雷奥风电传感器有限责任公司,30.68877544253116,104.17076376718272,公司企业;公司;公司
海力,30.690084321365518,104.16359988005739,公司企业;公司;公司
四川省欣阳贸易发展有限公司,30.751518292116796,104.10504820074922,公司企业;公司;商业贸易
成都美芙茗都商贸有限公司,30.72094682881656,104.1116532990119,公司企业;公司;商业贸易
中车置业(成都)有限公司,30.691063420613382,104.12726638997225,公司企业;公司企业;公司企业
雷驰,30.688528885191698,104.17832864336715,公司企业;公司;公司
成都理想汇贸易有限公司,30.70425694361734,104.17482236321938,公司企业;公司企业;公司企业
成都市美嘉华悦装饰工程有限公司,30.69940618923155,104.16266390663341,公司企业;公司;公司
成都诚至诚商务物流有限责任公司,30.689588756331712,104.15854148881922,公司企业;公司;公司
成都市夫夫饲料有限公司,30.7397728444019,104.11672305118627,公司企业;公司;公司
四川塞莱诺商贸有限公司,30.72759811272546,104.11994646655361,公司企业;公司企业;公司企业
利德生建设工程有限公司,30.691565582669003,104.17946301033119,公司企业;公司企业;公司企业
成都万贸行商贸有限公司,30.689053975172737,104.16380082883002,公司企业;公司企业;公司企业
四川鸿乐邦厨具有限公司,30.756940335551356,104.10174841588088,公司企业;公司企业;公司企业
成都健梓源科技有限公司,30.690525796357633,104.17424567328456,公司企业;公司企业;公司企业
成都车漫游科技有限公司,30.69212945329732,104.15965082122763,公司企业;公司企业;公司企业
陶艺加工厂,30.734180849185872,104.11548196220174,公司企业;工厂;工厂
成都市首信置业有限公司,30.709077371373777,104.1606367919459,公司企业;公司企业;公司企业
贵州黄果树原香生态蛋冷储保鲜直通车,30.715079369247142,104.10732365980066,公司企业;公司;公司
成都康佳顶业集成吊顶厂,30.73352760324022,104.13089583457146,公司企业;公司企业;公司企业
成都聚福轩门窗有限公司,30.728167999429104,104.12963870990092,公司企业;公司企业;公司企业
成都三合镇成实钢管厂,30.70940327724144,104.17776128217619,公司企业;工厂;工厂
四川新元达科技有限公司,30.68776846050956,104.13882851884259,公司企业;公司企业;公司企业
慕斯卫浴,30.745773725775397,104.11317865843463,公司企业;工厂;工厂
福建宏利陶瓷磨盘山仓库,30.732840435612907,104.12969331989385,公司企业;公司企业;公司企业
四川美丽源商贸有限公司,30.752422290859904,104.10346789442612,公司企业;公司企业;公司企业
宇锦轩唐卡厂,30.719081118261855,104.13018928213172,公司企业;工厂;工厂
江铃瓷业办事处,30.75742428444945,104.11030724361956,公司企业;公司企业;公司企业
四川新诚实钢构工程有限责任公司,30.704343264747298,104.17543825364449,公司企业;公司;公司
成都迪威排钉厂,30.7281891970003,104.10727170426195,公司企业;工厂;工厂
中冶建工集团有限公司四川分公司,30.691387079416682,104.1691087782371,公司企业;公司;公司
四川国中亿思通环保科技有限公司,30.755832971474426,104.1010013485558,公司企业;公司;公司
四川亨顺特智能遮阳技术有限公司,30.766601371332293,104.11693974360077,公司企业;公司;公司
成都嘉好房产海滨一社仓库,30.697579272944754,104.12118499969888,公司企业;公司;公司
成都兴蜀物资贸易有限公司,30.70567402185276,104.17271892288427,公司企业;公司;商业贸易
成都成美杰思环境工程设计有限公司,30.696901027555203,104.16299135055061,公司企业;公司;公司
甘肃盛和鑫科技贸易有限公司,30.696904959673706,104.17994830031053,公司企业;公司;商业贸易
成都兰色旅途体育场馆管理有限公司,30.70467376318443,104.15855270277552,公司企业;公司;公司
成都成量集团有限公司综合管理办公室,30.690109058744678,104.10786144923303,公司企业;公司;公司
中铁二十四局集团有限公司西南指挥部,30.688080449484683,104.17796547287895,公司企业;公司;公司
成都市白莲池纸箱加工厂,30.728289731982287,104.11922469421114,公司企业;工厂;工厂
辣木种植基地,30.73208241612888,104.11942610399093,公司企业;农林牧渔基地;其它农林牧渔基地
娇阳吊顶隔墙材料厂,30.72082671039829,104.13894976846906,公司企业;工厂;工厂
远航陶瓷&奥古世家陶瓷&怡美陶陶瓷库房,30.724839783500737,104.12343474796957,公司企业;公司;公司
梓宁建设有限公司商砼砂浆搅拌站,30.769535196353004,104.17881048394736,公司企业;公司;公司
中船重工(成都)炎兴电子科技有限公司,30.689345639728227,104.17790108114907,公司企业;公司;公司
成都市远洲物资贸易有限公司,30.762983750734367,104.10253427412945,公司企业;公司;商业贸易
成都扬航金属制品有限公司,30.756427385305653,104.11887100898426,公司企业;公司企业;公司企业
包达福文化传播有限公司,30.755718107886562,104.1502745460399,公司企业;公司企业;公司企业
BOSCH,30.70277471755837,104.16761142952578,公司企业;公司企业;公司企业
成都赏品天下商贸有限公司,30.697186016428773,104.17385547845353,公司企业;公司企业;公司企业
成都鑫腾花木园艺有限公司,30.7220213320369,104.12869847960678,公司企业;公司企业;公司企业
四川仲为教育科技有限公司,30.691796464854026,104.17934757590473,公司企业;公司企业;公司企业
成都生源电气工程有限公司,30.709749731677796,104.1137180910822,公司企业;公司企业;公司企业
四川盛世群运贸易有限责任公司,30.68939262963063,104.17871803489702,公司企业;公司;商业贸易
