name,lat,lng,type
席罐(凯德广场),30.630501835051486,104.14896518763733,餐饮服务;中餐厅;中餐厅
麻辣空间清油火锅(万科魅力店),30.62939976685353,104.15057860244593,餐饮服务;中餐厅;火锅店
重庆当年老火锅(成都旗舰店),30.628817735413296,104.15343547270173,餐饮服务;中餐厅;火锅店
董记川道拐耗儿鱼(万科魅力店),30.632727005030436,104.14924546625019,餐饮服务;中餐厅;四川菜(川菜)
九里・烤肉自助餐厅(凯德广场),30.630205464454765,104.14877752754857,餐饮服务;中餐厅;特色/地方风味餐厅
有食(匠作羊虾),30.63145137394774,104.1516512270952,餐饮服务;中餐厅;中餐厅
派乐美(凯德广场),30.630359052355807,104.1491453711546,餐饮服务;外国餐厅;西餐厅(综合风味)
醉・龙井轩森林火锅,30.588954448484117,104.15716063053708,体育休闲服务;休闲场所;休闲场所|餐饮服务;休闲餐饮场所;休闲餐饮场所
九锅一堂(凯德广场),30.630242828591925,104.14837145391974,餐饮服务;中餐厅;四川菜(川菜)
小丽江,30.591479619165302,104.15495554407423,餐饮服务;中餐厅;中餐厅
尊宝比萨(和韵路店),30.630323373503693,104.15475180544597,餐饮服务;快餐厅;快餐厅
大嘴霸王排骨(川师店),30.610158752504233,104.11478443341618,餐饮服务;中餐厅;中餐厅
爱彼西餐(凯德广场),30.630238815210603,104.14835745768139,餐饮服务;外国餐厅;西餐厅(综合风味)
西昌原味火盆烧烤(东洪店),30.609502714858817,104.14835047560128,餐饮服务;中餐厅;特色/地方风味餐厅
小龙坎老火锅(绿地中心店),30.612284820331332,104.13737431618783,餐饮服务;中餐厅;火锅店
良木缘(凯德广场),30.630534491680404,104.14785606858058,餐饮服务;咖啡厅;咖啡厅|餐饮服务;中餐厅;中餐厅
张大胡子(绿野天城店),30.625532626716815,104.10297183311728,餐饮服务;中餐厅;火锅店
销魂掌川派炭火干锅,30.63222270402941,104.15077420967702,餐饮服务;中餐厅;火锅店
醉城都火锅(和美店),30.632027747644376,104.15067044565829,餐饮服务;中餐厅;火锅店
好伦哥(凯德广场),30.630148244411078,104.14864458589442,餐饮服务;外国餐厅;西餐厅(综合风味)
阳光院坝小龙虾(静远路),30.621555231209044,104.10906123632883,餐饮服务;中餐厅;海鲜酒楼
山葵家日式料理(锦城店),30.598955893658495,104.13813877756779,餐饮服务;外国餐厅;外国餐厅
一把骨(川师店),30.60954276181271,104.11465568897708,餐饮服务;中餐厅;中餐厅
肥臀娃快捷火锅(成都万科魅力店),30.630989902804078,104.14751849517465,餐饮服务;中餐厅;火锅店
咕噜咕噜(凯德广场),30.630647699231222,104.14864298953954,餐饮服务;中餐厅;火锅店
席罐(凯德广场),30.630501835051486,104.14896518763733,餐饮服务;中餐厅;中餐厅
麻辣空间清油火锅(万科魅力店),30.62939976685353,104.15057860244593,餐饮服务;中餐厅;火锅店
重庆当年老火锅(成都旗舰店),30.628817735413296,104.15343547270173,餐饮服务;中餐厅;火锅店
董记川道拐耗儿鱼(万科魅力店),30.632727005030436,104.14924546625019,餐饮服务;中餐厅;四川菜(川菜)
九里・烤肉自助餐厅(凯德广场),30.630205464454765,104.14877752754857,餐饮服务;中餐厅;特色/地方风味餐厅
有食(匠作羊虾),30.63145137394774,104.1516512270952,餐饮服务;中餐厅;中餐厅
派乐美(凯德广场),30.630359052355807,104.1491453711546,餐饮服务;外国餐厅;西餐厅(综合风味)
醉・龙井轩森林火锅,30.588954448484117,104.15716063053708,体育休闲服务;休闲场所;休闲场所|餐饮服务;休闲餐饮场所;休闲餐饮场所
九锅一堂(凯德广场),30.630242828591925,104.14837145391974,餐饮服务;中餐厅;四川菜(川菜)
小丽江,30.591479619165302,104.15495554407423,餐饮服务;中餐厅;中餐厅
尊宝比萨(和韵路店),30.630323373503693,104.15475180544597,餐饮服务;快餐厅;快餐厅
大嘴霸王排骨(川师店),30.610158752504233,104.11478443341618,餐饮服务;中餐厅;中餐厅
爱彼西餐(凯德广场),30.630238815210603,104.14835745768139,餐饮服务;外国餐厅;西餐厅(综合风味)
西昌原味火盆烧烤(东洪店),30.609502714858817,104.14835047560128,餐饮服务;中餐厅;特色/地方风味餐厅
小龙坎老火锅(绿地中心店),30.612284820331332,104.13737431618783,餐饮服务;中餐厅;火锅店
良木缘(凯德广场),30.630534491680404,104.14785606858058,餐饮服务;咖啡厅;咖啡厅|餐饮服务;中餐厅;中餐厅
张大胡子(绿野天城店),30.625532626716815,104.10297183311728,餐饮服务;中餐厅;火锅店
销魂掌川派炭火干锅,30.63222270402941,104.15077420967702,餐饮服务;中餐厅;火锅店
醉城都火锅(和美店),30.632027747644376,104.15067044565829,餐饮服务;中餐厅;火锅店
好伦哥(凯德广场),30.630148244411078,104.14864458589442,餐饮服务;外国餐厅;西餐厅(综合风味)
阳光院坝小龙虾(静远路),30.621555231209044,104.10906123632883,餐饮服务;中餐厅;海鲜酒楼
山葵家日式料理(锦城店),30.598955893658495,104.13813877756779,餐饮服务;外国餐厅;外国餐厅
一把骨(川师店),30.60954276181271,104.11465568897708,餐饮服务;中餐厅;中餐厅
肥臀娃快捷火锅(成都万科魅力店),30.630989902804078,104.14751849517465,餐饮服务;中餐厅;火锅店
咕噜咕噜(凯德广场),30.630647699231222,104.14864298953954,餐饮服务;中餐厅;火锅店
小二班(锦城店),30.598448002809565,104.13824976462848,餐饮服务;中餐厅;火锅店|餐饮服务;中餐厅;特色/地方风味餐厅
九里三分火锅(东门店水杉街店),30.608937981660127,104.12546989305996,餐饮服务;中餐厅;火锅店
斗锅(凯德广场),30.630466620034724,104.14905823644614,餐饮服务;中餐厅;四川菜(川菜)
二少爷的西厨房(万科店),30.629858926585456,104.15068607321857,餐饮服务;外国餐厅;外国餐厅
味绝美蛙鱼头火锅(蓝光锦绣城店),30.631305861951574,104.15115437043723,餐饮服务;中餐厅;火锅店
钢管厂五区小郡肝串串香(万科魅力店),30.62998758662861,104.15060491583814,餐饮服务;中餐厅;中餐厅
高记什邡肖麻辣(成都店),30.62056798076841,104.11518466221635,餐饮服务;中餐厅;火锅店|餐饮服务;中餐厅;特色/地方风味餐厅
佬革命主题火锅(川师店),30.620225351464544,104.1184222438901,餐饮服务;中餐厅;火锅店
得瑟烤肉馆(锦江店),30.599140935845348,104.13794076702678,餐饮服务;中餐厅;特色/地方风味餐厅
红头花舌(万科城市花园店),30.620303719659972,104.10924733920943,餐饮服务;中餐厅;中餐厅
晶泽丽琅印象・美食,30.613434840711534,104.1116154605017,餐饮服务;中餐厅;四川菜(川菜)
四豪鱼乡火锅(蓝谷地店),30.610118867341907,104.12784459798898,餐饮服务;中餐厅;火锅店
肯德基(蓝谷地DT店),30.607949378132155,104.11685750717803,餐饮服务;快餐厅;肯德基
肯德基(成都东站),30.6333181754753,104.13571968967756,餐饮服务;快餐厅;肯德基
蜀味行家民间菜,30.609525597600797,104.14193898863245,餐饮服务;中餐厅;特色/地方风味餐厅
金钩钓老火锅旗舰店,30.621668822344397,104.12433050823317,餐饮服务;中餐厅;火锅店
金五门秘制老火锅(锦城店),30.598712009588024,104.13803576045066,餐饮服务;中餐厅;火锅店
老柴房柴火鸡(航天立交店),30.61096324503865,104.14846282606251,餐饮服务;中餐厅;中餐厅
乐山油炸串串,30.621614091774024,104.10314762165153,餐饮服务;中餐厅;特色/地方风味餐厅
麦当劳(凯德魅力城店),30.630032488760364,104.14907375376379,餐饮服务;快餐厅;麦当劳
音乐厨房(静和路),30.626263264727164,104.11523521781164,餐饮服务;中餐厅;中餐厅|餐饮服务;休闲餐饮场所;休闲餐饮场所
海盗欢乐鱼捞(绿地店),30.60899227686099,104.1429952876586,餐饮服务;中餐厅;中餐厅
好来客自助烤肉,30.619542956095863,104.15907297269379,餐饮服务;中餐厅;特色/地方风味餐厅
三顾冒菜(成都万科店),30.63281695921332,104.14816427450485,餐饮服务;中餐厅;中餐厅
儿时的回忆麻辣烫(观音桥街),30.62278537892171,104.10334657079363,餐饮服务;中餐厅;特色/地方风味餐厅
乡村基(凯德广场),30.630859025454864,104.14802169006434,餐饮服务;快餐厅;快餐厅
8号厚厨(芙蓉西路店),30.612027490100818,104.13690241484558,餐饮服务;中餐厅;中餐厅
钢管厂五区小肫肝串串香(468公馆店),30.608936177268,104.14302431217473,餐饮服务;中餐厅;中餐厅
小郡肝串串香(水杉店),30.608838877353953,104.12536292297187,餐饮服务;中餐厅;中餐厅
王大爷(万科店),30.629728409452387,104.15043220854143,餐饮服务;中餐厅;特色/地方风味餐厅
乡之味自贡一绝鲜锅兔(梅林店),30.59133587231728,104.12575622670978,餐饮服务;中餐厅;中餐厅
粥祥海鲜粥(凯德广场),30.630422690320934,104.1484172428791,餐饮服务;中餐厅;海鲜酒楼
麦当劳(成都东站),30.632454088394358,104.13918506034969,餐饮服务;快餐厅;麦当劳
重庆门外汉老火锅(万科店),30.614662091858847,104.11098766121998,餐饮服务;中餐厅;火锅店
一把骨(魅力店),30.629958488208324,104.15050894338987,餐饮服务;中餐厅;中餐厅
鼎味美蛙鱼头火锅(川师店),30.609918528416184,104.11435250010351,餐饮服务;中餐厅;中餐厅
三只熊披萨(蓝谷地店),30.60759295020155,104.1212400213024,餐饮服务;快餐厅;快餐厅
野烧烤(万科魅力店),30.632052868541614,104.15068841564243,餐饮服务;中餐厅;特色/地方风味餐厅
状元水饺(凯德广场),30.63070506104322,104.14846890802207,餐饮服务;中餐厅;特色/地方风味餐厅
春阳水饺(川师店),30.609565532413935,104.1152547339286,餐饮服务;中餐厅;特色/地方风味餐厅
拍拍掌特色干锅・汤锅・炒菜(凯旋天地店),30.614400692686683,104.12387498021107,餐饮服务;中餐厅;中餐厅
李先生(成都东站餐厅),30.6333985127354,104.135918602227,餐饮服务;快餐厅;快餐厅
一洋刺身(魅力城店),30.62938266912289,104.15061462485245,餐饮服务;外国餐厅;日本料理
秋井金枪鱼刺身,30.609651781605578,104.11501667570462,餐饮服务;外国餐厅;日本料理
王大爷烧烤(468店),30.609048425913933,104.14285625465199,餐饮服务;中餐厅;特色/地方风味餐厅
让鸭脑壳飞(万科魅力店),30.62943267770275,104.1511306031566,餐饮服务;中餐厅;中餐厅
武胜段记猪肝面(卓锦城店),30.60301303754909,104.13206405633785,餐饮服务;中餐厅;中餐厅
梅花寨柴火鸡,30.591382696054882,104.12597326267802,餐饮服务;中餐厅;中餐厅
转转会家常菜馆(沙河店),30.62341993922116,104.10981858412417,餐饮服务;中餐厅;中餐厅
满当当原炭烤鱼(凯德广场),30.630591354065746,104.14879206791818,餐饮服务;中餐厅;特色/地方风味餐厅
六年、二班串串,30.63391445571427,104.14889291576667,餐饮服务;中餐厅;中餐厅
六年、二班串串(大观路分校区),30.61393978182993,104.12788660326994,餐饮服务;中餐厅;火锅店
大龙火锅(概念店),30.60947147246741,104.14202101762461,餐饮服务;中餐厅;火锅店
木叔叔的烤吧,30.62706342383135,104.11380923168599,餐饮服务;中餐厅;中餐厅
菌林天下(万科店),30.629958488208324,104.15050894338987,餐饮服务;中餐厅;中餐厅
人民食堂(万科魅力店),30.631937817267353,104.14724831206854,餐饮服务;中餐厅;中餐厅
说好的火盆烧烤,30.630812111821687,104.15178201427352,餐饮服务;中餐厅;特色/地方风味餐厅
人民食堂(国槐街店),30.612205034869202,104.12751755254459,餐饮服务;中餐厅;中餐厅
黄记煌三汁焖锅(凯德广场),30.63038028934096,104.1488483245164,餐饮服务;中餐厅;特色/地方风味餐厅
乡村房子放心食材展示区,30.630807620408007,104.15507124645094,餐饮服务;中餐厅;中餐厅
九香烤脑花烤鱼,30.609566564424423,104.1151867273086,餐饮服务;中餐厅;特色/地方风味餐厅
九格子老火锅(成渝立交店),30.63025801723377,104.15483288877056,餐饮服务;中餐厅;火锅店
百度缘(红砂店),30.59166937445936,104.15480260188828,餐饮服务;休闲餐饮场所;休闲餐饮场所
成华区牛华绿缘麻辣烫(万科魅力店),30.629515138985358,104.15098149665505,餐饮服务;快餐厅;快餐厅
蓉味小厨(凯德广场),30.63028257772731,104.1493684782276,餐饮服务;中餐厅;四川菜(川菜)
自贡精品盐帮菜,30.631975854662482,104.15207260867943,餐饮服务;中餐厅;四川菜(川菜)
蓉城传奇新派冒菜(沙河店),30.62182897101628,104.11188125357455,餐饮服务;中餐厅;中餐厅
荣寿司(凯德广场),30.630520055803288,104.1486721447708,餐饮服务;外国餐厅;日本料理
杨御厨冒菜王(蓝谷地店),30.607778434363883,104.12294910698701,餐饮服务;中餐厅;中餐厅
小诸葛烤鱼干锅(二店),30.60995468855413,104.11413246417054,餐饮服务;中餐厅;特色/地方风味餐厅
恬小姐的花园,30.590900015529048,104.13161455439078,餐饮服务;中餐厅;特色/地方风味餐厅
串天下串串香(绿地中心店),30.612145412620382,104.13763041041055,餐饮服务;中餐厅;火锅店
望江宾馆普吉岛餐厅,30.63033030501634,104.11031919274737,餐饮服务;中餐厅;中餐厅
小庭院乡土菜(蓝谷地店),30.609270711393936,104.12725191068009,餐饮服务;中餐厅;中餐厅
沈小福成都滋味米线(喜树街),30.59840252029743,104.14162202442793,餐饮服务;中餐厅;四川菜(川菜)
罗氏大碗面(万科北街),30.63232663515431,104.1476568564324,餐饮服务;中餐厅;中餐厅
后花园・骚鹅庄,30.59870789748347,104.1382907803745,餐饮服务;中餐厅;中餐厅
绿心韩式拌饭(川师南大门店),30.609953164444402,104.11530257152612,餐饮服务;外国餐厅;韩国料理
TT老火锅(水杉街店),30.609865519538765,104.12764369250549,餐饮服务;中餐厅;火锅店
油桶炭烤,30.629753944399905,104.14951011300832,餐饮服务;外国餐厅;外国餐厅
鱼摆摆家柴火鸡,30.592727516134975,104.13063211224997,餐饮服务;中餐厅;特色/地方风味餐厅
乐山饭店(惠王陵东路),30.61880878440139,104.16083667678966,餐饮服务;中餐厅;中餐厅
沈小福成都滋味米线餐厅(静和路),30.626644218274464,104.11458975419066,餐饮服务;中餐厅;四川菜(川菜)
PIZZA 4U披萨(锦江城市花园店),30.59876380035948,104.13847079684157,餐饮服务;快餐厅;快餐厅
上黄焖鸡米饭(川师店),30.61076940552397,104.11355304044086,餐饮服务;中餐厅;中餐厅
霸王螺蛳粉(静安路店),30.610762546574584,104.11320801199459,餐饮服务;中餐厅;特色/地方风味餐厅
德克士(火车东站2店),30.63308922237161,104.1351449370776,餐饮服务;快餐厅;快餐厅
那年遇见・串串(万科店),30.63216139930836,104.15074928455337,餐饮服务;中餐厅;特色/地方风味餐厅
隐约,30.589851952700474,104.13168912611323,餐饮服务;中餐厅;中餐厅|餐饮服务;休闲餐饮场所;休闲餐饮场所|体育休闲服务;休闲场所;休闲场所
重庆老五一火锅,30.625435191614336,104.10302293837783,餐饮服务;中餐厅;火锅店
盐帮食坊(四川师大店),30.610797479692796,104.11350402268641,餐饮服务;中餐厅;中餐厅
唐三宝排骨连锅(洪河店),30.617248754701667,104.16363303930247,餐饮服务;中餐厅;中餐厅
农夫柴火鸡,30.58972124304185,104.12490649511054,餐饮服务;中餐厅;特色/地方风味餐厅
彭记阳光餐厅(静安路),30.61127773161016,104.11275072166123,餐饮服务;中餐厅;中餐厅
行大田(凯德广场),30.63081682225294,104.14800673995383,餐饮服务;外国餐厅;牛扒店(扒房)
庭园花园食府鳝鱼庄(净居寺店),30.62346291994689,104.10353894780904,餐饮服务;中餐厅;中餐厅
陈氏香鹅掌(卓锦店),30.602412342538237,104.13305121672931,餐饮服务;中餐厅;综合酒楼
重庆石坝子老火锅(洪河店),30.618400244929063,104.16364917447628,餐饮服务;中餐厅;火锅店
壹伍宜食冒菜馆,30.609734891776675,104.11508164609253,餐饮服务;中餐厅;中餐厅
高记满口香串串牛杂火锅,30.62017700461044,104.10987450451819,餐饮服务;中餐厅;火锅店
蓉舒苑(精品店),30.589884428654493,104.15740307193013,体育休闲服务;休闲场所;休闲场所|餐饮服务;休闲餐饮场所;休闲餐饮场所
水饺,30.60793464066188,104.14095553055262,餐饮服务;中餐厅;特色/地方风味餐厅
南国印象,30.609570213095385,104.1272187831569,餐饮服务;中餐厅;中餐厅
大味生态火锅(川师店),30.6113904417222,104.12736795843226,餐饮服务;中餐厅;火锅店
牛王庙老味面(静居寺第三分店),30.62367124009587,104.10242663998272,餐饮服务;中餐厅;中餐厅
钟记土鸭,30.613931019429547,104.1273055594661,餐饮服务;中餐厅;中餐厅
好实惠土菜馆(川师南门店),30.60980800805168,104.1150976160563,餐饮服务;中餐厅;中餐厅
毛线签签(龙泉店),30.625973229245147,104.1640442846266,餐饮服务;中餐厅;特色/地方风味餐厅
邻湖水庄,30.58720052918612,104.13468805152068,餐饮服务;中餐厅;特色/地方风味餐厅
澳盟清汤鲜黄牛肉(洪河店),30.617743238968757,104.1636136724786,餐饮服务;中餐厅;中餐厅
杨铭宇黄焖鸡米饭(万科魅力之城店),30.630008631867604,104.14625557750426,餐饮服务;中餐厅;中餐厅
极品・鲜鱼府,30.607187947611674,104.1470922451656,餐饮服务;中餐厅;海鲜酒楼
三顾面(卓锦城店),30.602537476727335,104.13285718559676,餐饮服务;中餐厅;中餐厅
张烤肉(三圣乡店),30.6034019767976,104.14390792978588,餐饮服务;中餐厅;中餐厅
凉水井兔火锅,30.633917211013078,104.16288385363723,餐饮服务;中餐厅;火锅店
葵花里,30.58777857265641,104.1314501010111,餐饮服务;休闲餐饮场所;休闲餐饮场所
一纸馋自助海鲜烤肉牛排火锅,30.630303152266563,104.15054653752678,餐饮服务;中餐厅;火锅店
上上签(花园街),30.62003173779367,104.10936357833414,餐饮服务;中餐厅;中餐厅
鼎鲜味美蛙鱼头(洪河店),30.625786438270463,104.16402747867262,餐饮服务;中餐厅;中餐厅
吃串串店(静居寺店),30.623686544993316,104.10188157240792,餐饮服务;中餐厅;中餐厅
菌亭.野生菌汤锅(曼购武陵山珍升级店),30.59942260511608,104.13180927719907,餐饮服务;中餐厅;中餐厅
香锅小厨(凯德广场),30.630548310472513,104.14841409233858,餐饮服务;中餐厅;中餐厅
斗城老妈砂锅串串(蓝谷地店),30.60760797338135,104.12123201548336,餐饮服务;中餐厅;火锅店
万州烤鱼(锦绣城店),30.631865374291213,104.15188273260341,餐饮服务;中餐厅;特色/地方风味餐厅
牧钿清汤黄牛肉(绿地形象店),30.610949084784906,104.13975217918204,餐饮服务;中餐厅;火锅店
巴蜀太婆砂锅串串,30.62771195873285,104.11243939619534,餐饮服务;中餐厅;火锅店
梅林情怀,30.589706841767764,104.1303459505168,餐饮服务;中餐厅;中餐厅
妙小二老火锅串串(绿地概念店),30.612763839155228,104.13741105880625,餐饮服务;中餐厅;火锅店
兵哥豌豆面(万科魅力店),30.63051969762073,104.14723204098887,餐饮服务;中餐厅;中餐厅
彭氏串串(锦江店),30.5976062141845,104.1408519066429,餐饮服务;中餐厅;火锅店
张砂锅米线,30.6100193486013,104.1151455281566,餐饮服务;中餐厅;中餐厅
自留田西北菜(凯德魅力城店),30.63015429673649,104.14859357504622,餐饮服务;中餐厅;西北菜
雷门拉面(卓锦曼购中心),30.599308723706027,104.13159125766934,餐饮服务;中餐厅;中餐厅
草屋烧烤(净居寺南街),30.623364940721213,104.10263495442547,餐饮服务;中餐厅;中餐厅
川魂帽牌货冒菜(牡丹街),30.601050233738828,104.1392888374924,餐饮服务;中餐厅;四川菜(川菜)
宜宾燃面(静居寺店),30.62582780826704,104.1031405434219,餐饮服务;中餐厅;中餐厅
东村渔家,30.604231916406782,104.14296470891557,餐饮服务;中餐厅;海鲜酒楼
重庆晓宇火锅(川师店),30.6153865587281,104.12535447895841,餐饮服务;中餐厅;中餐厅
御膳宫(绿地468公馆店),30.61083375011771,104.1400172547738,餐饮服务;中餐厅;特色/地方风味餐厅
大东家庭院火锅(蓝谷地店),30.60791018639187,104.12165894806503,餐饮服务;中餐厅;火锅店
相处一味妈妈菜,30.630306171082037,104.15053753329467,餐饮服务;中餐厅;中餐厅
尧尧烧烤馆,30.623934145938573,104.10274041504142,餐饮服务;中餐厅;特色/地方风味餐厅
宜宾燃面(海桐街),30.611931718477106,104.12694864780609,餐饮服务;中餐厅;中餐厅
汉堡王(华宇店),30.62576269077299,104.11840502725082,餐饮服务;快餐厅;快餐厅
蜀香冒菜,30.610051453737935,104.11503450387815,餐饮服务;中餐厅;四川菜(川菜)
宜宾燃面(沙河中心店),30.622483681838936,104.11127760055494,餐饮服务;中餐厅;中餐厅
肯德基(凯旋DT店),30.61408559958492,104.1245942350088,餐饮服务;快餐厅;肯德基
宜宾燃面,30.603270823775603,104.14409296463845,餐饮服务;中餐厅;中餐厅
辣么哆自贡特色菜,30.626895520541954,104.11415944513804,餐饮服务;中餐厅;中餐厅
周黑鸭(成都地铁洪河店),30.608596928172755,104.15370321849869,餐饮服务;中餐厅;特色/地方风味餐厅
有盐有味土菜馆(锦江大道),30.60129351409389,104.14098795338803,餐饮服务;中餐厅;特色/地方风味餐厅
尊宝比萨(锦江大道店),30.59884892394807,104.13813677378764,餐饮服务;快餐厅;快餐厅
蜀签签(茶花街店),30.60780069935334,104.13366200070159,餐饮服务;中餐厅;火锅店
胖姐串串冒菜,30.628896275270044,104.1128210986791,餐饮服务;中餐厅;火锅店
冒牌火锅菜(川师店),30.61333427694591,104.15734119104579,餐饮服务;中餐厅;火锅店
良牛满赞潮汕牛肉(凯德魅力之城店),30.629628919190463,104.1504573267985,餐饮服务;中餐厅;中餐厅
秦云老太婆摊摊面(蓝光锦绣店),30.631941708831132,104.15200764658485,餐饮服务;中餐厅;中餐厅
美味轩中餐,30.6162122892493,104.1625077042998,餐饮服务;中餐厅;中餐厅
沈小福(老川师店),30.617717198954164,104.11855224817089,餐饮服务;中餐厅;中餐厅
刘明记双流老妈兔头(卓锦城店),30.603004123092774,104.13186204101666,餐饮服务;中餐厅;中餐厅
满口香(城市职业技术学院店),30.612971736454227,104.15896350477118,餐饮服务;中餐厅;中餐厅
乐山牛华绿缘麻辣烫(花园街店),30.620173958875736,104.10995351444787,餐饮服务;中餐厅;特色/地方风味餐厅
三顾冒菜(蓝谷地合欢店),30.60779915617647,104.12138996344336,餐饮服务;中餐厅;中餐厅
广式肠粉锅巴土豆,30.609759746438858,104.11550167359238,餐饮服务;快餐厅;快餐厅
冒牌火锅菜(三圣多店),30.600839543814683,104.14079296605736,餐饮服务;中餐厅;火锅店
碳在烧烤肉(华宇广场店),30.6267455868924,104.116995862939,餐饮服务;中餐厅;特色/地方风味餐厅
韩国烤肉,30.609528716399566,104.11470569945047,餐饮服务;快餐厅;快餐厅
紫燕百味鸡(海桐店),30.611711113170365,104.12729679086269,餐饮服务;中餐厅;特色/地方风味餐厅
宜宾燃面(锦城店),30.59608064370213,104.10849192684826,餐饮服务;中餐厅;中餐厅
重庆鸡公煲(老字号特色干锅),30.619194504684145,104.15976430016924,餐饮服务;中餐厅;火锅店
贡味鲜鲜锅兔(城市花园店),30.598613703509717,104.13879481579508,餐饮服务;中餐厅;中餐厅
让鸭脑壳飞(绿地468店),30.609244870813797,104.14255215192664,餐饮服务;中餐厅;中餐厅
小龙坎(成渝概念店),30.632044604338837,104.1556587692753,餐饮服务;中餐厅;火锅店
御品小笼(凯德广场),30.630207615714156,104.14846250232513,餐饮服务;中餐厅;中餐厅
万州烤鱼(蓝谷地店),30.607791175311213,104.12132296033907,餐饮服务;中餐厅;特色/地方风味餐厅
麦当劳(卓锦曼购中心餐厅),30.599028901337586,104.13133423020531,餐饮服务;快餐厅;麦当劳
宜宾燃面(皇经楼二街),30.59545041266524,104.10351734181721,餐饮服务;中餐厅;特色/地方风味餐厅
灶门签串串香,30.60968957733079,104.11561671411943,餐饮服务;中餐厅;特色/地方风味餐厅
祖母的厨房(卓锦曼购中心),30.59929872616097,104.13159025742347,餐饮服务;外国餐厅;西餐厅(综合风味)
第五元素咖啡厅,30.600662477034707,104.13866580881624,餐饮服务;咖啡厅;咖啡厅|餐饮服务;中餐厅;中餐厅
老兵烧菜,30.630182429286783,104.14636637984376,餐饮服务;中餐厅;中餐厅
砂锅米线(通盈街店),30.632934996248064,104.1049104745876,餐饮服务;中餐厅;中餐厅
熳生活吊炉烤吧,30.609616588075696,104.14229897760569,餐饮服务;中餐厅;特色/地方风味餐厅
川西坝子,30.612517362472094,104.13727418307418,餐饮服务;中餐厅;火锅店|餐饮服务;茶艺馆;茶艺馆
有滋有味,30.63126179171228,104.15529171000765,餐饮服务;中餐厅;中餐厅
好又来饭店(洪河大道北路),30.63120019479446,104.16041512377345,餐饮服务;中餐厅;中餐厅
520牛扒烤肉海鲜,30.63222270402941,104.15077420967702,餐饮服务;中餐厅;海鲜酒楼
杂家,30.592091691356302,104.15257959363232,餐饮服务;中餐厅;中餐厅
兄弟烧烤(佳宏北路店),30.619655073656894,104.12368717990513,餐饮服务;中餐厅;特色/地方风味餐厅
德福跷脚牛肉,30.59878680060948,104.13845479649086,餐饮服务;快餐厅;快餐厅
袁记串串香(川师店),30.609774734735296,104.11558467467394,餐饮服务;中餐厅;中餐厅
憨参砂锅串串,30.632585819267025,104.14801555630815,餐饮服务;中餐厅;火锅店
五味缘钢管厂小郡肝串串香(蓝谷地店),30.609814452781315,104.1275987108548,餐饮服务;中餐厅;特色/地方风味餐厅
小郡肝串串香(三圣乡店),30.60336994765324,104.14393393692316,餐饮服务;中餐厅;中餐厅
吉仁阁私房菜,30.62196353993331,104.11619252564772,餐饮服务;中餐厅;综合酒楼
蜀山转小火锅串串,30.61196636186125,104.12791071114529,餐饮服务;中餐厅;火锅店
兰州牛肉拉面(静沙南路店),30.622499903769164,104.11091855227541,餐饮服务;中餐厅;清真菜馆
雅安张记木桶鱼(洪河店),30.61633824393316,104.1634016734201,餐饮服务;中餐厅;中餐厅
宜宾燃面(嘉陵江路),30.632236349438134,104.14278460900368,餐饮服务;中餐厅;中餐厅
宜宾燃面(樱花街),30.60936390858951,104.14740446466944,餐饮服务;中餐厅;中餐厅
三顾冒菜(合能锦城店),30.598832042607505,104.13788075297083,餐饮服务;中餐厅;中餐厅
鼎盛北京烤鸭,30.595129894192915,104.10312524142438,餐饮服务;中餐厅;中餐厅
天天鱼,30.622056094291015,104.11571939896723,餐饮服务;中餐厅;中餐厅
宜宾燃面(万科店),30.629964429161753,104.1462286277108,餐饮服务;中餐厅;中餐厅
宜宾燃面(静祥路店),30.604513340301974,104.11998075738205,餐饮服务;中餐厅;中餐厅
开心80串串,30.61062955243614,104.14411466341534,餐饮服务;快餐厅;快餐厅
情串串,30.62109507412062,104.13257970700273,餐饮服务;中餐厅;火锅店
胖娃娃鸭脑壳,30.611364634538692,104.13806584466063,餐饮服务;中餐厅;特色/地方风味餐厅
必胜宅急送(凯旋店),30.61400454866854,104.12426825588578,餐饮服务;快餐厅;必胜客
香辣冒菜(皇经楼店),30.59559561627492,104.1050025118018,餐饮服务;中餐厅;中餐厅
祥和山庄(醉香路),30.588794594203463,104.13069955555795,体育休闲服务;休闲场所;休闲场所|餐饮服务;中餐厅;中餐厅
宜宾燃面(牡丹街),30.600706453462465,104.14097498652562,餐饮服务;中餐厅;特色/地方风味餐厅
宜宾燃面(水杉街店),30.609980890334626,104.12725460915627,餐饮服务;中餐厅;特色/地方风味餐厅
深夜食堂串吧,30.615424656886454,104.12536045441428,餐饮服务;中餐厅;中餐厅
中餐米汤饭(上东阳光店),30.62593695814831,104.16430433872776,餐饮服务;中餐厅;中餐厅
私房苗生椒牛肉面,30.618802770222818,104.15631838407441,餐饮服务;中餐厅;中餐厅
余记佳味香(川师加盟店),30.617278853147646,104.1186305789214,餐饮服务;快餐厅;快餐厅
全勇好吃夜啤酒,30.62895574271133,104.11240499232454,餐饮服务;中餐厅;中餐厅
龙丹路家常味水饺,30.612249580225967,104.13999754019765,餐饮服务;中餐厅;特色/地方风味餐厅
田园石锅河鲜(洪河大道),30.619976403133457,104.16358790411893,餐饮服务;中餐厅;中餐厅
三国惹火烤肉(海上海店),30.630045080095226,104.15460512580007,餐饮服务;中餐厅;特色/地方风味餐厅
三顾冒菜(锦城逸景店),30.59287808621514,104.1087252095392,餐饮服务;中餐厅;四川菜(川菜)
胖子烧烤(合欢树街),30.611007788116304,104.13166950463703,餐饮服务;中餐厅;特色/地方风味餐厅
赵婆婆小龙虾,30.626265803298352,104.10290406112486,餐饮服务;中餐厅;海鲜酒楼
西昌印象火盆烧烤(国槐街店),30.618104864361726,104.13093501888774,餐饮服务;中餐厅;特色/地方风味餐厅
故里蓉城冒菜(静安路川师本部店),30.609856949003735,104.11541662385724,餐饮服务;中餐厅;中餐厅
三顾冒菜(航天立交店),30.61303285234606,104.13872801206915,餐饮服务;中餐厅;中餐厅
吉祥大抄手,30.612246722041174,104.15769581767454,餐饮服务;中餐厅;中餐厅
正大鸡排(经天路),30.606712447910002,104.10424073775657,餐饮服务;快餐厅;快餐厅
云朵,30.607589688765334,104.13305802428935,餐饮服务;休闲餐饮场所;休闲餐饮场所
胡记斗碗面(樱花街店),30.613092427855683,104.13773490046445,餐饮服务;中餐厅;中餐厅
胡记勾魂面(海桐店),30.608945062716412,104.12980825685324,餐饮服务;中餐厅;中餐厅
百姓家园,30.58915427569068,104.15659468694686,餐饮服务;中餐厅;特色/地方风味餐厅
虾虾侬,30.62532343060186,104.1641409641174,餐饮服务;中餐厅;中餐厅
绝味干锅烤鱼(惠王陵东路店),30.618752777975086,104.15819454860238,餐饮服务;中餐厅;特色/地方风味餐厅
奥莉薇比萨(合能锦城店),30.59818959496214,104.13938983865495,餐饮服务;快餐厅;快餐厅
乐山油炸串串(四川师大店),30.609759746438858,104.11550167359238,餐饮服务;快餐厅;快餐厅
郎大叔石锅拌饭(锦江店),30.62410676208334,104.10291126260444,餐饮服务;外国餐厅;韩国料理
森然小铺,30.60990418517062,104.11506757156536,餐饮服务;中餐厅;台湾菜
舌尖上的鸭脑壳(锦瑞店),30.593234520453574,104.1088933303816,餐饮服务;中餐厅;中餐厅
川香人家(樱花街),30.613111433906543,104.13781789623148,餐饮服务;中餐厅;四川菜(川菜)
重庆临江门洞子老火锅(华府店),30.627373113802705,104.11313383264164,餐饮服务;中餐厅;火锅店
张记食味鲜家常菜,30.609329748749392,104.140880989159,餐饮服务;中餐厅;中餐厅
宜宾燃面,30.594348153837725,104.15149816339485,餐饮服务;中餐厅;中餐厅
东光口口香串串,30.607155919761265,104.14706625360459,餐饮服务;中餐厅;火锅店
花串串(芙蓉西路分店),30.609256357992013,104.14149606660727,餐饮服务;中餐厅;火锅店
缘乡小厨(静安路),30.611548280871844,104.11271558371969,餐饮服务;中餐厅;中餐厅
万州烤鱼王烤全羊(凯旋天地店),30.61485779353713,104.12398670321879,餐饮服务;中餐厅;中餐厅
边炭披萨(绿地468店),30.612540454771224,104.13942933953716,餐饮服务;外国餐厅;外国餐厅
香里香(和美东路店),30.63064143390506,104.14692987293033,餐饮服务;中餐厅;中餐厅
正宗乐山碗碗跷脚牛肉(和美西路),30.634368588201113,104.14737921201005,餐饮服务;中餐厅;中餐厅
风味豆花火锅(惠王陵东路店),30.619422674739873,104.16106519986502,餐饮服务;中餐厅;中餐厅
台食记美食便当(成龙路店),30.603934945720276,104.10425641646506,餐饮服务;快餐厅;快餐厅
MAX CHICKEN(合能锦城店),30.598305180532087,104.13796973440176,餐饮服务;外国餐厅;韩国料理
金沙羊肉米粉(观音桥街),30.620670514382233,104.10137427558051,餐饮服务;中餐厅;中餐厅
路人转粉(凯旋店),30.61435553323522,104.1239820173281,餐饮服务;快餐厅;快餐厅
凯赞多・披萨(成渝立交店),30.63154925523699,104.15526335573769,餐饮服务;快餐厅;快餐厅
川史冒菜(东洪店),30.609000179457475,104.14774963787755,餐饮服务;中餐厅;中餐厅
华德士(文理学院店),30.616716635168615,104.16042021789524,餐饮服务;快餐厅;快餐厅
霄味烧烤(合欢树街),30.608206473968497,104.12193586576589,餐饮服务;中餐厅;特色/地方风味餐厅
万州碗杂面(和韵路),30.628686152190696,104.15336061762714,餐饮服务;中餐厅;中餐厅
沈小福(万科魅力城店),30.632383897045425,104.1477337901424,餐饮服务;中餐厅;中餐厅
川魂帽牌货冒菜(邛崃山路店),30.63556102778429,104.14320731388584,餐饮服务;中餐厅;四川菜(川菜)
川史冒菜(惠王陵东路川史2店),30.619536121663828,104.15864895044281,餐饮服务;中餐厅;中餐厅
鸡汤铺盖面(惠王陵店),30.619659968873588,104.1599199321001,餐饮服务;快餐厅;快餐厅
玉花园,30.591113264933522,104.15490440405318,餐饮服务;休闲餐饮场所;休闲餐饮场所
绵阳米粉,30.613086722785063,104.15732033108404,餐饮服务;中餐厅;中餐厅
陈九妹清炖土鸡酒楼,30.600629434168507,104.15678413312139,餐饮服务;中餐厅;综合酒楼
pizza4u披萨(绿地468店),30.613131183934986,104.13848093709467,餐饮服务;外国餐厅;外国餐厅
花串串(川师店),30.6212564060066,104.12191966514132,餐饮服务;中餐厅;火锅店
罗妹冒节子肥肠粉(惠王陵东路店),30.61973532020024,104.15969485548177,餐饮服务;中餐厅;特色/地方风味餐厅
soso食坊(步步高店),30.620562855210427,104.12438548006348,餐饮服务;快餐厅;快餐厅
招牌卤肉饭(川师北大门店),30.617311155235072,104.1181675140117,餐饮服务;中餐厅;中餐厅
湘壹品,30.631333136514534,104.15532362496218,餐饮服务;中餐厅;中餐厅
佘氏家常菜,30.612998474249114,104.1484137609903,餐饮服务;中餐厅;中餐厅
杨记手撕烤兔,30.608267477239686,104.12212285973163,餐饮服务;中餐厅;特色/地方风味餐厅
一家冒菜(静安路店),30.609998282759122,104.11521154343929,餐饮服务;中餐厅;中餐厅
木槿韩国料理(惠王陵店),30.61904592436906,104.15998543354769,餐饮服务;外国餐厅;韩国料理
酸菜鱼米线(静居寺店),30.624236356859626,104.10275111963033,餐饮服务;中餐厅;中餐厅
琛哥茶餐室,30.623963402886464,104.10242835632685,餐饮服务;快餐厅;快餐厅
锦善家宴(三圣乡店),30.587261377865826,104.15934490213752,餐饮服务;中餐厅;中餐厅
东坡苑餐厅,30.616254727202815,104.16178562911202,餐饮服务;中餐厅;中餐厅
味来主角(四川城市职业学院校医院西北),30.613134829699632,104.15732430405731,餐饮服务;中餐厅;中餐厅
卷卷握寿司(半边街店),30.61973539279299,104.15953184480288,餐饮服务;外国餐厅;外国餐厅
芒果兔,30.596510180969,104.16723460316898,餐饮服务;中餐厅;中餐厅
小叙南食(凯德广场),30.630752331657295,104.14838784525239,餐饮服务;中餐厅;中餐厅
魏记查渣面(邛崃山路),30.63551593676571,104.14284934780893,餐饮服务;中餐厅;中餐厅
天城川菜馆,30.625310429477224,104.10355011713747,餐饮服务;中餐厅;四川菜(川菜)
千里香馄饨・面・黄焖鸡米饭(芙蓉西路),30.611816807552813,104.13746256851304,餐饮服务;中餐厅;特色/地方风味餐厅
皇棒,30.598696437791144,104.1393328616186,餐饮服务;中餐厅;中餐厅
一品快餐(四川城市职业学院校医院东北),30.612984782473436,104.15892549494129,餐饮服务;中餐厅;中餐厅
梅倚水畔农家乐(幸福村店),30.5916808131931,104.1313228217677,体育休闲服务;休闲场所;休闲场所|餐饮服务;中餐厅;中餐厅|餐饮服务;休闲餐饮场所;休闲餐饮场所
重庆老院子火锅城,30.61921696153209,104.16115337183969,餐饮服务;中餐厅;火锅店
红厨鲫鱼鸡私房菜馆,30.628259222150994,104.155482245696,餐饮服务;中餐厅;中餐厅
一鼎美蛙鱼头(静远路店),30.621285248877367,104.10907547668754,餐饮服务;中餐厅;火锅店
玫瑰兔头(川师店),30.618324089991578,104.16120707869214,餐饮服务;中餐厅;中餐厅
滋香基汉堡(川师店),30.622054126493786,104.1223459890434,餐饮服务;快餐厅;快餐厅
雅香阁私房菜,30.609188776738385,104.14256317566702,餐饮服务;中餐厅;中餐厅
兰州拉面(锦城逸景B区西),30.59474670806403,104.1088897121277,餐饮服务;中餐厅;清真菜馆
舒记家常菜馆,30.623667450067256,104.1019245950336,餐饮服务;中餐厅;中餐厅
祥和居土菜馆,30.621263126268346,104.14279036251328,餐饮服务;中餐厅;中餐厅
第一佳万州原木炭烤鱼(半边街店),30.619185235211873,104.15805019514676,餐饮服务;中餐厅;特色/地方风味餐厅
蔡莽子农家菜,30.62028030679943,104.13239639180054,餐饮服务;中餐厅;中餐厅
乡坝土菜馆(东站店),30.632268556926764,104.14269256173701,餐饮服务;中餐厅;中餐厅
万州味魂烤鱼(校园广场),30.610158752504233,104.11478443341618,餐饮服务;中餐厅;特色/地方风味餐厅
香里香黄焖鸡馄饨,30.606502855648873,104.13423046451034,餐饮服务;中餐厅;特色/地方风味餐厅
芙蓉树下冒菜(樱花街店),30.61305827262006,104.13791093363747,餐饮服务;中餐厅;中餐厅
舌见道风味小吃(首创国际店),30.63411346678592,104.14902966580684,餐饮服务;中餐厅;中餐厅
古嘉州乐山小吃,30.632629021895678,104.148065505362,餐饮服务;快餐厅;快餐厅
王记砂锅(氯寺),30.61755776803611,104.11844135689701,餐饮服务;中餐厅;中餐厅
醉郎传奇(惠王陵东路),30.618830243500707,104.16221074764844,餐饮服务;中餐厅;四川菜(川菜)
豆花饭庄(万科北街店),30.632592830256073,104.14807255157781,餐饮服务;中餐厅;中餐厅
月季饭店(东客站店),30.636118139844275,104.14324655999292,餐饮服务;中餐厅;中餐厅
三顾冒菜(成都锦绣城店),30.62872934095136,104.15339057049366,餐饮服务;中餐厅;中餐厅
舌尖冒菜(静沙南路),30.622122879034425,104.1145192292903,餐饮服务;中餐厅;中餐厅
小龙堂冒菜即时捞(凯德广场),30.63068095457939,104.14843993493851,餐饮服务;中餐厅;中餐厅
牛圈原汤・鲜烧・牛肉(锦逸店),30.593975554626198,104.10894453523443,餐饮服务;中餐厅;中餐厅
自贡盐帮江湖菜,30.625475343829557,104.10306190082744,餐饮服务;中餐厅;中餐厅
彭德楷黄焖鸡米饭(洪河店),30.619332738115347,104.15800307311827,餐饮服务;中餐厅;中餐厅
小熊湖虾工厂(万科魅力城店),30.632170429261237,104.15078627588376,餐饮服务;中餐厅;特色/地方风味餐厅
焖哥的诱惑,30.607724790075185,104.13322999195042,餐饮服务;快餐厅;快餐厅
恋日豆汤饭,30.63320790102903,104.15736141344908,餐饮服务;中餐厅;中餐厅
东北手工饺子王(静居寺店),30.623724717462608,104.10183453091506,餐饮服务;中餐厅;特色/地方风味餐厅
沁园春(惠王陵东路),30.618817502172487,104.16153571473318,餐饮服务;中餐厅;中餐厅
天府面馆(月季街),30.607811391656103,104.14114058821033,餐饮服务;中餐厅;中餐厅
廖记红油抄手(惠王陵东路),30.61904958612202,104.16077448163841,餐饮服务;中餐厅;中餐厅
爱食尚炒菜馆,30.61619116639345,104.162652728035,餐饮服务;中餐厅;中餐厅
饺子先生(卓锦城店),30.599286554647968,104.13198128944823,餐饮服务;快餐厅;快餐厅
老子土灶火锅,30.59811040415798,104.1398928725643,餐饮服务;中餐厅;火锅店
正宗武胜猪肝面(南充嘉陵区总店),30.601236713248838,104.14051892111787,餐饮服务;中餐厅;中餐厅
阿堡仔(锦城逸景店),30.593607251383112,104.1084053879842,餐饮服务;快餐厅;快餐厅
羊肉砂锅米线(凯德广场店),30.63093187342256,104.14693652311581,餐饮服务;快餐厅;快餐厅
品味小名堂(观音桥店),30.622498341518437,104.10322482587311,餐饮服务;中餐厅;中餐厅
蜀味引,30.626055995359483,104.10268026045445,餐饮服务;中餐厅;四川菜(川菜)
夜蹄花,30.60087736822027,104.13894482036035,餐饮服务;中餐厅;中餐厅
安隅,30.591027799583916,104.12935141542705,餐饮服务;快餐厅;茶餐厅
重庆鱼美佳火锅,30.6102250354916,104.11441136968712,餐饮服务;中餐厅;中餐厅
简屋花园餐厅,30.62463925053147,104.10665209261552,餐饮服务;中餐厅;中餐厅
双福记家常菜(樱花街店),30.61299229552767,104.13752594048614,餐饮服务;中餐厅;中餐厅
汇蜀川西坝子火锅(总店),30.629460451411394,104.15417578233922,餐饮服务;中餐厅;火锅店
私房水饺(邛崃山路),30.625016752684264,104.13809144316693,餐饮服务;中餐厅;特色/地方风味餐厅
状元过桥米线(川师店),30.619320966722352,104.15965419105687,餐饮服务;中餐厅;中餐厅
富顺豆花家常菜(祥和街店),30.62252592094767,104.14471036606817,餐饮服务;中餐厅;中餐厅
幺妹串串香(芙蓉西路),30.611695534260086,104.13752363546378,餐饮服务;中餐厅;火锅店
厕所串串(沙河店),30.62228190009083,104.11132779091025,餐饮服务;中餐厅;中餐厅
多乐(净居寺店),30.625698275122613,104.10309567372984,餐饮服务;快餐厅;快餐厅
周记绝味串串,30.60889855448113,104.14204425254894,餐饮服务;中餐厅;火锅店
毛记冒菜(静居店),30.623779833368804,104.10206449978986,餐饮服务;中餐厅;中餐厅
自贡特色罗抄手,30.596687065140483,104.14018175232985,餐饮服务;中餐厅;中餐厅
香木林,30.58905739076209,104.15679665495381,餐饮服务;休闲餐饮场所;休闲餐饮场所|体育休闲服务;休闲场所;休闲场所
青春忆串串,30.612987788564705,104.13864403086798,餐饮服务;中餐厅;中餐厅
荣晨串串香,30.59554265289635,104.10502750455069,餐饮服务;中餐厅;中餐厅
禾丰小面(锦城店),30.59849176227928,104.13875580672779,餐饮服务;中餐厅;中餐厅
叶小串,30.60138429792798,104.10333765797716,餐饮服务;中餐厅;中餐厅
神仙气功鱼(经天中路),30.60055558106845,104.10250962417715,餐饮服务;中餐厅;中餐厅
重庆面庄(净居寺南街),30.62360718341767,104.10198765930741,餐饮服务;中餐厅;四川菜(川菜)
友一家卤肉饭(樱花街店),30.6130583893283,104.13764891293859,餐饮服务;中餐厅;中餐厅
张记渝味面(锦江城市花园店),30.598183334758165,104.13998088430766,餐饮服务;中餐厅;中餐厅
小师傅脆鳝鱼义通(东光店),30.623437784489994,104.10362097979153,餐饮服务;中餐厅;特色/地方风味餐厅
馋嘴芋儿鸡米饭,30.625877928824973,104.10335051139508,餐饮服务;快餐厅;快餐厅
四筒串串,30.619096944756084,104.14905164454359,餐饮服务;中餐厅;中餐厅
神牛饭(凯德广场),30.63077452764972,104.14819580464165,餐饮服务;中餐厅;中餐厅
小可以鲶鱼馆,30.633244766199432,104.15586226595792,餐饮服务;中餐厅;中餐厅
徐记鸡杂面(菱窠路店),30.62013618628428,104.1181092908566,餐饮服务;中餐厅;中餐厅
邑味老妈砂锅串串(邛崃山路店),30.634904767930067,104.14236513041475,餐饮服务;中餐厅;中餐厅
红鑫家常菜馆(邛崃山路店),30.634698655631237,104.1423224009859,餐饮服务;中餐厅;中餐厅
乐享冒菜,30.591973429262417,104.10874791964837,餐饮服务;快餐厅;快餐厅
豇豆面(和美东路分店),30.630960086411854,104.15572710646109,餐饮服务;快餐厅;快餐厅
夫妻饭店家常菜,30.618905467338738,104.15323709244032,餐饮服务;中餐厅;中餐厅
吃货来了,30.620465236344113,104.13174118149577,餐饮服务;快餐厅;快餐厅
谢虾子,30.613013326689977,104.13756193149287,餐饮服务;中餐厅;海鲜酒楼
来御来三汁焖锅(卓锦曼购中心店),30.599292568996947,104.13194628666868,餐饮服务;中餐厅;中餐厅
黄焖鸡馄饨大王,30.614539232434623,104.12343785638419,餐饮服务;中餐厅;中餐厅
生椒牛肉面(沙河店),30.622404373231618,104.11129867567271,餐饮服务;中餐厅;中餐厅
馄饨王・煎饼锅锅,30.61106843083827,104.15751740516987,餐饮服务;快餐厅;快餐厅
徐记特色干锅,30.608854866173335,104.14795171019314,餐饮服务;中餐厅;中餐厅
邻水一面,30.621901388522495,104.14291880298914,餐饮服务;中餐厅;中餐厅
虾蟹浓海鲜大排档(娇子店),30.603155629135877,104.14439700524734,餐饮服务;中餐厅;海鲜酒楼
顺叁酒馆,30.590405059474374,104.13130232953765,餐饮服务;快餐厅;快餐厅
东北水饺(万科路),30.630558407148065,104.14607190973072,餐饮服务;中餐厅;特色/地方风味餐厅
瓦罐罐(氯寺),30.617348246866307,104.11820849051381,餐饮服务;中餐厅;中餐厅
大口潮火锅,30.592553900718443,104.1280928449196,餐饮服务;中餐厅;火锅店
小小叶开心花甲米线(龙泉分店),30.61734310837837,104.16120781666724,餐饮服务;中餐厅;中餐厅
鸡排太浪,30.625767208657155,104.10389967949598,餐饮服务;快餐厅;快餐厅
大观烧烤,30.62012068680114,104.13256253957573,餐饮服务;中餐厅;特色/地方风味餐厅
余氏胖姐特色串串・冒菜(分店),30.621296575246824,104.12186362488636,餐饮服务;中餐厅;火锅店
印巴精舍,30.59142597120051,104.1274334032654,餐饮服务;茶艺馆;茶艺馆|餐饮服务;休闲餐饮场所;休闲餐饮场所
拐仔肥肠粉儿(锦江逸家店),30.60585142962088,104.13364660005493,餐饮服务;中餐厅;中餐厅
杰先生餐吧,30.618339138266553,104.1612040668937,餐饮服务;中餐厅;中餐厅
食味,30.617899156999577,104.15584804978032,餐饮服务;休闲餐饮场所;休闲餐饮场所
李记牛王庙面馆,30.622062797130116,104.16358308541096,餐饮服务;中餐厅;中餐厅
绵阳米粉(芙蓉西路),30.608952672402527,104.14196622515023,餐饮服务;中餐厅;中餐厅
弥敦道茶餐室(川师北门店),30.621685864588127,104.12213530284359,餐饮服务;快餐厅;茶餐厅
圣花苑,30.58896083349661,104.15851172399566,餐饮服务;中餐厅;中餐厅|体育休闲服务;休闲场所;休闲场所
米线煮艺(凯德广场),30.630717162142673,104.14837688682347,餐饮服务;中餐厅;中餐厅
是友水饺(川师店),30.619659156968176,104.11904877012584,餐饮服务;中餐厅;特色/地方风味餐厅
纸包不住火包鱼(锦江国际花园店),30.620241492310928,104.12719499223695,餐饮服务;中餐厅;特色/地方风味餐厅
姜太公冷锅鱼,30.609710013570567,104.11471462332334,餐饮服务;中餐厅;火锅店
佳滋味快餐,30.61373654577456,104.15885005595788,餐饮服务;中餐厅;中餐厅
毛记冒菜(皇经楼二街店),30.595405784223736,104.10277926185223,餐饮服务;中餐厅;中餐厅
三叶草(滨湖西路),30.59141119248553,104.13147473677837,餐饮服务;中餐厅;特色/地方风味餐厅|体育休闲服务;休闲场所;休闲场所
豆花,30.60983850516463,104.12757269823702,餐饮服务;中餐厅;中餐厅
重庆烧烤(静沙南路),30.6220937240623,104.1146232653046,餐饮服务;中餐厅;特色/地方风味餐厅
万州烤鱼(梧桐路),30.6243895111374,104.16429291587654,餐饮服务;中餐厅;特色/地方风味餐厅
姐妹火锅兔,30.621329028217094,104.13231748015473,餐饮服务;中餐厅;中餐厅
重庆烤鱼(喜树街),30.593029163557144,104.13720273787527,餐饮服务;中餐厅;特色/地方风味餐厅
知味冒菜(和美西路),30.63393356699297,104.14887388950768,餐饮服务;中餐厅;中餐厅
正宗烤羊肉串,30.623523623869055,104.10250078940463,餐饮服务;中餐厅;清真菜馆
补食班,30.603932956484723,104.1042294142325,餐饮服务;快餐厅;快餐厅
壹品龙虾,30.608138508892473,104.12838444412003,餐饮服务;中餐厅;海鲜酒楼
功夫兔,30.631677316040932,104.15210598083489,餐饮服务;中餐厅;中餐厅
留一手烤鱼到店付(锦江大道店),30.598804937543417,104.13813477199413,餐饮服务;中餐厅;中餐厅
好巴食(静安路),30.61136884437335,104.11289769016224,餐饮服务;中餐厅;中餐厅
桃李园餐厅(槐径路),30.61373066135343,104.12030107320415,餐饮服务;中餐厅;中餐厅
正宗乐山碗碗跷脚牛肉(佳宏北路),30.62059021775179,104.12378640504768,餐饮服务;中餐厅;中餐厅
吃点东西,30.612644501323025,104.12858740569048,餐饮服务;中餐厅;中餐厅
家常面冒菜,30.622109938149794,104.1165164219264,餐饮服务;中餐厅;中餐厅
酒炙焖炉烤肉居酒屋,30.598834040698623,104.13788375328154,餐饮服务;中餐厅;特色/地方风味餐厅
槐花树,30.588960528481227,104.15695161935133,餐饮服务;中餐厅;中餐厅
草原巴骨牛肉(洪河店),30.616071966092246,104.16236179147394,餐饮服务;中餐厅;中餐厅
重庆银豌豆大排面(万科店),30.62927803590532,104.15091576744484,餐饮服务;中餐厅;中餐厅
晓宇火锅(海上海店),30.630630798593945,104.15494945108814,餐饮服务;中餐厅;火锅店
烤鱼(万科店),30.620312471239572,104.10987039006329,餐饮服务;中餐厅;中餐厅
罗记特色荤冒菜(皇经楼店),30.595412721393277,104.10290527539941,餐饮服务;中餐厅;中餐厅
龙姐面馆,30.60831457075239,104.1220638371734,餐饮服务;快餐厅;快餐厅
崃乐福家常菜(琉璃厂店),30.606901648202292,104.10428568403835,餐饮服务;中餐厅;中餐厅
广元特色小吃,30.620096595380634,104.13258356146524,餐饮服务;中餐厅;特色/地方风味餐厅
丽琴小吃(合欢树街),30.612083684138298,104.13223000877385,餐饮服务;中餐厅;中餐厅
桃园三签串串香(蓝谷地形象店),30.611676363074938,104.1288249372752,餐饮服务;中餐厅;中餐厅
知味千快餐店,30.62546819699795,104.10332193323488,餐饮服务;快餐厅;快餐厅
汁味冒菜,30.598447082388873,104.14032092646343,餐饮服务;中餐厅;中餐厅
好味来冒菜馆(沙河分店),30.621289731215686,104.11474299603525,餐饮服务;中餐厅;中餐厅
兴桥快餐,30.623317981259312,104.11553820732513,餐饮服务;中餐厅;中餐厅
新单位(三圣乡店),30.59216828824709,104.130765943666,餐饮服务;中餐厅;特色/地方风味餐厅
故乡味道,30.603143901139205,104.10557667566748,餐饮服务;中餐厅;中餐厅
山东天恩手工水饺,30.606704700131502,104.10141546646591,餐饮服务;中餐厅;特色/地方风味餐厅
不只面,30.636202593845105,104.14329944845942,餐饮服务;中餐厅;中餐厅
盛世快餐厅(万科南街店),30.6300166206593,104.1463675762841,餐饮服务;中餐厅;中餐厅
兄弟餐馆,30.63494896280865,104.14247307970848,餐饮服务;中餐厅;中餐厅
第一家烤鱼铁板烧,30.616853701708752,104.16115716778273,餐饮服务;中餐厅;中餐厅
魅城盆盆虾,30.629569586789998,104.15056340361924,餐饮服务;中餐厅;海鲜酒楼
白家肥肠粉(枫树街),30.609399833583854,104.14094496504255,餐饮服务;中餐厅;中餐厅
正宗隆江猪脚饭(静沙南路),30.62221037885825,104.11413111406627,餐饮服务;中餐厅;中餐厅
东哥芋儿笋子鸡,30.612019527600445,104.1277856728626,餐饮服务;中餐厅;中餐厅
秒秒火锅(洪河北路店),30.62242414623449,104.16358175424602,餐饮服务;中餐厅;火锅店
台湾鸡排汉堡店,30.6039298996024,104.1043524266357,餐饮服务;快餐厅;快餐厅
成都里鸡毛民间菜,30.611269707949926,104.1127687272692,餐饮服务;中餐厅;综合酒楼|餐饮服务;中餐厅;四川菜(川菜)
姜太公冷锅鱼(上东阳光店),30.62587380758645,104.16403538806198,餐饮服务;中餐厅;中餐厅
仟味水饺(半边街店),30.619523061556574,104.1586869636038,餐饮服务;快餐厅;快餐厅
乡下人烧鸡公,30.60729985156263,104.1543887271232,餐饮服务;中餐厅;中餐厅
源自渝院子精品院子火锅,30.592384481563776,104.15429781005034,餐饮服务;中餐厅;火锅店
鸡汤铺盖面,30.608723694948758,104.14788975692608,餐饮服务;中餐厅;中餐厅
韩国石锅拌饭(川师店),30.612867237191974,104.15730845363164,餐饮服务;中餐厅;中餐厅
食必思黄焖鸡米饭,30.609759746438858,104.11550167359238,餐饮服务;中餐厅;中餐厅
双流肥肠粉(惠王陵东路),30.619043626816033,104.1628936213649,餐饮服务;中餐厅;中餐厅
稀饭庄(锦江逸家店),30.607152517898996,104.13444828186556,餐饮服务;中餐厅;中餐厅
韩国拌饭料理(川师大东校区店),30.616218355730073,104.16239569302012,餐饮服务;中餐厅;中餐厅
极品串串(静祥路),30.604205061095946,104.12010583104998,餐饮服务;中餐厅;中餐厅
李记油条(静沙南路),30.622026361271235,104.11487534944204,餐饮服务;快餐厅;快餐厅
大西北拉面馆,30.61171586345927,104.11216444794161,餐饮服务;中餐厅;清真菜馆
洪河片片鱼,30.607362932688336,104.15438470603972,餐饮服务;中餐厅;中餐厅
冰城串吧,30.612572547851745,104.13937631793016,餐饮服务;中餐厅;中餐厅
坝坝小龙虾(暂停营业),30.594652867529163,104.10875667884328,餐饮服务;快餐厅;快餐厅
食在鲜,30.614836696000967,104.12408472509149,餐饮服务;中餐厅;中餐厅
雅之味面馆(锦江国际花园店),30.619893381186632,104.12703226942074,餐饮服务;中餐厅;中餐厅
品赏一品生态火锅,30.619733571797106,104.16362210745342,餐饮服务;中餐厅;火锅店
舌尖上的串串(静居寺店),30.625434201335175,104.10299193640661,餐饮服务;中餐厅;中餐厅
轰炸鸡(经天店),30.603922865597433,104.10441843428114,餐饮服务;快餐厅;快餐厅
陈氏烧烤(祥和街),30.622532585928198,104.1455194199515,餐饮服务;中餐厅;特色/地方风味餐厅
9号串串,30.59868803086426,104.13800475697889,餐饮服务;中餐厅;中餐厅
李茜鲜味村自助鱼火锅,30.610018629939,104.11451147069702,餐饮服务;中餐厅;中餐厅
乡村稀饭庄(花园街),30.620098906924422,104.10949653465957,餐饮服务;中餐厅;中餐厅
侯氏宽面(静居寺店),30.62374666522345,104.10214553979668,餐饮服务;中餐厅;中餐厅
蓉和豌杂面(合能锦城店),30.598760929717802,104.13818177397661,餐饮服务;中餐厅;中餐厅
色色鱼捞(洪河店),30.6224201324766,104.16357875776232,餐饮服务;中餐厅;中餐厅
四海花甲米线(川师东店),30.61921203001558,104.15870921707536,餐饮服务;中餐厅;特色/地方风味餐厅
魏家小馆私房菜,30.602903418532787,104.14459605707485,餐饮服务;中餐厅;中餐厅
酸菜卤肉面(观音桥街),30.620609307633103,104.101358326455,餐饮服务;中餐厅;中餐厅
特色牛肉面馆,30.612630817428663,104.13230572142,餐饮服务;中餐厅;中餐厅
老银极品卤肉面(大观街店),30.61153772488162,104.13188326118517,餐饮服务;中餐厅;中餐厅
花溪牛肉米粉(静祥路店),30.604323326087265,104.11969877142424,餐饮服务;中餐厅;中餐厅
狮子座烧烤,30.612375894403407,104.1398944646456,餐饮服务;中餐厅;特色/地方风味餐厅
面临天下(白桦林路),30.593361437940548,104.13333952217546,餐饮服务;中餐厅;中餐厅
馄饨大王(锦江店),30.600718460405062,104.1409609848982,餐饮服务;中餐厅;特色/地方风味餐厅
花乡庭院火锅(三圣乡店),30.591789651449503,104.15149341317888,餐饮服务;中餐厅;火锅店
蜀堰老妈砂锅串串,30.59883400913852,104.13795475888614,餐饮服务;中餐厅;中餐厅
柴火灶土菜馆(海枣街),30.602976212060167,104.13163202610008,餐饮服务;中餐厅;中餐厅
胖哥美食坊,30.622207009924164,104.1149281897118,餐饮服务;中餐厅;中餐厅
二哥餐厅(邛崃山路店),30.633710669333734,104.14374380306646,餐饮服务;中餐厅;中餐厅
老子老灶火锅,30.59823033177753,104.13994488453926,餐饮服务;中餐厅;火锅店
四季香铁板烧,30.60672383676709,104.12134531033058,餐饮服务;中餐厅;特色/地方风味餐厅
乡土人家土菜馆(洪河店),30.61685769629476,104.16345131041983,餐饮服务;中餐厅;中餐厅
乐山豆花(净居寺南街),30.62455035874024,104.10113565165477,餐饮服务;中餐厅;特色/地方风味餐厅
德克士(成都东站),30.63245888261754,104.13523674347746,餐饮服务;快餐厅;快餐厅
李先生(成都东客站西广场餐厅),30.6331214196223,104.13508389105856,餐饮服务;快餐厅;快餐厅
蜀府秘制烧鸡公(三圣乡店),30.6168578295512,104.12938781105542,餐饮服务;中餐厅;四川菜(川菜)
老厨房火锅兔,30.633378441622703,104.15593509917852,餐饮服务;中餐厅;火锅店
正宗宜宾燃面(邛崃山路),30.63489367098459,104.14244515124145,餐饮服务;中餐厅;中餐厅
港式烧腊隆江猪脚饭,30.613388398409956,104.15734816026401,餐饮服务;中餐厅;中餐厅
何记大碗面(四川城市职业学院校医院西北),30.612960442002404,104.1573144018882,餐饮服务;中餐厅;中餐厅
尚雅,30.619959574812462,104.10918062130193,餐饮服务;休闲餐饮场所;休闲餐饮场所
姚记小龙坎老火锅(合能锦城店),30.598556850976582,104.13850579037911,餐饮服务;中餐厅;火锅店
甜城餐厅,30.6354794582797,104.14346244310676,餐饮服务;中餐厅;中餐厅
万客聚哈尔滨饺子馆(川师店),30.620516252188942,104.12089221610105,餐饮服务;中餐厅;东北菜
江记烧鸡公,30.5921093324114,104.1286297450515,餐饮服务;中餐厅;中餐厅
驿皇假日酒店餐厅,30.62623990106134,104.16736520650409,餐饮服务;中餐厅;中餐厅
内江真味面,30.6006874394883,104.14100398961637,餐饮服务;中餐厅;中餐厅
老冯记世家冒菜,30.624563977448272,104.1378888828966,餐饮服务;中餐厅;中餐厅
富顺肥肥特色烧烤,30.630854653084587,104.1510439110762,餐饮服务;中餐厅;特色/地方风味餐厅
大食堂,30.619987583087262,104.12056863305673,餐饮服务;中餐厅;中餐厅
乐山牛肉,30.607616385380243,104.1338190770859,餐饮服务;中餐厅;中餐厅
卤吖卤,30.63056774567415,104.15437048730817,餐饮服务;中餐厅;中餐厅
达不溜烧烤,30.607048940774007,104.12646665257434,餐饮服务;中餐厅;特色/地方风味餐厅
小郡肝串串香,30.635805293578617,104.14343400016551,餐饮服务;中餐厅;火锅店
松涛餐厅,30.630904217151528,104.11016548968881,餐饮服务;中餐厅;中餐厅
乐山大佛钵钵鸡,30.617391251966726,104.16120578117989,餐饮服务;中餐厅;中餐厅
咂嘴冒菜,30.611107180528872,104.11324685068891,餐饮服务;中餐厅;中餐厅
鑫仁和米汤饭,30.597011792518124,104.10442366793276,餐饮服务;中餐厅;中餐厅
妈妈便当,30.63043680859423,104.15950598657687,餐饮服务;中餐厅;中餐厅
当当福黄焖鸡米饭,30.616242623056543,104.16194464761196,餐饮服务;中餐厅;中餐厅
翻滚辣椒小郡肝砂锅串串,30.623866856019994,104.10278748515375,餐饮服务;中餐厅;中餐厅
开元米粉(凯德广场店),30.630821380479336,104.14680864735871,餐饮服务;中餐厅;中餐厅
李记简阳特色烧烤,30.62010272229962,104.13234553690491,餐饮服务;中餐厅;特色/地方风味餐厅
多味面,30.613444526343777,104.15735212799981,餐饮服务;中餐厅;中餐厅
周记串串(合欢树街),30.60777713291915,104.12137596988596,餐饮服务;中餐厅;中餐厅
熙客来干锅烤鱼(锦江店),30.620026709564367,104.12058260167733,餐饮服务;中餐厅;特色/地方风味餐厅
乐派,30.61782351129204,104.1567841697785,餐饮服务;快餐厅;快餐厅
凉山寨,30.589672597608445,104.11985903083512,餐饮服务;中餐厅;特色/地方风味餐厅
成都四季老火锅,30.598789821056645,104.1384067928327,餐饮服务;中餐厅;火锅店
军师骨汤冒菜(万科魅力城店),30.629630112030434,104.15003829567033,餐饮服务;快餐厅;快餐厅
小郡肝串串香(上东阳光店),30.625346594927397,104.16398993098129,餐饮服务;中餐厅;特色/地方风味餐厅
功夫凉皮,30.61868170851522,104.15784158107735,餐饮服务;中餐厅;特色/地方风味餐厅
蓉盛堂,30.589233361603277,104.13135781904556,餐饮服务;休闲餐饮场所;休闲餐饮场所
巴哥卤味,30.61348240021905,104.11285054693012,餐饮服务;中餐厅;中餐厅
茗阅茶餐厅,30.588480023814515,104.1312944499287,餐饮服务;中餐厅;中餐厅
玉林串串香(洪河店),30.623999083401362,104.1639682806265,餐饮服务;中餐厅;中餐厅
乡坝头芋儿鸡兔,30.58960683888205,104.11961697982117,餐饮服务;中餐厅;中餐厅
蜀西老灶火锅,30.596032683010677,104.10849091905676,餐饮服务;中餐厅;火锅店
醉今朝火锅,30.622259589596666,104.14320649874935,餐饮服务;中餐厅;火锅店
麦当劳甜品站(凯德广场),30.629963179643564,104.14901183117773,餐饮服务;快餐厅;快餐厅|餐饮服务;冷饮店;冷饮店
味独道,30.608182137454563,104.15413540351796,餐饮服务;中餐厅;综合酒楼|餐饮服务;中餐厅;四川菜(川菜)
川东王砂锅串串(牛沙路店),30.63024059842032,104.1042357253167,餐饮服务;中餐厅;四川菜(川菜)
一品排骨菌汤(皇经楼二街店),30.595530755370078,104.10482248265635,餐饮服务;中餐厅;中餐厅
家香面馆(合欢树街),30.60826655249958,104.1219508450218,餐饮服务;中餐厅;中餐厅
苗寨竹笋芋儿鸡,30.593260594196384,104.10865031489912,餐饮服务;中餐厅;中餐厅
闾氏砂锅羊肉米线,30.62364233945864,104.10194962170856,餐饮服务;中餐厅;中餐厅
黄焖鸡,30.620265590854206,104.11819518974913,餐饮服务;中餐厅;中餐厅
馄饨王面・米线黄焖鸡米饭(静祥路店),30.6044123239502,104.11984876663477,餐饮服务;中餐厅;中餐厅
蜀皇全牛宴菌汤鲜黄牛肉(锦江大道店),30.598811619921896,104.13884482807107,餐饮服务;中餐厅;中餐厅
富顺鸡汤豆花(东洪广厦店),30.60896109497729,104.14780365739247,餐饮服务;中餐厅;中餐厅
贵州花溪牛肉米粉(净居寺南街),30.623770600345576,104.10250255113837,餐饮服务;中餐厅;云贵菜
小郡肝串串香(惠王陵店),30.618800995314494,104.15805150114663,餐饮服务;中餐厅;中餐厅
巴蜀崽火锅(川师大店),30.61016075959338,104.11477643179039,餐饮服务;中餐厅;火锅店
知味楼,30.625111046346962,104.1092348599136,餐饮服务;中餐厅;中餐厅
滋补蹄花,30.619523061556574,104.1586869636038,餐饮服务;中餐厅;中餐厅
好味面(川师店),30.611274716369778,104.11277172508036,餐饮服务;中餐厅;中餐厅
满口香包子铺(锦绣店),30.61485779353713,104.12398670321879,餐饮服务;快餐厅;快餐厅
功夫冒菜(比华利国际城店),30.621060507266957,104.12460606941394,餐饮服务;中餐厅;中餐厅
香辣鲜川香小厨(川师南门店),30.609759746438858,104.11550167359238,餐饮服务;中餐厅;中餐厅
小月君肝砂罐串串(万科店),30.63068363219415,104.15142914435262,餐饮服务;中餐厅;火锅店
铭旺香卤坊豆汤饭快餐超市,30.62273679938007,104.11092833315006,餐饮服务;中餐厅;中餐厅
二娃土菜馆,30.63276290110089,104.14319497677583,餐饮服务;中餐厅;中餐厅
佳味香炸鸡店(洪景南路),30.61323326044236,104.15911336631964,餐饮服务;快餐厅;快餐厅
内江特色面,30.622981021660767,104.12371124968266,餐饮服务;中餐厅;特色/地方风味餐厅
米式厨房(惠王陵店),30.619553298002835,104.16063306563349,餐饮服务;快餐厅;快餐厅
1碗盖饭,30.628273537961526,104.15492219159464,餐饮服务;快餐厅;快餐厅
付记家常菜,30.620401794591654,104.13224027626035,餐饮服务;中餐厅;中餐厅
川乡基炸鸡汉堡,30.619040715876285,104.1626716096879,餐饮服务;快餐厅;快餐厅
悠嘟奶茶(蓝光锦绣店),30.63171529918128,104.1525759666522,餐饮服务;快餐厅;快餐厅
仔耳朵冷锅鱼(东洪店),30.608192921223356,104.14789095704582,餐饮服务;中餐厅;中餐厅
阿坤面,30.619394133420833,104.11937301501762,餐饮服务;快餐厅;快餐厅
乐途瑞(成都东站),30.632603767116365,104.13717571465322,餐饮服务;快餐厅;快餐厅
锦泰一汽丰田餐厅,30.619285185648415,104.14089388664812,餐饮服务;中餐厅;中餐厅
名门虾将油焖大虾(绿地468店),30.60949951081832,104.14203800716218,餐饮服务;中餐厅;海鲜酒楼
重庆捞巴适自助火锅,30.622439201971805,104.16358374047311,餐饮服务;中餐厅;火锅店
滋味烤肉,30.60967092675775,104.11476264440445,餐饮服务;中餐厅;特色/地方风味餐厅
鱼品堂干锅烤鱼(洪景南路店),30.61621732272345,104.16246369804095,餐饮服务;中餐厅;特色/地方风味餐厅
香里香(水杉街),30.609511319869362,104.12676076911379,餐饮服务;中餐厅;中餐厅
小厨房私房菜,30.621874044832875,104.11208723196812,餐饮服务;中餐厅;中餐厅
小胖川菜馆,30.632706667677656,104.14306003784735,餐饮服务;中餐厅;中餐厅
一剪梅,30.58772446536445,104.13197811584672,餐饮服务;中餐厅;中餐厅
小何烧烤,30.634994306652267,104.14449317076112,餐饮服务;中餐厅;特色/地方风味餐厅
巴味仙面庄,30.631067513487988,104.14702036472326,餐饮服务;快餐厅;快餐厅
凌波小筑(三圣乡幸福村店),30.590489754504613,104.13163139161338,餐饮服务;中餐厅;特色/地方风味餐厅
袁记盐边羊肉米线,30.61952250979839,104.15992604502568,餐饮服务;中餐厅;特色/地方风味餐厅
士百士(龙泉店),30.61878193300376,104.1625628080698,餐饮服务;快餐厅;快餐厅
私房面生椒牛肉面(惠王陵东路),30.618637277288546,104.15624250901371,餐饮服务;中餐厅;中餐厅
搓一顿(牡丹街),30.594813062152458,104.15057320239342,餐饮服务;中餐厅;中餐厅
川东王大锅串串香(合欢树街),30.611026817218587,104.13168549677779,餐饮服务;中餐厅;中餐厅
笙鑫休闲苑,30.62224269965921,104.16305688820455,餐饮服务;中餐厅;中餐厅
口口香串串总店(东光街37号院南),30.62015784602079,104.1011396875902,餐饮服务;中餐厅;中餐厅
l味・源,30.598456883128463,104.1385117857233,餐饮服务;外国餐厅;外国餐厅
蓉和特色川菜干锅烤鱼,30.618759673920408,104.15847856191738,餐饮服务;中餐厅;四川菜(川菜)
隔壁串串香,30.61911711463661,104.11962426036459,餐饮服务;中餐厅;火锅店
小月君肝火锅串串(通盈店),30.633059763886553,104.10466629231692,餐饮服务;中餐厅;中餐厅
香里香馄饨・面,30.63287397402459,104.15103340668234,餐饮服务;中餐厅;特色/地方风味餐厅
李老灶川菜馆(火车东站店),30.632440673621197,104.14218830758239,餐饮服务;中餐厅;四川菜(川菜)
789小龙虾,30.598708723827038,104.1386808110746,餐饮服务;中餐厅;特色/地方风味餐厅
印象西昌野菜汤锅,30.608849380962326,104.10631419327409,餐饮服务;中餐厅;中餐厅
满街跑牛杂鲜米粉,30.59279616301332,104.10881319291163,餐饮服务;中餐厅;中餐厅
胖妈小厨,30.625750384839197,104.10334664381185,餐饮服务;中餐厅;中餐厅
蜀食一家五馅包(大观街店),30.61261178442319,104.13228673027962,餐饮服务;中餐厅;中餐厅
槐园餐厅,30.613200576087785,104.11997435220148,餐饮服务;中餐厅;中餐厅
倔驴肉火烧(凯德广场),30.63074231323955,104.14831785227598,餐饮服务;中餐厅;特色/地方风味餐厅
自贡王牌梭边鱼(海桐街),30.611962371861487,104.12786970976552,餐饮服务;中餐厅;海鲜酒楼
小庭院(柏仕公馆店),30.635935126737923,104.14320380638581,餐饮服务;中餐厅;中餐厅
金阿姨烧烤,30.613557644987058,104.13290224541022,餐饮服务;中餐厅;特色/地方风味餐厅
乐山烧烤(樱花街),30.609387970140247,104.14735345095553,餐饮服务;中餐厅;特色/地方风味餐厅
溢香人家,30.596612746577772,104.10512368458875,餐饮服务;中餐厅;中餐厅
柳记特色卤肉饭(半边街店),30.619514793173128,104.1592300059606,餐饮服务;中餐厅;中餐厅
烧鸭青椒兔,30.622462403837233,104.14533347110762,餐饮服务;中餐厅;中餐厅
清口水花甲米线,30.619006787722757,104.16000846625184,餐饮服务;中餐厅;特色/地方风味餐厅
丽君餐馆(皇经店),30.605553090985836,104.10456909193157,餐饮服务;中餐厅;中餐厅
重庆飘香冷锅鱼,30.619149553012527,104.1503176929222,餐饮服务;中餐厅;四川菜(川菜)
李福汁川菜馆(半边街店),30.617712829218995,104.16433073989899,餐饮服务;中餐厅;四川菜(川菜)
小郡肝铜罐串串(锦城逸景店),30.594063430459176,104.10898756138018,餐饮服务;中餐厅;中餐厅
姐妹白家肥肠粉,30.617469932996325,104.16470894380407,餐饮服务;中餐厅;中餐厅
雅安老面馆(合欢树街),30.607419663140075,104.12138309219358,餐饮服务;中餐厅;中餐厅
蓉香巴蜀片片鱼(东洪路店),30.62162379577051,104.14646031623596,餐饮服务;中餐厅;中餐厅
双城小吃,30.621928030667114,104.10809281095582,餐饮服务;中餐厅;中餐厅
王记宜宾燃面,30.60938565830133,104.1412879973008,餐饮服务;中餐厅;特色/地方风味餐厅
牛根香生态大草原鲜黄牛肉火锅(城市花园街店),30.620293505685343,104.10964738524869,餐饮服务;中餐厅;中餐厅
唐记煌砂锅串串(万科魅力店),30.630830503036947,104.15111094496856,餐饮服务;中餐厅;火锅店
周记醉食惠串串(东洪店),30.608041758861596,104.14778100385458,餐饮服务;中餐厅;火锅店
川流天下骨汤抄手(菱S路店),30.62140348186013,104.11621802923635,餐饮服务;中餐厅;中餐厅
唐记煌砂锅串串(上东阳光店),30.62564082596995,104.16401262900003,餐饮服务;中餐厅;火锅店
陈继老面馆,30.60237420660529,104.158110081687,餐饮服务;中餐厅;中餐厅
桃花源中餐火锅,30.620053622353417,104.14792178055829,餐饮服务;中餐厅;火锅店
刘记钵钵鸡,30.61952590540279,104.15905998576486,餐饮服务;中餐厅;中餐厅
明娃串串香(上东店),30.625214047005873,104.16397406569197,餐饮服务;中餐厅;火锅店
桃桃小面(静康路店),30.624592728599502,104.10739120903922,餐饮服务;中餐厅;中餐厅
手提式串串香(皇经楼二街),30.59545536470453,104.10361435213132,餐饮服务;中餐厅;中餐厅
重庆好吃嘴冷锅鱼(洪河分店),30.618242756156757,104.16364429557413,餐饮服务;中餐厅;四川菜(川菜)
怡香源家常菜,30.621848994608246,104.11199324587871,餐饮服务;中餐厅;中餐厅
东时便当,30.608823393037643,104.14214929014003,餐饮服务;中餐厅;中餐厅
万州黾抢显咏,30.620479954254275,104.11008426804284,餐饮服务;中餐厅;中餐厅
鸡汤铺盖面(静沙南路),30.622191258708735,104.11424014148291,餐饮服务;中餐厅;中餐厅
廖记豌豆面酸菜卤肉面,30.622877551965416,104.12387236086968,餐饮服务;中餐厅;中餐厅
蒋氏拌菜卤菜,30.629791160132847,104.10478730879606,餐饮服务;中餐厅;中餐厅
重庆鸡公煲,30.6174234378157,104.1182814418121,餐饮服务;中餐厅;中餐厅
回锅串串三圣花乡店,30.59337911770328,104.16323870176629,餐饮服务;快餐厅;快餐厅
一陆纸上烤鱼,30.627698884000065,104.1124734137756,餐饮服务;中餐厅;中餐厅
哈尔滨饼店(邮电校店),30.622452349325002,104.12294367627521,餐饮服务;中餐厅;中餐厅
赵记中餐,30.617487245243627,104.16412089455783,餐饮服务;中餐厅;中餐厅
四川师范大学校园快餐,30.612228490792077,104.15813085626124,餐饮服务;中餐厅;中餐厅
幸福手工肥肠粉(摩玛新城店),30.632699914138293,104.14913249246388,餐饮服务;中餐厅;中餐厅
贰老火锅,30.61022614309243,104.11417434752983,餐饮服务;中餐厅;中餐厅
兄弟手提式串串香(上东锦城店),30.60430908783999,104.12021081968234,餐饮服务;中餐厅;中餐厅
梅林深处,30.59065160158873,104.12682605359493,餐饮服务;中餐厅;中餐厅
锡箔花甲,30.609759746438858,104.11550167359238,餐饮服务;快餐厅;快餐厅
精品牛肉面,30.617253023113005,104.1180785485199,餐饮服务;中餐厅;清真菜馆
何老三冷锅串串(悦来店),30.621337373284835,104.14283430038374,餐饮服务;中餐厅;特色/地方风味餐厅
付哥老饭店,30.603173285757048,104.15872301398643,餐饮服务;中餐厅;中餐厅
泉水鸡柴火鸡,30.592061519738635,104.12837670755505,餐饮服务;中餐厅;火锅店
砂锅印象,30.610086034731122,104.12733956990618,餐饮服务;中餐厅;中餐厅
尝香聚中餐干锅汤锅,30.592389802318745,104.10871405542538,餐饮服务;中餐厅;中餐厅
憨叁砂锅串串(万科金润华府店),30.626771873527336,104.11438259851849,餐饮服务;中餐厅;中餐厅
家户人家,30.61621226747177,104.16255670741575,餐饮服务;中餐厅;中餐厅
竹福记风味菜,30.620310678329425,104.10939334699934,餐饮服务;中餐厅;四川菜(川菜)
博之远,30.60831036796012,104.12924845356426,体育休闲服务;娱乐场所;棋牌室|餐饮服务;休闲餐饮场所;休闲餐饮场所
老成都鸡杂面,30.617593854837985,104.16120963166098,餐饮服务;中餐厅;四川菜(川菜)
老兵内江牛肉面,30.63194667120055,104.15214865025779,餐饮服务;中餐厅;中餐厅
羊娃子,30.59144982033205,104.15911381338027,餐饮服务;中餐厅;中餐厅|体育休闲服务;休闲场所;休闲场所
蒋水饺,30.629691060197437,104.15081127911463,餐饮服务;快餐厅;快餐厅
张花食院坝串串,30.62745698673067,104.16126751782896,餐饮服务;中餐厅;特色/地方风味餐厅
水浒耗儿鱼(万科魅力之城店),30.62973549363396,104.15032019229619,餐饮服务;中餐厅;中餐厅
再回首烧烤(马家沟路),30.62893096177636,104.1116559517083,餐饮服务;中餐厅;特色/地方风味餐厅
广安意缘烧烤,30.629481558678474,104.15416175680777,餐饮服务;中餐厅;特色/地方风味餐厅
聚缘阁火锅,30.625203097361386,104.10328620141958,餐饮服务;中餐厅;火锅店
饭先生(和韵路),30.63078779211464,104.15446622918182,餐饮服务;中餐厅;中餐厅
一味担担面(金马河路),30.636309170646495,104.14336030697595,餐饮服务;中餐厅;中餐厅
原汤牛肉米粉,30.618607442872882,104.1624179358759,餐饮服务;中餐厅;特色/地方风味餐厅
大草原牛杂火锅(洪河店),30.6190311660809,104.16384169072302,餐饮服务;中餐厅;火锅店
洪河樟茶板鸭,30.618041556145037,104.16494953031118,餐饮服务;中餐厅;中餐厅
会江楼,30.622668014354005,104.14346414083599,餐饮服务;中餐厅;四川菜(川菜)|餐饮服务;茶艺馆;茶艺馆
壹面之缘(洪景西路),30.616932919332367,104.16118211264991,餐饮服务;中餐厅;中餐厅
吃必福野菌排骨(洪河店),30.61848350210819,104.1636581104744,餐饮服务;中餐厅;中餐厅
十里香面馆(东洪路),30.621590676630348,104.14645734558775,餐饮服务;中餐厅;中餐厅
实惠饭馆,30.596883256727114,104.13720754374802,餐饮服务;中餐厅;中餐厅
沸腾花园餐厅,30.612267919937707,104.11011797004504,餐饮服务;中餐厅;中餐厅
私房面生椒牛肉面(氯寺),30.621684923217597,104.1219962915609,餐饮服务;中餐厅;中餐厅
醉貂蝉火锅米线,30.610980668001943,104.1430774189235,餐饮服务;快餐厅;快餐厅
大面街办鸡公山生态苑,30.592647201707557,104.1788483897649,餐饮服务;中餐厅;中餐厅
惠王面白家手工肥肠粉,30.616093651560366,104.14742675754891,餐饮服务;中餐厅;中餐厅
冯记家常菜一品鲜椒鸡(总店),30.596962218308832,104.10354157687398,餐饮服务;中餐厅;中餐厅
凤酒林小渔村(锦瑞店),30.592771233062482,104.10873617799447,餐饮服务;中餐厅;海鲜酒楼
口口鲜(喜树街),30.59301017680386,104.13723173456782,餐饮服务;中餐厅;中餐厅
许记新津河鲜石锅鱼(锦江店),30.617509501607316,104.12993238278007,餐饮服务;中餐厅;中餐厅
道夫鲜卤馆,30.62874750949223,104.15320353686187,餐饮服务;快餐厅;快餐厅
陈记杂酱面,30.62002228169483,104.12374888147866,餐饮服务;中餐厅;特色/地方风味餐厅
八喜面馆(马家沟路),30.628107117449197,104.11165988489326,餐饮服务;中餐厅;中餐厅
洪河渣渣面(白鹤小区西南),30.617718894969364,104.16422372871916,餐饮服务;中餐厅;中餐厅
彭氏串串(东洪广厦店),30.60667338259485,104.14698939859541,餐饮服务;中餐厅;中餐厅
小洞天豆汤饭,30.619093290031802,104.13251537685778,餐饮服务;中餐厅;中餐厅
千里香馄饨・面・黄焖鸡米饭(静和路),30.62647734674591,104.11490196058124,餐饮服务;中餐厅;中餐厅
小米辣滋补汤锅(川师东校区店),30.61947318387536,104.158039961581,餐饮服务;中餐厅;中餐厅
学府盐帮菜(川师大校园广场店),30.609616477301543,104.11556774080098,餐饮服务;中餐厅;中餐厅
拐拐上烧烤(菱窠路),30.620289584864057,104.11839318717152,餐饮服务;中餐厅;特色/地方风味餐厅
新疆塔里木特色美食店,30.630730639061497,104.15193512321245,餐饮服务;中餐厅;中餐厅
青花椒鱼,30.60317767188846,104.14432599656203,餐饮服务;中餐厅;中餐厅
芝根芝底(锦绣店),30.630716453431198,104.15443231283834,餐饮服务;快餐厅;快餐厅
洛带客家凉粉(氯寺),30.61733806141538,104.11855652902177,餐饮服务;中餐厅;中餐厅
徽州包点(净居寺店),30.624633751261705,104.1010225573672,餐饮服务;中餐厅;中餐厅
新味跷脚牛肉(川师店),30.611600390902197,104.11270255623236,餐饮服务;中餐厅;中餐厅
嘴爱绿色冷吃系列,30.592904832953007,104.10920726307423,餐饮服务;快餐厅;快餐厅
Mr Noodles,30.612362041622653,104.15978389349686,餐饮服务;快餐厅;快餐厅
口食铺子,30.615062299450354,104.12178738114525,餐饮服务;快餐厅;快餐厅
黄河源中国兰州拉面(东站分店),30.63491779882843,104.14245611994532,餐饮服务;中餐厅;清真菜馆
洪柳特色面,30.60325444749235,104.15845298358431,餐饮服务;中餐厅;中餐厅
湖光岛影(滨湖西路),30.589690277057148,104.1316850543535,餐饮服务;中餐厅;中餐厅
重庆火山石烫鱼(鑫苑名家店),30.59818918699792,104.14030791008868,餐饮服务;中餐厅;中餐厅
曾妹酸菜鱼,30.61346146906784,104.13279429265845,餐饮服务;中餐厅;中餐厅
五谷粥(惠王陵东路),30.618875908811493,104.15428118783437,餐饮服务;中餐厅;中餐厅
桂苑土灶火锅,30.60924139358533,104.10989937463995,餐饮服务;中餐厅;火锅店
状元冒菜(净居寺店),30.626218619529602,104.10285710641108,餐饮服务;中餐厅;中餐厅
渝罗香特色罐罐米线,30.59311961783429,104.10902330942079,餐饮服务;快餐厅;快餐厅
大牌味卤,30.607856102860502,104.1329219210476,餐饮服务;中餐厅;中餐厅
兰州拉面(邛崃山路),30.629119715622032,104.13875704739279,餐饮服务;中餐厅;中餐厅
蹊苑美食城,30.61386095290975,104.12034199942734,餐饮服务;中餐厅;综合酒楼
飞哥,30.6010992630593,104.13923683042016,餐饮服务;中餐厅;中餐厅
何老三冷锅串串(洪河店),30.619180745167345,104.16362955774223,餐饮服务;中餐厅;火锅店
鱼众不同(静安路),30.61121840671339,104.11322079404853,餐饮服务;中餐厅;海鲜酒楼
大长腿美蛙鱼头火锅,30.59392160234025,104.10898352517746,餐饮服务;中餐厅;火锅店
方园石锅鱼庄,30.594388084918748,104.10892163377676,餐饮服务;中餐厅;中餐厅
龚记传统蘸水(氯寺返),30.622321916266298,104.12281478517876,餐饮服务;中餐厅;中餐厅
刘记北方水饺,30.630593615913757,104.14599386176162,餐饮服务;中餐厅;特色/地方风味餐厅
香思冒菜,30.62878970283986,104.15097233293075,餐饮服务;中餐厅;中餐厅
胡涂涂羊须面,30.62918521246961,104.15401309026858,餐饮服务;中餐厅;特色/地方风味餐厅
至尊堡,30.62130881779142,104.13262652320256,餐饮服务;快餐厅;快餐厅
贵阳牛肉米粉(惠王陵东路店),30.61868170940568,104.15783958094399,餐饮服务;中餐厅;中餐厅
馄饨王面米线黄焖鸡米饭(成都静沙南路店),30.62236522679128,104.11129671152159,餐饮服务;快餐厅;快餐厅
奇味干锅(洪河分店),30.61912015100802,104.15776322833771,餐饮服务;中餐厅;中餐厅
一枝春(赏梅路),30.59118646875389,104.12723329697904,餐饮服务;中餐厅;中餐厅
花醉料理(卓锦曼购物中心店),30.599044738942847,104.13169026005063,餐饮服务;外国餐厅;外国餐厅
丹清苑,30.591472491854894,104.15526856295516,餐饮服务;休闲餐饮场所;休闲餐饮场所
周极品冒菜冷锅串串,30.616799884804543,104.1243994295952,餐饮服务;中餐厅;火锅店
重庆芋儿鸡,30.63093086013456,104.15142984604014,餐饮服务;中餐厅;中餐厅
蜀锦红鲜毛肚火锅(庭院生态锦绣大道店),30.60843541772256,104.10260899613183,餐饮服务;中餐厅;火锅店
韩式拌饭,30.611522214638647,104.11274759977685,餐饮服务;外国餐厅;韩国料理
千里香馄饨(佳宏北路),30.621087596083584,104.12462304722553,餐饮服务;中餐厅;特色/地方风味餐厅
小龙坎老火锅,30.636307218835213,104.14322829974023,餐饮服务;中餐厅;火锅店
饺子里私房水饺,30.62386897562774,104.10253945913055,餐饮服务;中餐厅;中餐厅
贵州水城特色牛羊开胃粉,30.62081875417272,104.12437725958407,餐饮服务;中餐厅;中餐厅
一久香怡小菜馆,30.59827408327842,104.10232257841288,餐饮服务;中餐厅;中餐厅
彭氏串串(美林湾店),30.59317983314406,104.13748380415156,餐饮服务;中餐厅;特色/地方风味餐厅
钢管厂老味小君肝火锅串串香(川师店),30.622035976997733,104.12253002154448,餐饮服务;中餐厅;火锅店
铜井巷素面,30.5935884399368,104.10803734806844,餐饮服务;中餐厅;中餐厅
爆脾气功夫鸡排,30.620375788777654,104.12084133098386,餐饮服务;快餐厅;快餐厅
嘉定百味鸭脖,30.613697441707394,104.11388751615763,餐饮服务;中餐厅;中餐厅
龙熙兔生态火锅(银杏大道店),30.603882298840034,104.15735780406023,餐饮服务;中餐厅;中餐厅
fine披萨屋,30.62636669835465,104.16455990169102,餐饮服务;快餐厅;快餐厅
老麻本味抄手(卓锦城店),30.602920921963733,104.13222608285432,餐饮服务;中餐厅;特色/地方风味餐厅
辣得跳钵钵鸡,30.617437388628527,104.16120674727554,餐饮服务;中餐厅;中餐厅
重庆小面(东客站店),30.630894289499782,104.15453810544443,餐饮服务;中餐厅;四川菜(川菜)
百味记小郡肝砂罐串串(静居寺店),30.62563368060949,104.1015785939203,餐饮服务;中餐厅;特色/地方风味餐厅
三江源牛肉面(牡丹街店),30.6010032544158,104.13922983566812,餐饮服务;中餐厅;清真菜馆
何记小厨,30.630867162509794,104.15452013702037,餐饮服务;中餐厅;中餐厅
火焰山(卓锦曼购店),30.599451537277087,104.13195028911662,餐饮服务;中餐厅;中餐厅
老成都友家川菜,30.629089460450203,104.13900710170303,餐饮服务;中餐厅;四川菜(川菜)
容诚抄手,30.62205551817942,104.11476631305521,餐饮服务;中餐厅;中餐厅
大鹏佳苑(三圣乡店),30.589530923205174,104.13096092278694,餐饮服务;中餐厅;中餐厅
锦城大院火锅(万科魅力城店),30.62929412859953,104.15087974626728,餐饮服务;中餐厅;火锅店
自贡印象鲜锅兔,30.62749500033932,104.11238263004752,餐饮服务;中餐厅;中餐厅
驴鼎记,30.63169756205685,104.15178593348297,餐饮服务;中餐厅;火锅店
米避风塘,30.63062106180866,104.14753694159725,餐饮服务;外国餐厅;西餐厅(综合风味)
燕语私菜,30.62411195331436,104.10253122080577,餐饮服务;中餐厅;中餐厅
彭记面,30.63541554010448,104.14471562274944,餐饮服务;中餐厅;中餐厅
巴山柴火,30.620227307426394,104.10958243495973,餐饮服务;中餐厅;中餐厅
姜大包,30.60279422006122,104.15846305161651,餐饮服务;中餐厅;中餐厅
五馅包,30.593167689778898,104.10871629442501,餐饮服务;中餐厅;特色/地方风味餐厅
棒棒鸡传奇(锦城店),30.59836240600839,104.13741369379746,餐饮服务;快餐厅;快餐厅
廖记宽汤牛肉面,30.61747698504327,104.16463893426767,餐饮服务;中餐厅;中餐厅
正宗简阳羊肉汤(樱花街),30.60883479653517,104.14803972448112,餐饮服务;中餐厅;特色/地方风味餐厅
李庄豌豆面,30.61209519784863,104.12663353562832,餐饮服务;中餐厅;中餐厅
李记宜宾燃面,30.635443830547924,104.10662335164703,餐饮服务;中餐厅;中餐厅
斗城老妈砂锅串串(锦城逸景店),30.594159410953388,104.10877856539973,餐饮服务;中餐厅;中餐厅
上品粥店(凯德店),30.631482558911408,104.1515901845359,餐饮服务;中餐厅;中餐厅
皇城坝牛肉,30.631658519092877,104.15143795728534,餐饮服务;中餐厅;中餐厅
酒窝小院串烤吧,30.630337314405033,104.15055849767433,餐饮服务;中餐厅;特色/地方风味餐厅
醉巴适重庆朝天门火锅,30.632077573302304,104.15163245126706,餐饮服务;中餐厅;中餐厅
哈尔滨水饺,30.601236713248838,104.14051892111787,餐饮服务;中餐厅;特色/地方风味餐厅
奥龙饭馆,30.632915893922483,104.10491449926634,餐饮服务;中餐厅;中餐厅
巫溪宁河烤鱼,30.602199351425718,104.1576450707241,餐饮服务;中餐厅;特色/地方风味餐厅
粤饺皇(静远店),30.62203238854055,104.11486434297137,餐饮服务;中餐厅;特色/地方风味餐厅
小搓一顿,30.60286322977857,104.15851104527569,餐饮服务;中餐厅;中餐厅
万州特色面馆(柳树南街),30.603203446577975,104.15839498765826,餐饮服务;中餐厅;中餐厅
香里香黄焖鸡米饭(樱花街),30.612514318745458,104.13960836766148,餐饮服务;中餐厅;中餐厅
极品冒菜快味面(川师店),30.61759486786795,104.1184673316989,餐饮服务;中餐厅;中餐厅
秒秒鲜小吃店,30.612059038753465,104.15834996030313,餐饮服务;快餐厅;快餐厅
王记家常面(祥和街),30.62253487061789,104.14489937184389,餐饮服务;中餐厅;中餐厅
白家肥肠粉手工刀削面,30.596953339342118,104.10328355082972,餐饮服务;中餐厅;中餐厅
稻香餐厅(氯寺返),30.61764901305078,104.1185072950115,餐饮服务;中餐厅;中餐厅
多味面馆(川师南门店),30.609975222917306,104.11525655766809,餐饮服务;中餐厅;中餐厅
周极品火锅冒菜(邮电学院店),30.622544592496276,104.12317961142959,餐饮服务;中餐厅;中餐厅
蜀都川菜馆,30.63525758713035,104.14265468072523,餐饮服务;中餐厅;四川菜(川菜)
陈记肥肠粉(大观里),30.620181031346714,104.13225146354256,餐饮服务;中餐厅;中餐厅
蜀一蜀二原汁冒菜,30.6106031760837,104.11337910231288,餐饮服务;中餐厅;特色/地方风味餐厅
涛涛烧烤,30.614106894467856,104.12404817504364,餐饮服务;中餐厅;特色/地方风味餐厅
弘毅小郡肝串串香,30.623984096314874,104.103297419985,餐饮服务;中餐厅;中餐厅
好吃客(氯寺),30.620164137042835,104.12067349468899,餐饮服务;中餐厅;中餐厅
车马火锅冒菜(比华利店),30.620294126749915,104.12393566949736,餐饮服务;中餐厅;火锅店
小乔砂锅(旗舰店),30.635191224687777,104.14264276880208,餐饮服务;中餐厅;中餐厅
小鱼村生态河鲜,30.632069188632144,104.1523965150588,餐饮服务;中餐厅;海鲜酒楼
小渔村生态河鲜,30.619106406121798,104.15258388700374,餐饮服务;中餐厅;中餐厅
砂锅鲜(华润幸福里店),30.614276415104243,104.11259204898549,餐饮服务;中餐厅;中餐厅
销魂掌(卓锦曼购中心店),30.599337570724895,104.13192228540487,餐饮服务;中餐厅;中餐厅
大众串串(和锦路),30.63144035086453,104.15157823550489,餐饮服务;中餐厅;中餐厅
菜饭香小厨,30.630257245690885,104.15655300580175,餐饮服务;中餐厅;中餐厅
粼粼石锅鲜鱼,30.631468489086764,104.15158720160245,餐饮服务;中餐厅;中餐厅
艺境小龙虾,30.612278506668886,104.12905364264147,餐饮服务;中餐厅;中餐厅
食惠香川菜馆(洪景南路),30.616192319210697,104.16457184729845,餐饮服务;中餐厅;四川菜(川菜)
幸福梅林农家乐、自助烧烤、烤全羊,30.589221811755994,104.15956591684885,餐饮服务;中餐厅;特色/地方风味餐厅
蝶语韵餐厅,30.60982922690772,104.1416638378492,餐饮服务;中餐厅;中餐厅
盐帮小厨,30.594245209324917,104.15163614865526,餐饮服务;中餐厅;四川菜(川菜)
骨汤麻抄手(东洪店),30.60890597680716,104.14787868471844,餐饮服务;中餐厅;特色/地方风味餐厅
胖哥良心烤吧小吃,30.600919039900635,104.10153251238967,餐饮服务;中餐厅;中餐厅
千里香・馄饨面黄焖鸡米饭,30.59881171148014,104.1386388119082,餐饮服务;中餐厅;中餐厅
烤鱼倌(海上海店),30.630130474119888,104.15465402803038,餐饮服务;中餐厅;特色/地方风味餐厅
小李飞刀铁板烧(静居寺店),30.624494235985008,104.10089768440648,餐饮服务;中餐厅;中餐厅
公馆豆汤,30.61259353728616,104.13725213984506,餐饮服务;中餐厅;中餐厅
慈记面铺(大渡河路),30.627186396902054,104.13073357020863,餐饮服务;中餐厅;中餐厅
简阳三岔湖羊肉汤,30.622462402496502,104.14533647133118,餐饮服务;中餐厅;特色/地方风味餐厅
宜宾燃面(万科・金色城市西北),30.596099540820887,104.16712253551663,餐饮服务;中餐厅;中餐厅
记忆故事钢管厂小郡肝串串香,30.609704311655307,104.12749874981152,餐饮服务;中餐厅;中餐厅
半城老火锅,30.610232434452193,104.12027889359375,餐饮服务;中餐厅;中餐厅
煎饼坊,30.612111298814316,104.15800891022631,餐饮服务;中餐厅;中餐厅
多味面庄(洪河大道北路),30.63111580161927,104.16034822225639,餐饮服务;中餐厅;中餐厅
一品香锅(合能锦城店),30.598349134401307,104.13803574221375,餐饮服务;中餐厅;中餐厅
棒骨汤荤豆花,30.61928990893991,104.15955520969986,餐饮服务;中餐厅;中餐厅
王记拉面馆,30.60464869698079,104.14640788031173,餐饮服务;快餐厅;快餐厅
屋头串串香,30.61212698070001,104.14076666457032,餐饮服务;中餐厅;中餐厅
顺和人家土鸡馆,30.62145934042047,104.10356979997012,餐饮服务;中餐厅;中餐厅
厕所串串(观音桥店),30.622038759468452,104.10291221672664,餐饮服务;中餐厅;特色/地方风味餐厅|餐饮服务;中餐厅;火锅店
清真食堂(槐径路),30.612827554814118,104.12038659853793,餐饮服务;中餐厅;清真菜馆
钢管厂小郡肝串串香,30.614980563754514,104.10279168199372,餐饮服务;中餐厅;中餐厅
宗室小龙坎串串火锅,30.616240910510868,104.16354174963416,餐饮服务;中餐厅;火锅店
巴蜀香串串(静居寺店),30.6240686283725,104.10286729577128,餐饮服务;中餐厅;四川菜(川菜)
上品粥(静居寺店),30.623995355682748,104.10281936288206,餐饮服务;快餐厅;快餐厅
手工肥肠粉怪味面,30.626622069843226,104.11470378824005,餐饮服务;快餐厅;快餐厅
德源干锅世家,30.618751846459556,104.15803353868625,餐饮服务;中餐厅;中餐厅
百味记小B肝罐罐串串(府青路一号桥店),30.607005568501087,104.13393328704687,餐饮服务;中餐厅;中餐厅
烫过瘾主题串串(大观店),30.614566281042112,104.12797222689252,餐饮服务;中餐厅;中餐厅
瓦罐罐骨汤饭,30.625604924976102,104.10299076028234,餐饮服务;快餐厅;快餐厅
江油肥肠(净居寺店),30.62392427363054,104.1023673886172,餐饮服务;中餐厅;中餐厅
百谷味,30.616433829349315,104.16042941754858,餐饮服务;中餐厅;中餐厅
老成都杂酱面(枫树街店),30.609288702801994,104.14083600260831,餐饮服务;中餐厅;四川菜(川菜)
渝味纸包鱼(净居寺南街店),30.62363831997031,104.10195762636393,餐饮服务;中餐厅;中餐厅
晓能美蛙鱼头(皇经楼店),30.595136799272574,104.10332226191085,餐饮服务;中餐厅;中餐厅
天府烤卤(梧桐路店),30.622755480159576,104.17015984274194,餐饮服务;中餐厅;特色/地方风味餐厅
伊比萨,30.61874370422676,104.16280385339475,餐饮服务;外国餐厅;意式菜品餐厅
老成都川菜馆(嘉陵江路),30.632478921863953,104.1420772510356,餐饮服务;中餐厅;四川菜(川菜)
李氏李庄白肉(蓝谷地店),30.60997066895189,104.12771265238315,餐饮服务;中餐厅;中餐厅
家常便饭,30.605700156529508,104.1024958539824,餐饮服务;中餐厅;中餐厅
勤家小馆,30.620634467516346,104.13254210253531,餐饮服务;中餐厅;中餐厅
时代龙虾,30.620093033279044,104.12708710774514,餐饮服务;中餐厅;海鲜酒楼
唐蹄花,30.621715274684426,104.11474261793144,餐饮服务;中餐厅;中餐厅
奇味轩干锅・中餐(氯寺),30.617520674245107,104.11840238087808,餐饮服务;中餐厅;中餐厅
宜宾唐家菜,30.623808317724286,104.16398146755577,餐饮服务;中餐厅;中餐厅
丁家店集体伙食土菜馆(佳宏北路店),30.62139082000492,104.12431575427757,餐饮服务;中餐厅;中餐厅
成都市公共卫生临床医疗中心员工食堂,30.618430403466036,104.13649221872419,餐饮服务;中餐厅;中餐厅
简阳董家埂羊肉汤(合欢树街),30.614039812172294,104.13285495499063,餐饮服务;中餐厅;中餐厅
惠王面,30.619019949748903,104.15523313842839,餐饮服务;快餐厅;快餐厅
厕所串串蓝谷地直营店,30.6067098523151,104.12127430833085,餐饮服务;中餐厅;中餐厅
乡村家常菜(静安路店),30.611562226673115,104.11289959363978,餐饮服务;中餐厅;中餐厅
食尚小厨,30.607470536446137,104.13305406421205,餐饮服务;快餐厅;快餐厅
绵阳何氏开元米粉,30.622090702544966,104.11464627014706,餐饮服务;中餐厅;中餐厅
潜江虾族・一品大虾(锦绣店),30.63247148517934,104.15190497690537,餐饮服务;中餐厅;海鲜酒楼
巴蜀渔哥重庆冷锅鱼,30.62963391643031,104.150517325204,餐饮服务;中餐厅;中餐厅
香达克汉堡奶茶(凯德店),30.630570667604633,104.15233834360679,餐饮服务;快餐厅;快餐厅
天津狗不理包子(成都一八九分店),30.620074455423495,104.12375683859992,餐饮服务;中餐厅;中餐厅
铁锅堂(川师南门店),30.61119152006557,104.11284977308125,餐饮服务;中餐厅;火锅店
重庆豌杂面(净居寺路),30.625871217651905,104.10264245012542,餐饮服务;中餐厅;四川菜(川菜)
宜宾旺燃面,30.62659797071463,104.11468881262913,餐饮服务;中餐厅;中餐厅
木桶鱼川菜馆,30.631679665938492,104.151349925012,餐饮服务;中餐厅;四川菜(川菜)
重庆老火锅,30.6299387731659,104.105017157151,餐饮服务;中餐厅;中餐厅
