name,lat,lng,type
中国腊梅精品园,30.587951395533246,104.12869796213036,公司企业;农林牧渔基地;其它农林牧渔基地
祥通科技,30.58832856085496,104.10182670483563,公司企业;公司;网络科技
DorothyWedding,30.62496884721561,104.11282333680012,公司企业;公司;公司
桃花源酒店,30.6203694142085,104.14856956168673,住宿服务;宾馆酒店;宾馆酒店|公司企业;公司;公司
裕丰种业,30.62497699834075,104.10363346457405,公司企业;公司;公司
先锋种业(静康路),30.62497699834075,104.10363346457405,公司企业;公司;公司
德龙钢化玻璃(东洪路),30.62300212278331,104.14609102322163,公司企业;公司;公司
四川益鑫公路工程有限公司,30.61730877876672,104.13246073871773,公司企业;公司;公司
硕丰种业,30.62497699834075,104.10363346457405,公司企业;公司;公司
宏亿集团,30.618177117911824,104.14660118629887,公司企业;公司;公司
四川公路桥梁建设集团有限公司公路一分公司,30.61504643807657,104.13486148943831,公司企业;公司;公司
四川新世纪医用高分子制品有限公司,30.617070599948043,104.14703004091895,公司企业;公司;医药公司
佳农科技,30.621388204890508,104.1077672628799,公司企业;公司;网络科技
成都恒力电碳制造有限公司,30.60140089613815,104.1694948900902,公司企业;公司;公司|生活服务;生活服务场所;生活服务场所
富豪沙发,30.588080304772376,104.10144153981233,公司企业;公司;公司
四川科源种业,30.62497699834075,104.10363346457405,公司企业;公司;公司
四川省芝龙洪河茶业有限公司,30.60671443182694,104.15600702268834,公司企业;公司;公司
中国梅花精品园,30.59094551180361,104.13032146474178,公司企业;农林牧渔基地;其它农林牧渔基地
丰庆广告,30.61185582334043,104.14661424631056,公司企业;公司;广告装饰
成都日上科技有限公司,30.606564801486595,104.17965648215969,公司企业;公司;网络科技
四川好收成科技有限公司,30.621388204890508,104.1077672628799,公司企业;公司;网络科技
港中旅公司,30.62181973982333,104.10785088582782,公司企业;公司;公司
四川科思诺新材料科技有限公司,30.613786476324286,104.11652570318246,公司企业;公司;公司
成都市中达租赁有限公司,30.587553247286742,104.10435754366587,公司企业;公司;公司
四川省来恩畜牧有限公司,30.623090784710616,104.10729866072265,公司企业;农林牧渔基地;其它农林牧渔基地
中国腊梅精品园,30.587951395533246,104.12869796213036,公司企业;农林牧渔基地;其它农林牧渔基地
祥通科技,30.58832856085496,104.10182670483563,公司企业;公司;网络科技
DorothyWedding,30.62496884721561,104.11282333680012,公司企业;公司;公司
桃花源酒店,30.6203694142085,104.14856956168673,住宿服务;宾馆酒店;宾馆酒店|公司企业;公司;公司
裕丰种业,30.62497699834075,104.10363346457405,公司企业;公司;公司
先锋种业(静康路),30.62497699834075,104.10363346457405,公司企业;公司;公司
德龙钢化玻璃(东洪路),30.62300212278331,104.14609102322163,公司企业;公司;公司
四川益鑫公路工程有限公司,30.61730877876672,104.13246073871773,公司企业;公司;公司
硕丰种业,30.62497699834075,104.10363346457405,公司企业;公司;公司
宏亿集团,30.618177117911824,104.14660118629887,公司企业;公司;公司
四川公路桥梁建设集团有限公司公路一分公司,30.61504643807657,104.13486148943831,公司企业;公司;公司
四川新世纪医用高分子制品有限公司,30.617070599948043,104.14703004091895,公司企业;公司;医药公司
佳农科技,30.621388204890508,104.1077672628799,公司企业;公司;网络科技
成都恒力电碳制造有限公司,30.60140089613815,104.1694948900902,公司企业;公司;公司|生活服务;生活服务场所;生活服务场所
富豪沙发,30.588080304772376,104.10144153981233,公司企业;公司;公司
四川科源种业,30.62497699834075,104.10363346457405,公司企业;公司;公司
四川省芝龙洪河茶业有限公司,30.60671443182694,104.15600702268834,公司企业;公司;公司
中国梅花精品园,30.59094551180361,104.13032146474178,公司企业;农林牧渔基地;其它农林牧渔基地
丰庆广告,30.61185582334043,104.14661424631056,公司企业;公司;广告装饰
成都日上科技有限公司,30.606564801486595,104.17965648215969,公司企业;公司;网络科技
四川好收成科技有限公司,30.621388204890508,104.1077672628799,公司企业;公司;网络科技
港中旅公司,30.62181973982333,104.10785088582782,公司企业;公司;公司
四川科思诺新材料科技有限公司,30.613786476324286,104.11652570318246,公司企业;公司;公司
成都市中达租赁有限公司,30.587553247286742,104.10435754366587,公司企业;公司;公司
四川省来恩畜牧有限公司,30.623090784710616,104.10729866072265,公司企业;农林牧渔基地;其它农林牧渔基地
成都市康力西莱食品厂,30.618228258586313,104.15790093680762,公司企业;工厂;工厂|餐饮服务;糕饼店;糕饼店
四川省民生药业有限责任公司(成都分公司),30.624126872423112,104.10730966284146,公司企业;公司;医药公司
三朴物业,30.621388204890508,104.1077672628799,公司企业;公司;公司
四川瑞丰种业,30.62497699834075,104.10363346457405,公司企业;公司;公司
四川田丰农业科技发展有限公司,30.624769110689044,104.10369368002874,公司企业;公司;公司
成都市光洁金属表面处理有限公司,30.587650122858815,104.1041135724266,公司企业;公司;公司
泰禾广告,30.608811537492844,104.12153960203952,公司企业;公司;广告装饰|生活服务;生活服务场所;生活服务场所
成都零零柒科技发展有限公司,30.630053572137115,104.14911673191392,公司企业;公司;公司
恒通动保养殖科技服务站,30.624146373902995,104.10636555427615,公司企业;公司;公司|生活服务;生活服务场所;生活服务场所
确良种苗,30.62497699834075,104.10363346457405,公司企业;公司;公司
繁华园林公司,30.590096573237307,104.15390192431327,公司企业;公司;公司
绿博清洁,30.622193114314705,104.14371659796684,公司企业;公司;公司|生活服务;生活服务场所;生活服务场所
华智生物,30.625056111480397,104.10411543067522,公司企业;公司;网络科技
庞瑞科技有限公司,30.62293729639926,104.1428958459409,公司企业;公司;网络科技
四川众望种业,30.62497699834075,104.10363346457405,公司企业;公司;公司
成都新欣雅礼品公司,30.614829638347434,104.12417373725316,公司企业;公司;公司
达利城防盗纱窗,30.623030236904274,104.14607799573056,公司企业;公司;公司
绿野公司(静康路),30.62497699834075,104.10363346457405,公司企业;公司;公司
天涯创客空间,30.601023172021208,104.11470575154385,公司企业;公司;网络科技
成都三浪科技有限公司,30.591945478024012,104.1087379090947,公司企业;公司;公司
成都市好日子物业服务有限公司,30.63020749247108,104.1599372878048,公司企业;公司;公司
万健实业,30.610555644970272,104.15036315490343,公司企业;公司;公司
成都群辉实业有限公司,30.600156011726924,104.16902392334397,公司企业;公司;公司
成都德光机电设备有限公司,30.593717806578304,104.1449625295143,公司企业;公司;机械电子
成都普健医用设备制造有限公司,30.612919523792314,104.14565160298025,公司企业;公司;医药公司
成都华罗生物科技有限公司,30.62351012986246,104.10795032248711,公司企业;公司;网络科技
成都大唐西智科技有限公司,30.601122313234566,104.13913082068271,公司企业;公司;网络科技
成都龙科源科技有限公司,30.624958903887602,104.10367648701917,公司企业;公司;网络科技
天基权健康科技集团,30.617307928495922,104.1029781034904,公司企业;公司;公司
辉煌种业,30.62497699834075,104.10363346457405,公司企业;公司;公司
成都蓉东机械汽配有限公司,30.59245028597654,104.102962524144,公司企业;公司;机械电子
好丰收农资公司,30.621859935193786,104.10774483962906,公司企业;公司;公司
龙泉光明橡塑,30.601964076215094,104.1693938343247,公司企业;公司;公司
成都地铁洪柳车辆段,30.595033609100852,104.17137459398586,公司企业;公司;公司
成都时代凯瑞教育文化有限责任公司,30.622864126511942,104.11128624723008,公司企业;公司;公司
四川君河建设,30.62543843885577,104.11142672901103,公司企业;公司;建筑公司
四川省电影公司仓库,30.595141313942573,104.17405976812934,公司企业;公司;公司
纳智捷,30.594471149345445,104.10633340750861,公司企业;公司;公司
华邦化工,30.62973844580088,104.15045919868547,公司企业;公司;冶金化工
成都瑞宏兽药有限公司,30.622302514783343,104.10789145098364,公司企业;公司;公司
荣兴菌业商贸部,30.623060280296055,104.10816177094031,公司企业;公司;商业贸易
四川瑞恒牧业有限公司,30.623997057356156,104.10796485188195,公司企业;公司;公司
兽康器械养殖设备,30.62348944748788,104.10705925823873,公司企业;公司;公司
应急物资供应,30.61292731996648,104.12590302188121,公司企业;公司;公司
龙科种业,30.62347611519128,104.10768433007416,公司企业;公司;公司
四川艾默斯科技有限公司,30.61436755628311,104.12399701121058,公司企业;公司;网络科技
林胜农资,30.622906990081724,104.10748985199126,公司企业;公司;公司
根据地108库房,30.613166720730916,104.15547716150014,公司企业;公司;公司
文茂检测,30.61606026894371,104.14582966311761,公司企业;公司;公司
中国建筑第三工程局,30.607565459911676,104.15378059645498,公司企业;公司;建筑公司
成都然品农业开发有限公司,30.620617804390783,104.15187658528718,公司企业;公司;公司
成都吉邦电子,30.612528329869168,104.11942167747033,公司企业;公司;公司
四川恒通兴牧农牧科技有限公司,30.6240870417816,104.10657363228488,公司企业;公司;公司
汇隆影像,30.624980346415775,104.1476352008701,公司企业;公司;公司
锦江区美集广告经营部,30.61143600526237,104.11283365085663,公司企业;公司;广告装饰
成都天银制药有限公司,30.62814579790816,104.14629472465602,公司企业;公司;医药公司
成都海陆通达科技有限公司,30.607982234023282,104.14652493315202,公司企业;公司;公司
四川兴庆包装制品有限公司,30.624954881804157,104.1036884922414,公司企业;公司;公司
罗蒙服饰,30.6307973871659,104.15100197726564,公司企业;公司;公司
成都肉家多肉商贸有限公司,30.59356901734747,104.15390613492032,公司企业;公司;公司
成都立鑫物流有限公司,30.636941403275934,104.16650600339787,公司企业;公司;公司
成都胜成达商贸有限公司,30.621235484668357,104.13278360055973,公司企业;公司;商业贸易
成都主峰啤酒有限公司,30.628542016969288,104.16337244004687,公司企业;公司;公司
食尚味餐饮管理公司,30.61103650886506,104.14818177039464,公司企业;公司;公司
成都禅达天下有限公司(禅意家具)文化传播有限公司,30.622929290508193,104.11147920391319,公司企业;公司;公司
四川玉智杰科技有限公司,30.63506307643505,104.15031450170846,公司企业;公司;网络科技
米小福食品有限公司,30.61087918278244,104.14824585056469,公司企业;公司;公司
四川康孚信息技术有限公司,30.622789509109438,104.11202738560048,公司企业;公司;网络科技
成都市锦江区众志钢筘厂,30.592465021308332,104.10127136405426,公司企业;工厂;工厂
天涯移动互联网国际智慧村,30.601024152961074,104.11474875541481,公司企业;公司;网络科技
精品梅园,30.587675796425753,104.1292608634333,公司企业;农林牧渔基地;其它农林牧渔基地
成都飞扬画材工艺品有限公司,30.609507558694155,104.17356409634635,公司企业;公司;公司
成都雅各贝贸易有限公司,30.623929849071118,104.14364695111699,公司企业;公司;公司
四川省兰月科技有限公司(静渝路),30.622072735536843,104.10771564424857,公司企业;公司;网络科技
四川户航科技有限公司,30.61352585784808,104.1390047508428,公司企业;公司;公司
鑫宏达农林物资有限公司,30.622453080055806,104.10789431271878,公司企业;公司;公司
根据地105库房,30.608770521641187,104.15972155606563,公司企业;公司;公司
成都高亮食品有限公司,30.636231997414427,104.16507989581663,公司企业;公司;公司
成都宏雯贸易有限公司,30.62090835563211,104.1461809255374,公司企业;公司;公司
悦和优加库房,30.60175934706439,104.15736309636006,公司企业;公司;公司
华帝销售有限公司,30.620802814071922,104.15331052603105,公司企业;公司;公司
四川华峰农业装备公司,30.62983682599637,104.10379816044195,公司企业;公司;公司
沙河・壹号租售中心,30.621951607956397,104.1114681047021,公司企业;公司;公司
四川永屹农牧开发有限公司,30.62223015105995,104.10809853677826,公司企业;公司;公司
成都秀丽园林有限公司,30.587966802189584,104.12770788640927,公司企业;公司;公司
洪升铝合金型材,30.587488637453237,104.1016102415518,公司企业;公司;公司
宏亿复合材料工程技术有限公司,30.60035420392455,104.16857989180501,公司企业;公司;公司
海尔仓库,30.602474641544873,104.10997718326617,公司企业;公司;公司
餐馆无忧东区仓库,30.60023801880662,104.16900192010397,公司企业;公司;公司
金科物业(马家沟路),30.62474226915357,104.1075560748436,公司企业;公司;公司
东星巴士有限公司,30.612711423922093,104.12684322173253,公司企业;公司;公司
肆陆捌广告,30.61144559121675,104.1362716623671,公司企业;公司;广告装饰
成都大杨渔业有限公司,30.624147429230902,104.10625154241467,公司企业;公司;公司
友盟广告,30.618820000616527,104.15367119006777,公司企业;公司;公司
成都天孜广告有限公司,30.615000606480024,104.14321517021487,公司企业;公司;公司
成都锦龙商贸有限公司,30.615593189865653,104.14765711224365,公司企业;公司;公司
禧睿科技有限公司,30.636556367980887,104.16613251399228,公司企业;公司;公司
四川一佳一商标代理有限公司,30.6009321868194,104.13936485024352,公司企业;公司;公司
四川格瑞建筑公司,30.61535113907605,104.1643614001187,公司企业;公司;公司
精博艺广告庆典装饰,30.609503842465845,104.12555866972596,公司企业;公司;广告装饰
成都友谊包装实业有限公司,30.588602999271586,104.10170183019706,公司企业;公司;公司
俊鹏玻璃,30.58832856085496,104.10182670483563,公司企业;公司;公司
精品梅桩盆景园,30.587951395533246,104.12869796213036,公司企业;农林牧渔基地;其它农林牧渔基地
福润龙养猪设备器械,30.6228797978614,104.10768589601436,公司企业;公司;公司
欧睿博农林机械,30.62348944748788,104.10705925823873,公司企业;公司;公司
禾本科技,30.622031815406807,104.10719763249573,公司企业;公司;公司
陆霖农资有限公司,30.622563701332204,104.10744116766932,公司企业;公司;公司
四川千八卫植保公司,30.622031815406807,104.10719763249573,公司企业;公司;公司
浩凡广告,30.624679428458165,104.13793777123774,公司企业;公司;广告装饰
金丰达化工,30.621388204890508,104.1077672628799,公司企业;公司;冶金化工
戴威肥业成都营销中心,30.62221629526503,104.10766050817004,公司企业;公司;公司
天地伟业,30.622811601713035,104.11200936327269,公司企业;公司;公司
合源动力科技有限公司,30.62583200161883,104.10274950134051,公司企业;公司;公司
兰月科技,30.625097479044033,104.10368034688113,公司企业;公司;公司
盛吉立房地产公司,30.604426024793145,104.12953159811066,公司企业;公司;公司
恒宇实业有限公司,30.612273633604776,104.11078702936248,公司企业;公司;公司
成都安蓉商务,30.623029067984763,104.11060102851617,公司企业;公司;公司
四川招港置业有限公司,30.622993903627833,104.11066506762391,公司企业;公司;公司
成都丹凤科技有限公司,30.615433756972564,104.10501260131757,公司企业;公司;公司
四川中普建设有限公司,30.605023479789878,104.14983804584827,公司企业;公司;公司
成都金地种业有限公司,30.6238997313857,104.10335850819752,公司企业;公司;公司
科美国际建筑设计公司,30.63083965539619,104.10624919981271,公司企业;公司;公司
龙安华诚设计公司,30.622808591979613,104.11200536572018,公司企业;公司;公司
金房三径物业公司,30.60661416630063,104.14281810498483,公司企业;公司;公司
成都好特园艺有限公司,30.62411597231321,104.1069886431969,公司企业;公司;公司
博瑞广告,30.61304700901601,104.12945125412517,公司企业;公司;公司
万年青广告,30.619195153211024,104.12683382255305,公司企业;公司;公司
成都江锦食品有限公司,30.60461401402766,104.1276263984261,公司企业;公司;公司
九州水业,30.593263829291082,104.13723980884697,公司企业;公司;公司
成都希亚实验设备,30.622022369104677,104.10811672778108,公司企业;公司;公司
耀文公司,30.62200841301945,104.11237413689348,公司企业;公司;公司
米顶科技,30.62171586742535,104.1089490823387,公司企业;公司;公司
成都鼎瑞物业服务有限公司,30.623502271960966,104.14338734574814,公司企业;公司;公司
四川宏扬印务有限责任公司,30.625700440195633,104.14523528629704,公司企业;公司;公司
四川东楠建设,30.61285118801906,104.14381350391758,公司企业;公司;公司
成都高正服务有限公司,30.616591939043552,104.12967802377393,公司企业;公司;公司
光大米业加工点,30.617460452796827,104.10281997626488,公司企业;公司;公司
地铁7号线川师车辆段,30.613469867686398,104.10725503176208,公司企业;公司;公司
比格熊漫画有限公司,30.62308693911633,104.11138904693723,公司企业;公司;公司
猪保姆来恩公司,30.6231210519774,104.10696360039493,公司企业;公司;公司
小米机器人科技中心,30.597633959829302,104.13464641851239,公司企业;公司;公司
良品广告印刷,30.613959180584686,104.13833644195735,公司企业;公司;公司
成都都对科技有限公司,30.593468335734418,104.15122991959525,公司企业;公司;公司
233小院,30.59223339124729,104.15276465390352,公司企业;公司;公司
成都鑫禾园林有限公司,30.62261377995384,104.10769014471009,公司企业;公司;公司
环球汇蔚然营销中心,30.637057056481265,104.10648312887274,公司企业;公司;公司
唐玛商贸有限公司,30.62619671836204,104.11357813721123,公司企业;公司;公司
四川路鲲集团有限公司,30.587335839193607,104.11760366231638,公司企业;公司;公司
四川中昆石化有限公司,30.622926000901725,104.11209826418535,公司企业;公司;公司
和诚佳业公司,30.62333154707046,104.1099216782355,公司企业;公司;公司
成都汤姆猫灭鼠公司,30.625681196519754,104.10310869269232,公司企业;公司;公司
美宿美栖科技有限公司,30.622862877427043,104.11183229889902,公司企业;公司;公司
鑫威宏汽车有限公司,30.623150457109723,104.1152523407366,公司企业;公司;公司
美仑广告喷绘印刷公司,30.605428113948967,104.14921290355619,公司企业;公司;公司
金赛尔广告,30.59197925715513,104.1091119559909,公司企业;公司;公司
成都大桶渔业有限公司,30.624116269626366,104.1063275802524,公司企业;公司;公司
二马科技,30.60788182643483,104.1223810212624,公司企业;公司;公司
川东农药化工有限公司,30.622589779677508,104.1074871478297,公司企业;公司;公司
成都和恒竹业有限公司,30.622807585891135,104.11201036712295,公司企业;公司;公司
二十四城科技公司,30.622649296794773,104.11130644970852,公司企业;公司;公司
蜀之星种业有限公司,30.62357974454184,104.10719018379864,公司企业;公司;公司
四川恒禾种业有限公司,30.625073293852715,104.10386838951938,公司企业;公司;公司
成都建工集团三公司,30.631636785920552,104.11489302966342,公司企业;公司;公司
四川熙宇农资有限公司,30.622902200446905,104.10697880818054,公司企业;公司;公司
四川居宁科技工程有限公司,30.619095973604992,104.14897964014274,公司企业;公司;公司
四川省种公牛站,30.62347719633025,104.11198072985535,公司企业;公司;公司
四川金和药业有限公司,30.62382076274278,104.10704993737768,公司企业;公司;公司
浩爽制冷成都分公司,30.62310251181862,104.11024392590429,公司企业;公司;公司
清华岩土,30.60392905506267,104.11970284788785,公司企业;公司;公司
四川师范大学后勤集团信息中心,30.612210364684405,104.11557550297778,公司企业;公司;公司
圣弘建设股份有限公司,30.6228166083576,104.11203736117005,公司企业;公司;公司
鸿创电子科技发展公司,30.62278047949473,104.1120163930275,公司企业;公司;机械电子
钰源建设工程公司,30.62281292263947,104.11130329677344,公司企业;公司;公司
泰龙建设集团公司,30.622811604407655,104.11200336271655,公司企业;公司;公司
同色数码广告,30.60804980815361,104.14769499468905,公司企业;公司;广告装饰
汇豪置业公司,30.62497699834075,104.10363346457405,公司企业;公司;公司
成都府尚广告传媒有限公司,30.620737274516838,104.1517574743287,公司企业;公司;公司
成都名杰兽药有限责任公司,30.62358341645453,104.10795525245281,公司企业;公司;公司
四川广益腾飞科技有限公司,30.629782172695357,104.14930406515137,公司企业;公司;公司
成都科祥园艺有限公司,30.590091482157483,104.15637609194098,公司企业;农林牧渔基地;其它农林牧渔基地
四川巨浪智能设备有限公司,30.614171980607228,104.17830494552953,公司企业;公司;公司
四川绿能世纪兽药有限公司,30.62335993405291,104.10707138340803,公司企业;公司;公司
成都乐辰教育科技有限公司,30.61930842883638,104.12704674936306,公司企业;公司;公司
味丹农业科技,30.621388204890508,104.1077672628799,公司企业;公司;网络科技
四川省鼎锋药业有限责任公司,30.625290997631197,104.10210099717553,公司企业;公司;医药公司
成都路路通科技有限公司,30.619236609586288,104.15983727103891,公司企业;公司;公司
成都斯达康渔业有限公司,30.62360674096367,104.10743618102676,公司企业;公司;公司
新乡和协集团成都办事处,30.622809562554465,104.10760995465314,公司企业;公司;公司
人鱼文化广告,30.60746771108536,104.15518572598184,公司企业;公司;广告装饰
四川爱车士服务有限公司,30.59415931448328,104.11123179545096,公司企业;公司;公司
成都公交集团(合欢树街),30.608577545634944,104.12073362151303,公司企业;公司;公司
成都嘉乐宝商贸有限公司,30.624891365329066,104.17149484175658,公司企业;公司;公司
成都市猫眼食品有限公司,30.596130662813543,104.1285317282035,公司企业;公司;公司
金珠农贸,30.621388204890508,104.1077672628799,公司企业;公司;商业贸易
河南红绿辣椒西南办事处,30.62497699834075,104.10363346457405,公司企业;公司;公司
四川和诚佳业展览展示服务有限公司,30.622855026725173,104.11143126918643,公司企业;公司;公司
成都两包业务处理中心,30.629489036735897,104.13303316434859,公司企业;公司;公司
万科物业有限公司,30.628633818647955,104.15131853490509,公司企业;公司;公司
科顿激光美容仪器公司,30.628474992314437,104.15375388439205,公司企业;公司;公司
城市花园物业服务中心(花园街),30.619893648647576,104.11299202957002,公司企业;公司;公司
铭蕊商贸有限公司,30.629753944399905,104.14951011300832,公司企业;公司;公司
柯美特建材集团有限公司,30.62273798512427,104.11052329442323,公司企业;公司;公司
成都金雅图科技有限公司,30.623043296145564,104.11021397908117,公司企业;公司;公司
成都万科房地产有限公司,30.62033234924324,104.1102964129863,公司企业;公司;公司
中国建筑有限公司,30.636622340699144,104.15364061524721,公司企业;公司;公司
成都精度科技有限公司,30.631044300318692,104.14723740873198,公司企业;公司;公司
渝铁旅服,30.630700223005714,104.14805288381969,公司企业;公司;公司
四川财盛建筑劳务有限公司,30.611333230674607,104.13208637993444,公司企业;公司;建筑公司
成都心艺居装饰,30.631155991684533,104.1514165717344,公司企业;公司;公司
江苏首创置业有限公司,30.633688476023107,104.14837517207606,公司企业;公司;公司
成都立舜贸易有限公司,30.62741862066081,104.13032728303054,公司企业;公司;公司
美仑广告喷绘印刷公司,30.633857937102658,104.14937302369032,公司企业;公司;公司
成都瑞恒能源有限公司,30.630000374160808,104.14898078504346,公司企业;公司;公司
中国建业股份有限公司,30.637081602443526,104.15224288143013,公司企业;公司;公司
兴城建设,30.621532456143996,104.13524953700207,公司企业;公司;公司
长治市德林科贸有限公司,30.600631513602057,104.14308215100193,公司企业;公司;公司
四川远瞻电子科技,30.630574988574256,104.14942913319618,公司企业;公司;公司
成都市开心园艺有限公司,30.625133607510314,104.1037303149413,公司企业;公司;公司
四川易洛朗科技有限公司,30.594552829682875,104.13373585670001,公司企业;公司;公司
四川祥和鸟服饰有限公司,30.62273127391617,104.11429164762818,公司企业;公司;公司
锦江区卡丁车男装经营部,30.60505656426193,104.10475323032631,公司企业;公司;公司
查斯特环境治理有限公司,30.605593685081967,104.10108374395557,公司企业;公司;公司
四川布兰奇洗业有限公司,30.58712621483174,104.12909554796136,公司企业;公司;公司
石家庄荣大肥业有限公司,30.62221629526503,104.10766050817004,公司企业;公司;公司
成都爱瑞声科技有限公司,30.60353736299011,104.12071900684576,公司企业;公司;公司
四川省畜科饲料有限公司,30.6314909509567,104.10175897647696,公司企业;公司;公司
四川丰瑞达农化有限公司,30.622292857203544,104.10704537994681,公司企业;公司;公司
保利汽车(成都)有限公司,30.5949856567834,104.10621450920517,汽车销售;法拉利特约销售;玛莎拉蒂销售|汽车维修;法拉利特约维修;玛莎拉蒂维修|公司企业;公司;公司
成都雅特诺科技有限公司,30.59074455430655,104.14673367767746,公司企业;公司;公司
成都富新源种业有限责任公司,30.62411494038436,104.10705065007663,公司企业;公司;公司
成都塞纳斯科技有限公司,30.62436881767551,104.1096176408872,公司企业;公司;公司
豪阳广告,30.61929912892724,104.16363546274852,生活服务;生活服务场所;生活服务场所|公司企业;公司企业;公司企业
成都锦欣医疗投资管理集团有限公司,30.62632710045899,104.11175683210307,公司企业;公司;医药公司
成都森科睿科技有限公司,30.622868764904112,104.11213432124669,公司企业;公司;公司
鑫源广告设计有限公司,30.600954358274727,104.15701113234515,公司企业;公司;广告装饰
春娟黄芪(理想无限春娟面膜),30.6201519825942,104.12092652713133,公司企业;公司;公司
华成广告印务(经天三街),30.601530792365004,104.10453376202237,公司企业;公司;广告装饰
四川师范大学后期集团通讯服务中心,30.612215373020984,104.11558050077477,公司企业;公司;公司
中国电信成都分公司四川师大模块局,30.612215353811976,104.11562350468523,公司企业;公司;电信公司
成都佳镜科技有限公司,30.631359631982818,104.1455649016858,公司企业;公司;公司
西科通信有限公司,30.62964649605817,104.15159438637423,公司企业;公司;公司
金斗仓库(四川兰菱库房),30.612599381727843,104.10395620715192,公司企业;公司;公司
成都玉玲珑装饰工程有限公司,30.621596935508855,104.10782608308295,公司企业;公司;公司
成都洪河液化石油气有限公司,30.602263095133253,104.16956681245486,公司企业;公司;公司
华润软装咨询区,30.61532669924276,104.12468446073119,公司企业;公司;广告装饰
大手笔广告,30.623108721453868,104.1008970294352,公司企业;公司;广告装饰
原子核厂,30.62769815553163,104.12078616181124,公司企业;公司企业;公司企业
盟友广告,30.618903334800148,104.15352011370992,公司企业;公司;广告装饰
川蓉广告,30.62379728703735,104.10343861554432,公司企业;公司;广告装饰
创意广告(合欢树街),30.611384467730428,104.13177932930924,公司企业;公司;广告装饰
成都鼎派动保科技有限公司,30.623141007133135,104.10723660731776,公司企业;公司;公司
四川中烟工业有限责任公司,30.598499127273698,104.12669281924937,公司企业;公司;公司
四川万孚医疗器械有限公司,30.627219831531548,104.11222791675755,公司企业;公司;医药公司
四川汇普装饰材料有限公司,30.613768354534653,104.11221732069727,公司企业;公司;公司
四川伊禾动物药品有限公司,30.6203674923184,104.11024737868934,公司企业;公司;公司
四川时代百汇草业有限公司,30.62497699834075,104.10363346457405,公司企业;公司;公司
成都汇通易达科技有限公司,30.61512837359856,104.11079334598293,公司企业;公司;公司
兴龙电脑有限公司,30.623194528449275,104.16033882667409,公司企业;公司;公司
104根据地仓库,30.607062853955423,104.1785882730006,公司企业;公司;公司
成都集和品牌设计有限公司,30.62498380101747,104.14664712528534,公司企业;公司;公司
四川振海保安服务有限公司,30.59143266660675,104.17754890963916,公司企业;公司;公司
成都昊轩电力工程有限公司,30.624750648174537,104.17180500124019,公司企业;公司;公司
四川众睿机电设备有限公司,30.630313492709345,104.16109923649597,公司企业;公司;公司
四川先舟建设工程有限公司,30.600451226582077,104.1685298856641,公司企业;公司;公司
成都天庆市场管理有限公司,30.61909403175007,104.14883463125895,公司企业;公司;公司
成都市星科印务有限公司,30.60109408752802,104.16895087929933,公司企业;公司;公司
恒创精品体育器材有限公司,30.618739728375918,104.16272085128706,公司企业;公司;公司
四川长江种业有限责任公司,30.62495990760797,104.1036774860999,公司企业;公司;公司
四川汇森建筑装饰工程有限公司,30.624671521100495,104.10634403109587,公司企业;公司;建筑公司
成都伯桉生物技术有限公司,30.622897657859774,104.10815192315714,公司企业;公司;公司
成都毕方环保工程有限公司,30.587649225656573,104.10166133354124,公司企业;公司;公司
成都讯鹏金属制品有限公司,30.587050575120127,104.1019400305581,公司企业;公司;公司
成都派摩宠物科技有限公司,30.630857285018187,104.1474216486646,公司企业;公司;公司
四川锦溢非融资担保有限公司,30.618095711979233,104.15820905856093,公司企业;公司;公司
四川允そㄖ工程机械有限公司,30.620590544179684,104.14325398122402,公司企业;公司;公司
云上,30.593860471285666,104.15431924047735,公司企业;公司;公司
四川适度空间制冷设备有限公司,30.623612840872937,104.11173457664486,公司企业;公司;公司
润谷体验中心,30.61845063084561,104.15637266320279,公司企业;公司;公司
成都天古豪佳装饰有限公司,30.622970865831178,104.11055107872936,公司企业;公司;公司
四川南洋机电设备有限公司,30.62154074986437,104.10778412917402,公司企业;公司;公司
琅琊阁广告有限公司,30.615293759353133,104.1423369137494,公司企业;公司;广告装饰
四川启创建设工程有限公司,30.623020739584657,104.11126309779797,公司企业;公司;公司
成都市清新渣土运输有限公司,30.62244304074174,104.16172761983891,公司企业;公司;公司
四川松峻工程测量有限公司,30.6149654089098,104.1322093262995,公司企业;公司;公司
四川星利涂装材料有限公司,30.60239777504321,104.13656550191668,公司企业;公司;公司
成都晶和设计制作有限公司,30.604039905787705,104.1134682638085,公司企业;公司;公司
成都海盛电气工程有限公司,30.594838624467705,104.13351490174908,公司企业;公司;公司
四川天宇种业有限责任公司,30.627443935121388,104.10309781145686,公司企业;公司;公司
四川大澳农业科技有限公司,30.62356350627838,104.1075792361781,公司企业;公司;公司
成都德尚装饰工程有限公司,30.624913793352558,104.10350551617326,公司企业;公司;公司
成都铭贤教育投资有限公司,30.61256428563614,104.11072286684384,公司企业;公司;公司
成都麦劲环保科技有限公司,30.62180741441338,104.10847695583793,公司企业;公司;公司
娇子公交停保基地(建设中),30.602071680380604,104.12304140999662,公司企业;公司;公司
四川炳辰建筑工程有限公司,30.622855125989133,104.1112102486284,公司企业;公司;公司
成都齐鲁光普商贸有限公司,30.62509645504166,104.1037243521514,公司企业;公司;公司
四川达方农业化工有限公司,30.622209390742768,104.10738948889596,公司企业;公司;公司
成都市吉信康商贸有限公司,30.63409331472843,104.11349078228598,公司企业;公司;公司
成都首创锦汇置业有限公司,30.600291706588735,104.12015827353777,公司企业;公司;公司
成都卓锦商业管理有限公司,30.59977822751381,104.13254133854308,公司企业;公司;公司
成都梦园生物科技有限公司,30.630005853020588,104.11001754942694,公司企业;公司;公司
四川三维测控设备有限公司,30.601804306175367,104.13945079226723,公司企业;公司;公司
成都畅兴生物科技有限公司,30.623071522108955,104.10771871858513,公司企业;公司;公司
河北天昕建设集团有限公司,30.613218220556686,104.11861822169229,公司企业;公司;公司
四川艾名物业管理有限公司,30.619979900861825,104.1018979099279,公司企业;公司;公司
山东瑞普生物科技有限公司,30.622695408889097,104.10697900159703,公司企业;公司;公司
成都惟芒广告设计有限公司,30.615452801176225,104.11174622255531,公司企业;公司;公司
凯优花园酒店管理有限公司,30.61244894861826,104.11091994770675,公司企业;公司;公司
四川省人和人商务有限公司,30.601313575435885,104.10268860023119,公司企业;公司;公司
成都树鑫玖玖食品有限公司,30.619956038666007,104.13276269334332,公司企业;公司;公司
成都野海教育咨询有限公司,30.60147661772944,104.1430820998282,公司企业;公司;公司
四川嘉业蓝创科技有限公司,30.621022438736908,104.12221589577123,公司企业;公司;公司
四川哈瑞商贸有限责任公司,30.593925358105555,104.11175678575606,公司企业;公司;公司
遇花园,30.59129293831352,104.15719362746948,公司企业;农林牧渔基地;其它农林牧渔基地
成都鹏展文化传播有限公司,30.60177578306174,104.12936397904717,公司企业;公司;公司
油箱公司,30.61507868620053,104.15475395054541,公司企业;公司;公司
闻香访梅,30.588604015813956,104.12845627402659,公司企业;农林牧渔基地;其它农林牧渔基地
成都惠和机械设备有限公司,30.622844091280413,104.11119325739512,公司企业;公司;公司
四川金典照明工程有限公司,30.622845095129147,104.11119325645447,公司企业;公司;公司
成都简单点科技有限公司,30.63043860369775,104.14878625042103,公司企业;公司;公司
华鑫兴建筑劳务有限公司,30.631398146494117,104.14708496600466,公司企业;公司;公司
四川海洲建设工程有限公司,30.62281292263947,104.11130329677344,公司企业;公司;公司
成都静语雅翔商贸有限公司,30.62930896867108,104.11118347257951,公司企业;公司;公司
四川拓元教育咨询有限公司,30.621944967518864,104.10837382207984,公司企业;公司;公司
广联达科技股份有限公司,30.630659534657312,104.14690484935043,公司企业;公司;公司
四川优尼斯科技有限公司,30.630477985683783,104.14836517302221,公司企业;公司;公司
四川明申农牧科技有限公司,30.62348620051407,104.10758231077237,公司企业;公司;公司
成都欧特洛科技有限公司,30.63091560273653,104.14736057370258,公司企业;公司;公司
成都红格广告设计有限公司,30.6230661908783,104.1106469977359,公司企业;公司;公司
华诚博远建筑规划设计公司,30.622811604407655,104.11200336271655,公司企业;公司;建筑公司
四川艾迪诺科技有限公司,30.63010957555138,104.1497197087156,公司企业;公司;公司
四川佰润科技,30.62497699834075,104.10363346457405,公司企业;公司;网络科技
成都优盛财务咨询有限公司,30.621295048618567,104.10736630723324,公司企业;公司;公司
四川冠亚农业科技有限公司,30.621405277291657,104.10774324551504,公司企业;公司;公司
成都景洪广告传媒有限公司,30.593361640218006,104.13737384711644,公司企业;公司;公司
四川康福星健康咨询有限公司,30.587706725819935,104.14940945751017,公司企业;公司;公司
曼购中心售楼部,30.602412294943804,104.13315822546913,公司企业;公司企业;公司企业
四川省畜科公司,30.623391703801353,104.10786342781847,公司企业;公司;公司
成都市丙火创意设计有限公司,30.62566008408271,104.1456493587881,公司企业;公司;公司
牧川动保,30.623772189239126,104.10789906469135,公司企业;公司企业;公司企业
四川省其高暖通设备有限公司,30.624891365329066,104.17149484175658,公司企业;公司;公司
成都时时鲜农业开发有限公司,30.619488296833886,104.15789793986714,公司企业;公司;公司
成都蜀南雷迈机械设备有限公司,30.62169322644889,104.14606122476269,公司企业;公司;机械电子
成都大兴业商务服务有限公司,30.615008539947993,104.14791451331135,公司企业;公司;公司
北京恒安卫士(成都地铁安检驻勤基地),30.60956595058243,104.15256374889202,公司企业;公司;公司
成都吉电电力供应有限责任公司,30.609802290907687,104.16623454247085,公司企业;公司;公司
四川明吉电力工程安装有限公司,30.609802290907687,104.16623454247085,公司企业;公司;公司
科析生态科技园,30.602258826915698,104.17016984826284,商务住宅;产业园区;产业园区|公司企业;农林牧渔基地;其它农林牧渔基地
苏强格液压股份有限公司成都分公司,30.60226212001086,104.1695098092137,公司企业;公司;公司
成都合迅机械有限责任公司,30.637051335218203,104.15467909126272,公司企业;公司;机械电子
四川省家悦暖通工程有限公司,30.602362878271162,104.13630448522602,公司企业;公司;公司
彭州吉祥酒厂,30.61997944512934,104.15900960845528,公司企业;公司企业;公司企业
成都农之道农业科技有限公司,30.624057732759024,104.11146711937663,公司企业;公司;公司
海上海租售中心,30.6316788302221,104.15544820858524,公司企业;公司企业;公司企业
绿康生态鸡,30.61707532710664,104.10279225453411,公司企业;公司企业;公司企业
成都市龙润农资有限责任公司,30.62382076274278,104.10704993737768,公司企业;公司;公司
四川川众研农业科技有限公司,30.623374850037894,104.10738939921447,公司企业;公司;公司
索勒依洗衣工厂,30.61577794128161,104.11114595051532,公司企业;公司企业;公司企业
成都保溉拇包装制品有限公司,30.5940764788788,104.15147009569766,公司企业;公司;公司
四川鑫利丰科技有限责任公司,30.621821833885427,104.10765786574055,公司企业;公司;公司
四川垦丰种业有限公司,30.62341993922116,104.10981858412417,公司企业;公司企业;公司企业
微鸿科技总仓,30.623312106854765,104.11744238439121,公司企业;公司企业;公司企业
红树林小区物业办公室,30.610146223895047,104.10246928026007,公司企业;公司企业;公司企业
滴滴公司,30.59788293474597,104.11198946937388,公司企业;公司企业;公司企业
高新技术产品,30.624113818954253,104.10731167585325,公司企业;公司企业;公司企业
成都明信达科技有限责任公司,30.636743993500897,104.1048444076863,公司企业;公司;公司
成都市科普示范基地,30.634243970941274,104.11384661750421,公司企业;公司企业;公司企业
成都交头,30.601865343949434,104.11692788847284,公司企业;公司企业;公司企业
四川贝迪佳农业科技有限公司,30.62348944748788,104.10705925823873,公司企业;公司;公司
成都古方堂生物科技有限公司,30.601085279460186,104.13919582808488,公司企业;公司;公司
四川博涵祥环保科技有限公司,30.62140538592085,104.12316564207413,公司企业;公司;公司
四川耍得科技有限公司,30.593453732063285,104.15038085503224,公司企业;公司企业;公司企业
四川宜居家舒适建材有限公司,30.612059831128814,104.13628634895525,公司企业;公司;公司
川渝卷烟厂,30.598894707715136,104.12735589270646,公司企业;公司企业;公司企业
四川省恒诚户外运动有限公司,30.601309618096113,104.10259159109752,公司企业;公司;公司
源村生态农场,30.611224107002137,104.12739004244888,公司企业;公司企业;公司企业
成都市中秀生物科技有限公司,30.622253431969064,104.10766547466116,公司企业;公司;公司
成都怡鑫供应链管理有限公司,30.62266799618897,104.11213750910518,公司企业;公司;公司
成都人之源教育咨询有限公司,30.60316133976213,104.12930080508389,公司企业;公司;公司
凌克锁业贸易有限公司,30.598879280508296,104.1418150608425,公司企业;公司企业;公司企业
四川牧羊人畜牧有限责任公司,30.62334356778134,104.10774646279206,公司企业;公司;公司
格林农业,30.622292857203544,104.10704537994681,公司企业;公司企业;公司企业
广东金作农业科技有限公司四川总经销处,30.623361725678194,104.10755242714761,公司企业;公司;公司
成都欧普斯商务服务有限公司,30.621566799398,104.10788511550521,公司企业;公司;公司
成都台食记餐饮管理有限公司,30.60392706069847,104.10398739200481,公司企业;公司;公司
成都九一堂品牌设计有限公司,30.622808591979613,104.11200536572018,公司企业;公司;公司
锦胜印刷厂接件,30.6253383037048,104.10409214065233,公司企业;公司企业;公司企业
辽储新能源,30.623332549645937,104.10992467755838,公司企业;公司企业;公司企业
精工奇方,30.609020852724484,104.12155452058474,公司企业;公司企业;公司企业
成渝高铁,30.595044924019412,104.11667449487706,公司企业;公司企业;公司企业
锦江区诚信苗圃,30.594124384597915,104.1268461810899,公司企业;公司企业;公司企业
四川省正浩生物科技有限公司,30.62392207023206,104.10726585917482,公司企业;公司;公司
四川金博瑞教育咨询有限公司,30.614289468637516,104.11254403655714,公司企业;公司;公司
四川省作泰装饰工程有限公司,30.635010809489327,104.10133742551785,公司企业;公司;公司
果哒果哒,30.61252031789002,104.11940968075614,公司企业;公司企业;公司企业
四川迈德豪农业科技有限公司,30.62356751222608,104.10760123439745,公司企业;公司;公司
启迪桥社,30.622664202746254,104.11164346702448,公司企业;公司企业;公司企业
成都艾科特机电设备有限公司,30.622846098978034,104.1111932555138,公司企业;公司;公司
骏发物业,30.594388171674257,104.14910700159855,公司企业;公司企业;公司企业
联为电子,30.613247704534608,104.12666390540443,公司企业;公司企业;公司企业
成都市洵美酒店管理有限公司,30.629456038119596,104.15057353666442,公司企业;公司;公司
琉璃场皇锦楼,30.604041670329515,104.10727168469701,公司企业;公司企业;公司企业
兄弟医疗集团,30.62283631562994,104.11062521196966,公司企业;公司企业;公司企业
成都建工,30.60555845227832,104.13520780259934,公司企业;公司企业;公司企业
四川恒嘉纯獒园,30.587237716108294,104.16096199482112,公司企业;农林牧渔基地;其它农林牧渔基地
成都三一电子科技有限公司仓库,30.624599556199374,104.1481336202436,公司企业;公司;公司
成都筑焱建筑设计咨询有限公司,30.624938413726067,104.14709420392496,公司企业;公司;公司
四川昂森科技有限公司,30.605890930652116,104.12136855058448,公司企业;公司企业;公司企业
成都比特王科技有限责任公司,30.62513762429774,104.10373031085307,公司企业;公司;公司
成都泰晤士教育咨询有限公司,30.633947512965264,104.1024219322107,公司企业;公司;公司
四川田丰农业发展科技有限公司,30.624958903887602,104.10367648701917,公司企业;公司;公司
四川曼宝电源科技有限公司,30.631754370335447,104.15062478162939,公司企业;公司;公司
成都星丽奥广告有限公司,30.61340160985732,104.1029986640748,公司企业;公司;广告装饰
四川森森展示设备有限公司,30.630785476083165,104.1484328085354,公司企业;公司;公司
四川中福公路勘察设计有限公司,30.629633595277554,104.10212523736595,公司企业;公司;公司
成都博锐赛拓科技有限公司,30.627604107093873,104.13111314396542,公司企业;公司;公司
成都沐森香氛科技有限公司,30.630317838996426,104.14917042207092,公司企业;公司;公司
成都曦礼企业管理有限公司,30.631141066554424,104.15108156635372,公司企业;公司;公司
成都索兰机械设备有限公司,30.628349804643424,104.13048726116592,公司企业;公司;公司
诚设美居装饰设计有限公司,30.63045529810755,104.14741613144294,公司企业;公司;公司
成都琪钰装饰工程有限公司,30.630780249330908,104.1511200062509,公司企业;公司;公司
四川洪信地坪工程有限公司,30.631230524979255,104.15106045583882,公司企业;公司;公司
和仁商贸有限公司,30.62588629292312,104.14510108285,公司企业;公司;商业贸易
成都全达商务服务有限公司,30.632290885761584,104.14668383039856,公司企业;公司;公司
成都家良壹陆床垫有限公司,30.625028467496396,104.15679479134485,公司企业;公司;公司
成都中车四方轨道车辆有限公司,30.593371621895333,104.17114217851773,公司企业;公司;公司
四川省高校重点实验室特种废水处理,30.6143558626566,104.11651235758849,公司企业;公司;公司
成都鑫景源园林景观工程有限公司,30.608530792827555,104.16507898864887,公司企业;公司;公司
四川鸿禾建筑工程有限公司,30.621519475470066,104.13510053661828,公司企业;公司;公司
四川华美电器工程有限公司,30.633202573145205,104.15579531552507,公司企业;公司;公司
四川慧享天下网络科技有限公司,30.62210946694614,104.14222556168724,公司企业;公司;公司
四川拔丝蛋糕运营管理有限公司,30.619025890676422,104.15991544498587,公司企业;公司;公司
成都市凌巨通科技有限公司,30.63032303875109,104.14878038789682,公司企业;公司;公司
成都走你广告有限公司,30.631035113535166,104.14755244278778,公司企业;公司;广告装饰
兴合彩印厂,30.592402131202444,104.1798173625641,公司企业;工厂;工厂
互利压铸厂,30.609391941533552,104.17453419859095,公司企业;工厂;工厂
四川久益恒贸易有限公司,30.62297825435493,104.16132709490174,公司企业;公司;公司
四川蓉锦东房地产开发有限公司,30.624958903887602,104.10367648701917,公司企业;公司;公司
成都远见复合材料营销中心,30.630877640736546,104.14685258260046,公司企业;公司;公司
四川师大社区物业服务中心,30.622912349814516,104.11567260350321,公司企业;公司;公司
新疆棉花加工厂,30.631028777287355,104.16166841255091,公司企业;工厂;工厂
四川成都游泳池水处理设备厂家,30.599223048819187,104.10846420625505,公司企业;公司;公司
成都西祠宫坊商贸有限公司,30.634265626679273,104.14381508450852,公司企业;公司;公司
成都锦淳金属材料有限公司,30.629721756525903,104.1495831559678,公司企业;公司;公司
四川蜀府物业服务有限责任公司,30.624976198967225,104.10764084700563,公司企业;公司;公司
成都首翔知识产权代理有限公司,30.59591665929578,104.10428349843217,公司企业;公司;公司
成都益众都市农业开发有限公司,30.60254495638379,104.13178509668987,公司企业;公司;公司
四川东丽农业技术服务有限公司,30.62150976709141,104.10749412935655,公司企业;公司;公司
成都塞立康新材料有限责任公司,30.62405472461075,104.10699170357046,公司企业;公司;公司
成都中视未来公关策划有限公司,30.60125291241656,104.13782570947595,公司企业;公司;公司
成都朗鲲商务服务顾问有限公司,30.630822178345174,104.14726968001334,公司企业;公司;公司
成都九鼎映月商务服务有限公司,30.626832931820605,104.10147531817915,公司企业;公司;公司
成都阿尔法特机械设备有限公司,30.629177215970824,104.11146165061007,公司企业;公司;公司
四川荣智规划勘测设计有限公司,30.621347085188766,104.10770329317079,公司企业;公司;公司
中国建业,30.635411070917673,104.16803718903863,公司企业;公司企业;公司企业
成都头号营地电子商务有限公司,30.607799570017864,104.14746306648757,公司企业;公司;公司
成都时代金宇酒店管理有限公司,30.608075647466364,104.14588385228443,公司企业;公司;公司
贵州建工集团第四建筑工程公司,30.62306719386268,104.11064899697395,公司企业;公司;公司
成都富诺财务咨询有限责任公司,30.62154374913234,104.10781012895688,公司企业;公司;公司
成都心田花开教育咨询有限公司,30.633906403092293,104.10217396177946,公司企业;公司;公司
江苏中南建筑产业集团有限公司,30.625986637508984,104.11619959598447,公司企业;公司;公司
四川同力合丰农业科技有限公司,30.62960627682348,104.10921794400554,公司企业;公司;公司
成都市春紫瑞企业管理有限公司,30.596468357028296,104.10846598285804,公司企业;公司;公司
四川世安生命文化有限责任公司,30.62327239898174,104.1097367173635,公司企业;公司;公司
四川国垠天府种业有限责任公司,30.622845095129147,104.11119325645447,公司企业;公司;公司
成都公交集团43路调度室,30.608483500890017,104.12052363866354,公司企业;公司;公司
永威龙,30.61904570623234,104.1537170140627,公司企业;公司企业;公司企业
四川省科学器材公司(净居寺南街),30.624365808581604,104.10961064321563,公司企业;公司;公司
成都上善万康医疗器械有限公司,30.622845095129147,104.11119325645447,公司企业;公司;医药公司
湖南华莱,30.635416547505827,104.14471162109596,公司企业;公司企业;公司企业
海宝,30.62590154552238,104.17164081172159,公司企业;公司;公司
成都陵川特种工业有限责任公司,30.61618351284463,104.15055092070935,公司企业;公司;公司
四川光辉好口碑农业发展有限公司,30.620685205411444,104.14700517861665,公司企业;公司;公司
浙江威尔达化工有限公司(静渝路),30.622295700919278,104.10741841260574,公司企业;公司;冶金化工
长虹蜡烛加工坊,30.593145052612225,104.11468384276822,公司企业;工厂;工厂
成都邦尼兔教育咨询有限公司,30.63266639875751,104.14989358918095,公司企业;公司;公司
聚佳文化传播有限公司(仓库),30.62741330229921,104.14441639753846,公司企业;公司;公司
成都杰实密封粘胶有限公司,30.603696600475033,104.15641577402832,公司企业;公司;公司
成都车美洁洗车设备有限公司,30.630901460280562,104.14752160251663,公司企业;公司;公司
成都佳美一家政服务有限公司,30.63603384643723,104.14952613492233,公司企业;公司;公司
成都出行者旅游咨询有限公司,30.631628051829168,104.14766372553889,公司企业;公司;公司
成都净居士环保科技有限公司,30.629485175812768,104.15057750302819,公司企业;公司;公司
四川金汇富信息技术有限公司,30.63580206496898,104.1439030396703,公司企业;公司;公司
维品居装饰设计工程有限公司,30.6320677785851,104.15329757924815,公司企业;公司;公司
成都厨味轩餐饮管理有限公司,30.633924574565608,104.14205339772728,公司企业;公司;公司
成都成华区星光喷雾器厂,30.622410015208043,104.10767633187486,公司企业;公司企业;公司企业
江苏亚威机床股份成都办事处,30.634128785477124,104.15073576708726,公司企业;公司;公司
成都吉吉商贸有限公司,30.61103650886506,104.14818177039464,公司企业;公司;商业贸易
四川省清清生物工程有限责任公司,30.591105140686278,104.13052454317454,公司企业;公司;公司
成都市正成设计顾问公司,30.61711400909119,104.11271216278539,公司企业;公司企业;公司企业
四川地溢美生态农业科技有限公司,30.621475527926766,104.10775118401833,公司企业;公司;公司
四川瑞祥鑫园林绿化工程有限公司,30.624091651794483,104.10748571404757,公司企业;公司;公司
四川成都成华,30.62933033684572,104.15079969865509,公司企业;公司企业;公司企业
云上田园魅力农场,30.63084948089894,104.14689661984818,公司企业;公司企业;公司企业
朝日华嘉昊,30.629718859725838,104.15156029925363,公司企业;公司企业;公司企业
众鑫纸品,30.62464902626477,104.13855985038084,公司企业;公司企业;公司企业
成都市同步远方信息技术有限公司,30.59422494129654,104.13430982651154,公司企业;公司;公司
成都市川音大地教育管理有限公司,30.603934492057444,104.14346780401314,公司企业;公司;公司
实创家居装饰集团(成都)有限公司,30.620659765070794,104.12758666976963,公司企业;公司;公司
成都市冶业农药化工有限责任公司,30.62207905664402,104.10705057566986,公司企业;公司;公司
广西神达兽药驻川办事处,30.62345090824995,104.10792537696673,公司企业;公司企业;公司企业
成都杜氏锁业有限公司,30.632593814307317,104.15035471362668,公司企业;公司企业;公司企业
艺多美广告,30.619090465573912,104.15008272351537,公司企业;公司企业;公司企业
随享,30.59124784252482,104.12839941895209,公司企业;公司;广告装饰|餐饮服务;休闲餐饮场所;休闲餐饮场所
壹阁设计,30.630981954767968,104.14731348991008,公司企业;公司企业;公司企业
四川康源水利工程技术有限责任公司,30.630065486621675,104.10257877352757,公司企业;公司;公司
成都汇丰动物育种有限公司(静平路),30.6153625558573,104.10280243548408,公司企业;公司;公司
成都铭炜服装有限责任公司,30.62333644863954,104.16401092419974,公司企业;公司;公司
十里洋场,30.63048418773383,104.15469760973029,公司企业;公司企业;公司企业
成都汇丰动物育种有限公司(静康路),30.623490283575155,104.1119007099099,公司企业;公司;公司
上丰集团,30.629753944399905,104.14951011300832,公司企业;公司企业;公司企业
成都科深新材料技术开发有限公司,30.622808943646444,104.11122229299403,公司企业;公司;公司
西德众合设计机构,30.635525615173663,104.14591556304332,公司企业;公司企业;公司企业
四川西美平行进出口贸易有限公司,30.605048594532224,104.10467022420679,公司企业;公司;商业贸易
成都华胜皮鞋厂洪河分厂,30.59564267730419,104.17444988445757,公司企业;工厂;工厂
四川省华派生物制药有限公司(成都直营店),30.624113843240895,104.10725767072678,公司企业;公司;公司
成都丰元科技发展有限责任公司,30.637044605092935,104.15845135274907,公司企业;公司;网络科技
四川东飞工贸中心辅料厂,30.62532424519526,104.14659377443913,公司企业;工厂;工厂
大观里物业服务中心,30.62087421528908,104.13275091305931,公司企业;公司;公司|生活服务;生活服务场所;生活服务场所
成都佳佳缘商贸有限公司,30.61776904385061,104.15746525616662,公司企业;公司;商业贸易
灵泰医械,30.587062236920705,104.10485531992859,公司企业;公司;医药公司
158成都餐饮管理有限公司,30.595970698575222,104.1085699164195,公司企业;公司企业;公司企业
新加坡帝诚设计咨询有限公司,30.58904574907873,104.13137873255468,公司企业;公司;广告装饰
成都联拓企业管理咨询有限公司,30.631011085977708,104.14734545690666,公司企业;公司;公司
锦龙创艺装饰工程有限责任公司,30.632068285464076,104.15440665475435,公司企业;公司;公司
伊宁市边境合作区新联外贸有限公司,30.592691864598706,104.13445141490438,公司企业;公司;公司
成都丽枫紫宜酒店管理有限公司,30.631039344101733,104.15155872355048,公司企业;公司;公司
成都鸿谊商贸有限公司,30.61577459506218,104.1455918392206,公司企业;公司企业;公司企业
成都顺发消洗用品厂,30.58790267216345,104.10154945753006,公司企业;工厂;工厂
成都强力塔机厂,30.636622340699144,104.15364061524721,公司企业;工厂;工厂
四川万欣有害生物防治有限公司,30.631126660844384,104.14735331705239,公司企业;公司;公司
四川智亮电力工程设计有限责任公司,30.623332549645937,104.10992467755838,公司企业;公司;公司
小黑灯光库房,30.618606929697094,104.16808328417528,公司企业;公司企业;公司企业
成都华阳建筑股份有限公司(建设中),30.60211205458863,104.12222933484612,公司企业;公司;公司
成都锦欣九九乐龄康养服务有限公司,30.597128460261626,104.10948216276557,公司企业;公司;公司
桢楠坊库房,30.60919954812883,104.1724641621661,公司企业;公司企业;公司企业
富华装饰公司,30.622992709867752,104.16042702343941,公司企业;公司企业;公司企业
IVAN家童装仓库,30.611111546468827,104.15067491303176,公司企业;公司企业;公司企业
洪柳车辆段,30.588904716203604,104.16579116352577,公司企业;公司企业;公司企业
昊天广告(观音桥街),30.623596438764466,104.10355482098826,公司企业;公司;广告装饰
成都意町工业产品设计有限公司,30.624831475322864,104.14596422904113,公司企业;公司;公司
洪河大道105仓库,30.608579964455707,104.16033666968038,公司企业;公司企业;公司企业
四川用九,30.626330649897433,104.16431692489815,公司企业;公司企业;公司企业
宏宇陶瓷仓库,30.60101577072266,104.15609606702968,公司企业;公司企业;公司企业
加工钢化玻璃,30.62042521704444,104.1427010803776,公司企业;公司企业;公司企业
成都市锦城物业服务有限责任公司,30.630776189857702,104.1512080173393,公司企业;公司;公司
成都快加达商务信息咨询有限公司,30.630647758070065,104.14851198003922,公司企业;公司;公司
成都沐阳智造广告有限公司,30.59672985343979,104.13834361416815,公司企业;公司企业;公司企业
蜀国大师餐饮管理有限公司,30.59616953171356,104.10858394953216,公司企业;公司企业;公司企业
天致长城汽车销售有限公司,30.58882108559001,104.11382308780237,公司企业;公司企业;公司企业
众享商务信息咨询公司(静居寺体验厅),30.62554253595953,104.1032678514221,公司企业;公司;公司
四川海比健康管理有限公司,30.596150521279412,104.10864095195026,公司企业;公司企业;公司企业
四川琛海酒店管理有限公司,30.622730511427978,104.10258254830404,公司企业;公司企业;公司企业
成都皓嘉通信技术有限公司,30.61663884185833,104.10553282929577,公司企业;公司企业;公司企业
成都魔擎文化产业有限公司,30.635653352780228,104.10584699529328,公司企业;公司企业;公司企业
雷石点歌系统西南运营中心,30.62285580331303,104.11193731522613,公司企业;公司企业;公司企业
四川雄帆睿工科技有限公司,30.610624904787954,104.12530315128248,公司企业;公司企业;公司企业
大面洪河167厂,30.619453801407655,104.14525207916307,公司企业;公司企业;公司企业
四川牧标正业科技有限公司,30.61487260824343,104.12448773698569,公司企业;公司企业;公司企业
成都宏亿集团研发室,30.618036690400064,104.14658829241351,公司企业;公司企业;公司企业
陵川167工厂,30.616929740408878,104.15029537798186,公司企业;公司企业;公司企业
乐牛宠物仓库,30.62930789536686,104.13364842455111,公司企业;公司企业;公司企业
鑫苑名家新青年物业办公室,30.601076336527335,104.13906481839136,公司企业;公司企业;公司企业
四川景瑞通二手车市场经营管理有限公司,30.598417987531302,104.11137044802186,公司企业;公司;公司
金开诚环境清洁有限责任公司锦江项目部,30.623235208921873,104.10090591032889,公司企业;公司;公司
成都中启科尼尔机电设备工程有限公司,30.615471122942363,104.10441551947181,公司企业;公司;公司
成都玛雅和美房地产经纪有限公司,30.632243963145115,104.15267631620375,公司企业;公司;公司
新贝特公司,30.621388204890508,104.1077672628799,公司企业;公司;公司
中国中铁六局成都地铁7号线10标项目部,30.61250846725428,104.11004483395614,公司企业;公司;公司
四川省中大隐燕健康产业有限公司,30.629753944399905,104.14951011300832,公司企业;公司;公司
河北筑城工程招标咨询公司成都分公司,30.62282701779069,104.11121127505596,公司企业;公司;公司
成都尚青生活商贸有限公司,30.6243133530806,104.17070837486668,公司企业;公司;公司
成都市跳灯制剂有限公司,30.635871831167655,104.15644983420731,公司企业;公司企业;公司企业
成都市可创建材有限公司,30.63697763935055,104.14414344217717,公司企业;公司企业;公司企业
知仪文化(市场部工作室),30.63629386785948,104.14384136400446,公司企业;公司企业;公司企业
成都工长大本营装饰工程有限责任公司,30.622846098978034,104.1111932555138,公司企业;公司;公司
四川路桥盛通建筑工程有限公司房建分公司,30.6156750907733,104.13487407800578,公司企业;公司;建筑公司
武汉科前生物股份有限公司(成都直营店),30.624113843240895,104.10725767072678,公司企业;公司;公司
四川鑫度武术俱乐部有限公司,30.589884743235807,104.16119132186601,公司企业;公司企业;公司企业
成都大佳利机电工程有限公司,30.621495570578006,104.13244934345512,公司企业;公司企业;公司企业
好得见电子商务(四川)股份有限公司,30.63044754446494,104.14901725631627,公司企业;公司;公司
秀水河水质净化厂,30.617061769512425,104.14433984826724,公司企业;公司企业;公司企业
成都洪河小城镇发展建设有限公司(中共大面街道委员会东南),30.61149459959803,104.14998567464703,公司企业;公司;公司
怡佳巧媳妇家政服务有限公司,30.59454192353818,104.108900667405,公司企业;公司企业;公司企业
成都北大青鸟环宇消防设备有限公司,30.636154524130898,104.1450766467414,公司企业;公司;公司
成都市骐瑜气体有限公司,30.61721286980653,104.16990644440419,公司企业;公司企业;公司企业
四川澳力德科技有限公司,30.625607707023597,104.1012735911644,公司企业;公司;网络科技
成都市三环川东实业有限公司,30.636194018590068,104.1556213389984,公司企业;公司;公司
河北中天邦正生物科技股份公司成都办事处,30.622902200446905,104.10697880818054,公司企业;公司;公司
成都市城市道路桥梁管理处第一维护所库房,30.620983182055255,104.10681352780925,公司企业;公司;公司
龙泉驿区诺金热能设备厂,30.592705038957803,104.17902841712821,公司企业;公司企业;公司企业
四川省景林景观园林工程有限公司(大营门街),30.63483619108727,104.11388383899335,公司企业;公司;公司
亚华种业四川分公司,30.62497699834075,104.10363346457405,公司企业;公司;公司
成都英利衡铭科技有限公司,30.630631352460274,104.14923805187692,公司企业;公司企业;公司企业
四川航空爱老之家养老服务有限公司(沙河店),30.630364025728202,104.10908403740278,公司企业;公司;公司
四川弘逸永智商贸有限公司,30.62594342128369,104.17232380661568,公司企业;公司;公司
四川尧中检测技术有限公司,30.63103227704515,104.15162973710777,公司企业;公司企业;公司企业
四川鑫辉勘测设计有限公司,30.631373304212936,104.14645195017803,公司企业;公司企业;公司企业
成都远征汽车设备有限公司,30.628044158577445,104.13772418714956,公司企业;公司企业;公司企业
成都市生机会健康咨询有限公司,30.588647799345058,104.13096150554361,公司企业;公司企业;公司企业
四川旗云智汇农业科技有限公司,30.62574619584751,104.10818910894919,公司企业;公司企业;公司企业
成都森林宝贝教育咨询有限公司,30.617652749510604,104.1191233470429,公司企业;公司企业;公司企业
成都考拉巴巴教育咨询有限公司,30.614089825847415,104.12410919065476,公司企业;公司企业;公司企业
成都明德静企业管理咨询有限公司天圆山庄真人cs拓展基地,30.589841603718348,104.16169633560222,公司企业;公司企业;公司企业
四川省九鼎世纪商贸有限公司,30.610457789891285,104.1496361481213,公司企业;公司;商业贸易
成都金鑫酒店用品有限公司,30.609876794874964,104.15183556439075,公司企业;公司;公司
成都盛百厅海上海商业经营管理有限公司,30.630743323158622,104.15502232066342,公司企业;公司;公司
厦门容林电子技术开发有限公司西南区驻成都办,30.610148228324903,104.1293967151952,公司企业;公司;公司
成都若愚建筑劳务有限公司,30.59127987039895,104.17766985964121,公司企业;公司企业;公司企业
龙发装饰(龙泉别墅设计店),30.619927189905447,104.14793188664815,公司企业;公司企业;公司企业
成都洪河小城镇发展建设有限公司,30.629472442832377,104.16329336590874,公司企业;公司;公司
山西陆野桥隧有限公司四川分公司,30.604608384628083,104.12004374284733,公司企业;公司企业;公司企业
四川省电子竞技联赛(天行健),30.630559951426868,104.14934614529693,公司企业;公司企业;公司企业
四川师大置业发展有限公司东校区物业管理处,30.611861781913138,104.16252633348229,公司企业;公司;公司
四川翰阅林教育咨询有限公司,30.629585738018342,104.15039837307654,公司企业;公司企业;公司企业
康福星健康咨询有限公司第四分公司,30.623770260878125,104.16151934942656,公司企业;公司企业;公司企业
深圳市中电华星电子技术有限公司成都办事处,30.6303962511335,104.14910932418852,公司企业;公司;公司
四川航空爱老之家养老服务有限公司(洪柳店),30.60320185482384,104.15972907571805,公司企业;公司;公司
成都黑曼巴宠物用品有限公司,30.624152900872502,104.14329270586917,公司企业;公司企业;公司企业
成都市龙泉驿区鸡头河水质净化厂,30.63571612084424,104.16278645658846,公司企业;工厂;工厂
成都车之源汽车服务有限公司,30.600244110712037,104.16879390761618,公司企业;公司企业;公司企业
成都地铁7号线机电2标接触网作业队,30.602438434936534,104.10816801747563,公司企业;公司企业;公司企业
成都圣睿农饲料科技有限公司,30.618627416057183,104.162620933094,公司企业;公司企业;公司企业
成都七优纸制品有限责任公司,30.615360858183067,104.1425118830991,公司企业;公司企业;公司企业
成都音美佳文化传播有限公司,30.602532739286396,104.15704399117665,公司企业;公司企业;公司企业
东部新区芙蓉东路工程项目部,30.601682377274297,104.15725209584156,公司企业;公司企业;公司企业
四川天下康生物科技有限公司,30.626511112682433,104.16729091418358,公司企业;公司企业;公司企业
成都秀丽园林有限公司盆景基地,30.588472582560737,104.12784415683586,公司企业;农林牧渔基地;其它农林牧渔基地
兰博电力设备公司,30.622812592981745,104.11203736492836,公司企业;公司;公司
沙河壹号贵州建工有限公司成都分公司,30.630352939022718,104.12029306842814,公司企业;公司企业;公司企业
长景蜂业农民专业合作社驻成都办事处,30.618844828038128,104.15198705336016,公司企业;公司企业;公司企业
生鲜配送质朴无华商贸有限公司,30.62104139520053,104.15839966277291,公司企业;公司企业;公司企业
沈阳远大铝业工程有限公司项目部,30.6310501492296,104.1275378533941,公司企业;公司企业;公司企业
成都祥虹园艺有限公司,30.59089252697105,104.15743549087927,公司企业;农林牧渔基地;其它农林牧渔基地
国宏汽车维修有限公司维修保养钣喷美容,30.6229848714736,104.11289428204294,公司企业;公司企业;公司企业
中国铁塔股份有限公司成都市分公司成华区锦江区办事处,30.630328847855417,104.14927141618436,公司企业;公司;公司
成都精诚物业管理有限责任公司雅郡管理处,30.610085365163776,104.11087910640823,公司企业;公司企业;公司企业
金成,30.62189997433657,104.14608404042767,公司企业;公司企业;公司企业
四川天沛水利水电建设工程有限公司,30.628874941713935,104.15581756975189,公司企业;公司企业;公司企业
中国水电五局一分局(净居寺路),30.62497699834075,104.10363346457405,公司企业;公司;公司
泗杰苗圃,30.59520467229223,104.15507159804736,公司企业;农林牧渔基地;其它农林牧渔基地
清林种业,30.62497699834075,104.10363346457405,公司企业;公司;公司
成都市力萍工艺玻璃加工厂,30.63662332809875,104.15814291676375,公司企业;工厂;工厂
四川省生牧科技开发中心河北远征成都事业部,30.622228961342042,104.10851257680254,公司企业;公司企业;公司企业
四川中烟工业有限责任公司成都卷烟厂,30.598499127273698,104.12669281924937,公司企业;工厂;工厂
四川金科物业住宿部,30.62474226915357,104.1075560748436,公司企业;公司;公司
四川中烟工业有限责任公司成都分厂,30.59715280986642,104.12660070151252,公司企业;工厂;工厂
成都宏阳模具材料有限公司,30.592706199513586,104.10231654222892,公司企业;公司;公司
成都恒泰和物业管理有限责任公司川师大项目处,30.614066188187834,104.11195011771309,公司企业;公司企业;公司企业
成都心源物业管理有限责任公司(上东花园物业服务中心),30.606373846617696,104.10249966964427,公司企业;公司;公司
中铁十四局集团有限公司成都枢纽(代建)铁路工程指挥部,30.61058653779706,104.11025682097672,公司企业;公司企业;公司企业
四川省成都安达车业有限公司,30.60951892102425,104.15245576118728,公司企业;公司;公司|汽车销售;汽车销售;汽车销售
四川新丰胜贸易有限公司,30.62387180614332,104.14322397590144,公司企业;公司;商业贸易
成都兴晟金属制品有限公司,30.59989934983048,104.16829688427642,公司企业;公司;公司
成都杰顺实业有限公司,30.60147206091472,104.16915386444758,公司企业;公司;公司
明晟建设工程质量检测有限公司,30.597211261619005,104.10310056276747,公司企业;公司;建筑公司
冈优一号联系办公室,30.62497699834075,104.10363346457405,公司企业;公司;公司
夹江v城建筑沙河项目部,30.622811604407655,104.11200336271655,公司企业;公司;建筑公司
湖北省种子集团有限公司驻四川办事处,30.624958903887602,104.10367648701917,公司企业;公司;公司
华西集团省建一公司二综厂,30.626217740551258,104.14505373131654,公司企业;工厂;工厂
