name,lat,lng,type
望江宾馆,30.63083894996758,104.11003555645483,住宿服务;宾馆酒店;五星级宾馆
名家酒店,30.60120329414944,104.13919982079558,住宿服务;住宿服务相关;住宿服务相关
成都远锦国际酒店,30.63235440941906,104.15071804067712,住宿服务;宾馆酒店;四星级宾馆
希美登酒店(川师大店),30.621788515899212,104.10809493689824,住宿服务;宾馆酒店;宾馆酒店
成都迈瑞酒店,30.601031344773666,104.13903381868607,住宿服务;宾馆酒店;宾馆酒店
成都沁心园家庭公寓,30.632397178957184,104.14278940771845,住宿服务;住宿服务相关;住宿服务相关
成都龙之梦大酒店,30.63333918768138,104.14040202894572,住宿服务;宾馆酒店;五星级宾馆
花香主题酒店,30.59331462645313,104.13754384737769,住宿服务;宾馆酒店;宾馆酒店
美集酒店(川师文理学院店),30.603971976293145,104.16047499287863,住宿服务;宾馆酒店;宾馆酒店
高风堂,30.61878727073175,104.15958561273182,住宿服务;宾馆酒店;宾馆酒店
双发大酒店,30.61817855829386,104.13213406117755,住宿服务;宾馆酒店;宾馆酒店
成都洵美主题酒店(东站魅力城店),30.629610508302804,104.1511793992978,住宿服务;宾馆酒店;宾馆酒店
世家公寓,30.633065673716906,104.14278556078325,住宿服务;住宿服务相关;住宿服务相关
好莱斯登酒店(成都火车东站摩玛店),30.632631881485565,104.15064768627586,住宿服务;宾馆酒店;宾馆酒店
成都逸居阳光酒店公寓,30.60113237326177,104.13899880971421,住宿服务;住宿服务相关;住宿服务相关
成都庭友公寓,30.632580365590915,104.1422641373545,住宿服务;住宿服务相关;住宿服务相关
桃源大酒店(洪河北路),30.630190611216474,104.15948627858451,住宿服务;宾馆酒店;宾馆酒店
成都西西谷主题公寓,30.63241925398056,104.14287738661533,住宿服务;住宿服务相关;住宿服务相关
成都东客站爱佳家庭公寓酒店,30.63385726069879,104.1419464772199,住宿服务;宾馆酒店;宾馆酒店
成都PM10点青年公寓(火车东站店),30.633799959865975,104.14193155055628,住宿服务;旅馆招待所;旅馆招待所
成都鹿先森・朴宿,30.632745283311717,104.14213591911283,住宿服务;住宿服务相关;住宿服务相关
成都百日梦公寓,30.63297596682999,104.14330971465463,住宿服务;住宿服务相关;住宿服务相关
成都格调主题酒店,30.633324257434364,104.14230119302911,住宿服务;住宿服务相关;住宿服务相关
成都月季精品公寓,30.635274373821716,104.14333770962395,住宿服务;旅馆招待所;旅馆招待所
森湖宾馆,30.614769877910692,104.16833301617925,住宿服务;宾馆酒店;宾馆酒店
望江宾馆,30.63083894996758,104.11003555645483,住宿服务;宾馆酒店;五星级宾馆
名家酒店,30.60120329414944,104.13919982079558,住宿服务;住宿服务相关;住宿服务相关
成都远锦国际酒店,30.63235440941906,104.15071804067712,住宿服务;宾馆酒店;四星级宾馆
希美登酒店(川师大店),30.621788515899212,104.10809493689824,住宿服务;宾馆酒店;宾馆酒店
成都迈瑞酒店,30.601031344773666,104.13903381868607,住宿服务;宾馆酒店;宾馆酒店
成都沁心园家庭公寓,30.632397178957184,104.14278940771845,住宿服务;住宿服务相关;住宿服务相关
成都龙之梦大酒店,30.63333918768138,104.14040202894572,住宿服务;宾馆酒店;五星级宾馆
花香主题酒店,30.59331462645313,104.13754384737769,住宿服务;宾馆酒店;宾馆酒店
美集酒店(川师文理学院店),30.603971976293145,104.16047499287863,住宿服务;宾馆酒店;宾馆酒店
高风堂,30.61878727073175,104.15958561273182,住宿服务;宾馆酒店;宾馆酒店
双发大酒店,30.61817855829386,104.13213406117755,住宿服务;宾馆酒店;宾馆酒店
成都洵美主题酒店(东站魅力城店),30.629610508302804,104.1511793992978,住宿服务;宾馆酒店;宾馆酒店
世家公寓,30.633065673716906,104.14278556078325,住宿服务;住宿服务相关;住宿服务相关
好莱斯登酒店(成都火车东站摩玛店),30.632631881485565,104.15064768627586,住宿服务;宾馆酒店;宾馆酒店
成都逸居阳光酒店公寓,30.60113237326177,104.13899880971421,住宿服务;住宿服务相关;住宿服务相关
成都庭友公寓,30.632580365590915,104.1422641373545,住宿服务;住宿服务相关;住宿服务相关
桃源大酒店(洪河北路),30.630190611216474,104.15948627858451,住宿服务;宾馆酒店;宾馆酒店
成都西西谷主题公寓,30.63241925398056,104.14287738661533,住宿服务;住宿服务相关;住宿服务相关
成都东客站爱佳家庭公寓酒店,30.63385726069879,104.1419464772199,住宿服务;宾馆酒店;宾馆酒店
成都PM10点青年公寓(火车东站店),30.633799959865975,104.14193155055628,住宿服务;旅馆招待所;旅馆招待所
成都鹿先森・朴宿,30.632745283311717,104.14213591911283,住宿服务;住宿服务相关;住宿服务相关
成都百日梦公寓,30.63297596682999,104.14330971465463,住宿服务;住宿服务相关;住宿服务相关
成都格调主题酒店,30.633324257434364,104.14230119302911,住宿服务;住宿服务相关;住宿服务相关
成都月季精品公寓,30.635274373821716,104.14333770962395,住宿服务;旅馆招待所;旅馆招待所
森湖宾馆,30.614769877910692,104.16833301617925,住宿服务;宾馆酒店;宾馆酒店
成都美意家公寓,30.63396506541635,104.14367546725089,住宿服务;住宿服务相关;住宿服务相关
成都市成成公寓,30.633903419576153,104.14437659993524,住宿服务;住宿服务相关;住宿服务相关
左邻右舍精品公寓(成都火车东站店),30.634893597913738,104.14260716358314,住宿服务;住宿服务相关;住宿服务相关
成都幸运星商务公寓,30.634532649535547,104.14477280431772,住宿服务;住宿服务相关;住宿服务相关
红河宾馆,30.61809731379652,104.16362740579812,住宿服务;旅馆招待所;旅馆招待所
成都家和公寓,30.634985150785848,104.1447282004437,住宿服务;住宿服务相关;住宿服务相关
成都小平哥哥公寓(静沙北路分店),30.627911066746105,104.11199513450515,住宿服务;住宿服务相关;住宿服务相关
成都驿旅阳光公寓,30.63496874388698,104.14320410845187,住宿服务;住宿服务相关;住宿服务相关
成都速8酒店(成都火车东站店),30.629524142407615,104.1510704924324,住宿服务;宾馆酒店;经济型连锁酒店
成都猴赛雷主题公寓,30.633666160870472,104.14211573804216,住宿服务;住宿服务相关;住宿服务相关
成都温馨e家时尚公寓,30.63314220999496,104.14248944061397,住宿服务;住宿服务相关;住宿服务相关
成都7天悦美阳光公寓,30.633910439362385,104.14218542614766,住宿服务;住宿服务相关;住宿服务相关
圆梦家庭旅馆,30.613050492539355,104.13962707218377,住宿服务;住宿服务相关;住宿服务相关
丽枫酒店(成都火车东站店),30.631082618234633,104.15142966192496,住宿服务;宾馆酒店;四星级宾馆
悦程精品酒店公寓,30.601179251485092,104.13928782926956,住宿服务;宾馆酒店;宾馆酒店
成都乐站精品公寓,30.632989616620634,104.139787428915,住宿服务;住宿服务相关;住宿服务相关
新晨宾馆(惠王陵东路),30.618807827483053,104.16073267084793,住宿服务;宾馆酒店;宾馆酒店
成都锦华酒店,30.601100228082828,104.13931583653128,住宿服务;住宿服务相关;住宿服务相关
成都安舒公寓,30.634672727144732,104.12848133216909,住宿服务;住宿服务相关;住宿服务相关
成都青春驿站公寓,30.634570806604426,104.1426565954641,住宿服务;宾馆酒店;宾馆酒店
7天优品酒店(火车东站凯德广场店),30.629295689512595,104.15412096988604,住宿服务;宾馆酒店;经济型连锁酒店
成都24 Hours青年公寓,30.634850357781197,104.14484238844456,住宿服务;住宿服务相关;住宿服务相关
成都东站墨客民宿,30.608005878790983,104.14739898883985,住宿服务;住宿服务相关;住宿服务相关
成都莫尔公寓,30.607985818814903,104.14747200134914,住宿服务;住宿服务相关;住宿服务相关
成都捶染频(火车东站绿地468店),30.61041918989432,104.14181758664759,住宿服务;宾馆酒店;经济型连锁酒店
后青春青年民宿公寓(成都东站店),30.632693303804352,104.14148393535028,住宿服务;宾馆酒店;宾馆酒店
成都田园印象家庭公寓(喜树街店),30.60130634194853,104.14363215428041,住宿服务;住宿服务相关;住宿服务相关
成都爱我家时尚公寓(东站店),30.63235419140002,104.14226442199629,住宿服务;旅馆招待所;旅馆招待所
水云间宾馆(惠王陵东路),30.61875955861348,104.15873757905634,住宿服务;旅馆招待所;旅馆招待所
成都定西青年旅舍(火车东站店),30.633946737309333,104.14195636148781,住宿服务;旅馆招待所;青年旅舍
魅城酒店(成都火车东站店),30.629255905146053,104.15097279708166,住宿服务;宾馆酒店;三星级宾馆
开心住青年公寓(东站店),30.633844203579276,104.14191749199665,住宿服务;宾馆酒店;宾馆酒店
成都锦雅民宿(锦绣大道岷江路口店),30.62762259835496,104.13020204840389,住宿服务;住宿服务相关;住宿服务相关
成都莉蒂亚酒店(火车东站店),30.629255905146053,104.15097279708166,住宿服务;宾馆酒店;四星级宾馆
九洲怡家公寓,30.620068849258953,104.12507295649937,住宿服务;旅馆招待所;旅馆招待所
成都一天公寓,30.633280675623354,104.14308430810857,住宿服务;住宿服务相关;住宿服务相关
私家公寓,30.63546460298811,104.1429554250229,住宿服务;宾馆酒店;宾馆酒店
成都世家酒店(火车东站店),30.631121760643953,104.15154962273854,住宿服务;宾馆酒店;宾馆酒店
火车东站亮华旅店,30.632543166187304,104.14227718526304,住宿服务;旅馆招待所;旅馆招待所
成都小王姐客栈(川师店),30.618810295973947,104.11924047006367,住宿服务;旅馆招待所;旅馆招待所
成都六六喜公寓,30.634737777160062,104.14252936476613,住宿服务;住宿服务相关;住宿服务相关
成都小苹果青年旅舍,30.63257213509028,104.14268317943778,住宿服务;旅馆招待所;青年旅舍
哎哟不错酒店公寓(成都东站店),30.63285389218521,104.14204577449532,住宿服务;宾馆酒店;宾馆酒店
好客酒店(万科路),30.629704923827422,104.15126629493682,住宿服务;宾馆酒店;宾馆酒店
汉庭酒店(成都火车东站店),30.629728409452387,104.15043220854143,住宿服务;宾馆酒店;经济型连锁酒店
格林联盟酒店(成都火车东站店),30.62942262024453,104.1511516163292,住宿服务;宾馆酒店;经济型连锁酒店
上下酒店(成都东站魅力店),30.62915536147754,104.15112092369037,住宿服务;宾馆酒店;宾馆酒店
悦享.锦城酒店,30.598411985633824,104.13831776801388,住宿服务;宾馆酒店;宾馆酒店
成都星期八酒店公寓,30.63326568314428,104.14289031273012,住宿服务;旅馆招待所;旅馆招待所
成都东客站老王公寓,30.63396800414855,104.14384747629491,住宿服务;旅馆招待所;旅馆招待所
成都宜家公寓邛崃山路店,30.632500994872164,104.14217023029622,住宿服务;住宿服务相关;住宿服务相关
生缘旅馆,30.61659194128854,104.16344049835155,住宿服务;旅馆招待所;旅馆招待所
柔软时光主题公寓,30.634124675992,104.14200313268505,住宿服务;旅馆招待所;旅馆招待所
成都东站清风小筑住宿,30.632326858748623,104.14269148859164,住宿服务;住宿服务相关;住宿服务相关
成都东站心缘公寓,30.632449660239182,104.14232230643363,住宿服务;住宿服务相关;住宿服务相关
成都馨雅轩公寓,30.63273622791414,104.14215393195008,住宿服务;住宿服务相关;住宿服务相关
成都皇城公寓,30.632390160951026,104.14274841344027,住宿服务;住宿服务相关;住宿服务相关
成都东站舒哥精品公寓,30.633898882805433,104.14328852444066,住宿服务;旅馆招待所;旅馆招待所
成都东站舒居驿站,30.632516071432967,104.14217421160652,住宿服务;住宿服务相关;住宿服务相关
成都雅瑞公寓,30.63271598687728,104.14245598046004,住宿服务;住宿服务相关;住宿服务相关
成都馨逸兴公寓(东站店),30.632524768221334,104.14295225946265,住宿服务;住宿服务相关;住宿服务相关
成都舒居家庭公寓(火车东站店),30.634196896602035,104.14461323418205,住宿服务;旅馆招待所;旅馆招待所
成都自由空间公寓,30.632453537053077,104.14264232576367,住宿服务;住宿服务相关;住宿服务相关
暖心屋主题公寓,30.635013704257723,104.14384509653617,住宿服务;旅馆招待所;旅馆招待所
幸福驿站(成都火车东站店),30.63333805819277,104.1429092212385,住宿服务;住宿服务相关;住宿服务相关
大米智能酒店(成都火车东站店),30.63002969348367,104.15082388156661,住宿服务;住宿服务相关;住宿服务相关
成都睿之美精品酒店公寓,30.633914356427468,104.14241743861653,住宿服务;住宿服务相关;住宿服务相关
成都蓉宸酒店,30.63004474391848,104.150874867371,住宿服务;住宿服务相关;住宿服务相关
海伦春天酒店(火车东站店),30.632730990947657,104.14932346677938,住宿服务;宾馆酒店;四星级宾馆
成都君临旅馆东站店,30.633985637004354,104.14264736309877,住宿服务;住宿服务相关;住宿服务相关
成都如家温馨公寓,30.633582679374854,104.14442701972506,住宿服务;住宿服务相关;住宿服务相关
成都朗朗公寓,30.63310362695359,104.1433365537896,住宿服务;住宿服务相关;住宿服务相关
成都氯斯寓,30.633571838204873,104.1417118293535,住宿服务;住宿服务相关;住宿服务相关
成都小崔住宿,30.633627048213057,104.14190077234427,住宿服务;住宿服务相关;住宿服务相关
成都丽华公寓,30.633658108408753,104.14213675006073,住宿服务;住宿服务相关;住宿服务相关
成都安安住宿,30.633789003358185,104.14393471572549,住宿服务;住宿服务相关;住宿服务相关
成都红阳公寓(东站店),30.634486514441765,104.14228267848995,住宿服务;住宿服务相关;住宿服务相关
如家公寓(漫岭云天店),30.633796776038462,104.14230358290513,住宿服务;住宿服务相关;住宿服务相关
成都龙门客栈,30.634637458314568,104.14424562653097,住宿服务;旅馆招待所;旅馆招待所
成都快乐公寓,30.63321185985343,104.14409247192158,住宿服务;住宿服务相关;住宿服务相关
成都周姐住宿,30.635262981782628,104.14407077979584,住宿服务;旅馆招待所;旅馆招待所
皇廷公寓(成都东站店),30.63472972359482,104.14255037703663,住宿服务;住宿服务相关;住宿服务相关
成都东客站乐途公寓,30.634682502136187,104.14246743336497,住宿服务;住宿服务相关;住宿服务相关
广元老乡旅馆,30.634737777160062,104.14252936476613,住宿服务;住宿服务相关;住宿服务相关
好久不见精品公寓,30.63456986611296,104.14474275291936,住宿服务;住宿服务相关;住宿服务相关
木之缘酒店(成龙大道店),30.601278283726252,104.13924981955692,住宿服务;宾馆酒店;宾馆酒店
成都沁心缘公寓,30.634565816203814,104.14480476287501,住宿服务;住宿服务相关;住宿服务相关
成都东站优尚青年公寓,30.63507837615343,104.14314295750316,住宿服务;住宿服务相关;住宿服务相关
成都东站留恋公寓,30.635194686673124,104.14388485748431,住宿服务;住宿服务相关;住宿服务相关
成都芊艺公寓,30.63502804082117,104.14327103436793,住宿服务;住宿服务相关;住宿服务相关
成都欧海阳光HOUSE,30.635104163380966,104.14393498240557,住宿服务;住宿服务相关;住宿服务相关
成都舒适家庭公寓,30.635158595414943,104.14364288771726,住宿服务;住宿服务相关;住宿服务相关
成都四季之家公寓,30.63493368068422,104.14514429990325,住宿服务;住宿服务相关;住宿服务相关
Dream House梦想屋青年公寓(成都东站店),30.629627131737976,104.13877345972926,住宿服务;旅馆招待所;旅馆招待所
如家快捷酒店(成都静康路店),30.62468004802366,104.10747812989439,住宿服务;宾馆酒店;经济型连锁酒店
成都锦畔生活酒店(成都火车东站魅力店),30.62972736870879,104.15051221542734,住宿服务;宾馆酒店;宾馆酒店
有家公寓(成都火车东站店),30.635530015317567,104.14284932880982,住宿服务;住宿服务相关;住宿服务相关
美湖假日酒店(成都东站店),30.616749672845703,104.12455147837524,住宿服务;宾馆酒店;宾馆酒店
希岸酒店(成都火车东站店),30.63103328566188,104.15162173532265,住宿服务;宾馆酒店;宾馆酒店
成都漂泊公寓,30.590756208155586,104.14746373607639,住宿服务;住宿服务相关;住宿服务相关
芒果公寓(成都东站店),30.632519069100677,104.14221421086201,住宿服务;宾馆酒店;宾馆酒店
天天公寓,30.63195283422088,104.13398227552644,住宿服务;住宿服务相关;住宿服务相关
东站雅舒公寓,30.632732208249593,104.14215093681418,住宿服务;宾馆酒店;宾馆酒店
尚品汇酒店,30.615115508506097,104.11489873196814,住宿服务;宾馆酒店;三星级宾馆
成都地中海主题公寓,30.633902460563586,104.1420424256909,住宿服务;旅馆招待所;旅馆招待所
成都海豚湾公寓,30.634262367609765,104.14212296133135,住宿服务;旅馆招待所;旅馆招待所
成都布鲁公寓,30.632799002460803,104.14115777654294,住宿服务;住宿服务相关;住宿服务相关
成都秋雨梧桐精品公寓,30.63302570660785,104.14001040010915,住宿服务;住宿服务相关;住宿服务相关
7天酒店(成都成渝立交地铁站店),30.632657057894825,104.150546647311,住宿服务;宾馆酒店;经济型连锁酒店
成都东站万事达青年公寓,30.633069681395472,104.14281555792955,住宿服务;住宿服务相关;住宿服务相关
馨悦公寓(成都东站店),30.633084539751305,104.14330657592211,住宿服务;住宿服务相关;住宿服务相关
哎哟不错青年公寓(成都东站店),30.634841355976636,104.14250622545673,住宿服务;宾馆酒店;宾馆酒店
168连锁公寓(成都东站店),30.63328481538832,104.14282128297778,住宿服务;住宿服务相关;住宿服务相关
成都爱恋精品主题公寓,30.633723564817615,104.14189964726565,住宿服务;住宿服务相关;住宿服务相关
成都美佳公寓酒店,30.633855227814486,104.14199548358431,住宿服务;住宿服务相关;住宿服务相关
成都如意家公寓,30.63493057625806,104.14310915217975,住宿服务;旅馆招待所;旅馆招待所
心悦公寓(成都4号店),30.634541496363667,104.14299165945496,住宿服务;旅馆招待所;旅馆招待所
彦之兴宾馆,30.616390374408653,104.1634366393419,住宿服务;宾馆酒店;宾馆酒店
成都瑞峰公寓酒店,30.634651044501798,104.14087435381462,商务住宅;商务住宅相关;商务住宅相关|住宿服务;住宿服务相关;住宿服务相关
成都布丁连锁公寓,30.63448837254547,104.14262170167822,住宿服务;住宿服务相关;住宿服务相关
成都新月公寓(东站店),30.63546460298811,104.1429554250229,住宿服务;住宿服务相关;住宿服务相关
成都心语公寓,30.633103315253695,104.14179643778452,住宿服务;宾馆酒店;宾馆酒店
启程酒店(成都火车东站店),30.629041183176422,104.13911616572916,住宿服务;宾馆酒店;宾馆酒店
成都鑫鸿公寓,30.633972619786118,104.14252937116014,住宿服务;住宿服务相关;住宿服务相关
海伦酒店(川师店),30.61187089973899,104.11054921849527,住宿服务;宾馆酒店;宾馆酒店
7天优品酒店(火车东站店),30.628034521711253,104.13010358312498,住宿服务;住宿服务相关;住宿服务相关
丽枫酒店(成都火车东站静沙路店),30.626791006739015,104.11204236358358,住宿服务;宾馆酒店;经济型连锁酒店
成都全成酒店,30.60868384341474,104.12491294465464,住宿服务;住宿服务相关;住宿服务相关
如家精选酒店(成都火车东站店),30.631098611615855,104.15162365608627,住宿服务;宾馆酒店;经济型连锁酒店
如家168精品公寓(成都东站店),30.633669266672847,104.14191671891525,住宿服务;住宿服务相关;住宿服务相关
成都都市驿栈家庭式公寓,30.632496011977583,104.14207422928935,住宿服务;旅馆招待所;旅馆招待所
成都如家公寓(东站店),30.633110676679784,104.14330854267598,住宿服务;旅馆招待所;旅馆招待所
成都东站雅致酒店公寓,30.632537907297433,104.1427942309858,住宿服务;旅馆招待所;旅馆招待所
同心精品公寓,30.6325611005022,104.14263218950597,住宿服务;旅馆招待所;旅馆招待所
凯宾酒店(丽景店),30.61178476781073,104.12840884695092,住宿服务;宾馆酒店;经济型连锁酒店
成都匹诺曹主题公寓,30.632684089961746,104.14185397517525,住宿服务;旅馆招待所;旅馆招待所
孵梦森林家庭公寓(成都火车东站店),30.632716465538138,104.14139289909292,住宿服务;旅馆招待所;旅馆招待所
成都灯火阑珊公寓(东站店),30.63328601305814,104.14239424917677,住宿服务;旅馆招待所;旅馆招待所
成都好友来公寓,30.632500736467783,104.14274427405142,住宿服务;旅馆招待所;旅馆招待所
成都馨洁公寓,30.63294777431733,104.14340875799792,住宿服务;宾馆酒店;宾馆酒店
成都新开家庭旅馆,30.613666732787838,104.13777857212985,住宿服务;住宿服务相关;住宿服务相关
成都佳佳家庭旅店,30.623088493909275,104.11686954538327,住宿服务;旅馆招待所;旅馆招待所
成都乐站公寓酒店,30.63272863124558,104.141164866278,住宿服务;住宿服务相关;住宿服务相关
成都满天星公寓,30.632780893792997,104.14118880188026,住宿服务;住宿服务相关;住宿服务相关
成都梦之屋酒店公寓,30.6329051273874,104.13988854427856,住宿服务;住宿服务相关;住宿服务相关
成都熏衣草公寓,30.633855269729988,104.14190247646718,住宿服务;旅馆招待所;旅馆招待所
成都雅都主题公寓,30.632682937474648,104.14218100145918,住宿服务;住宿服务相关;住宿服务相关
成都99快捷公寓,30.632821010632682,104.14139676686435,住宿服务;住宿服务相关;住宿服务相关
成都东站公寓,30.634737777160062,104.14252936476613,住宿服务;旅馆招待所;旅馆招待所
成都如家青年公寓火车东站店,30.632720661501637,104.1432370334488,住宿服务;住宿服务相关;住宿服务相关
成都东站欣宜精品公寓,30.63267685376448,104.14229701794666,住宿服务;住宿服务相关;住宿服务相关
成都东站锦城公寓,30.633288098038545,104.14222923400439,住宿服务;住宿服务相关;住宿服务相关
成都123连锁酒店公寓,30.63316034202965,104.14240841128839,住宿服务;住宿服务相关;住宿服务相关
成都东站小时代青年公寓,30.632493649943186,104.14285529135223,住宿服务;住宿服务相关;住宿服务相关
成都东站汉庭快捷公寓,30.633888307373088,104.1422144571581,住宿服务;住宿服务相关;住宿服务相关
心悦公寓(成都二号店),30.63379994319067,104.14196855338781,住宿服务;住宿服务相关;住宿服务相关
成都龙猫精品公寓(成都东站店),30.633828139305834,104.14186850915667,住宿服务;住宿服务相关;住宿服务相关
成都东站金钰阳光公寓,30.63392732532663,104.1426424387337,住宿服务;住宿服务相关;住宿服务相关
成都蜗牛小居家庭旅馆,30.63445294139175,104.14315278842871,住宿服务;旅馆招待所;旅馆招待所
成都囿家公寓,30.633567598931847,104.1444270392116,住宿服务;住宿服务相关;住宿服务相关
成都乐蜀居公寓,30.63396228531787,104.14315143154013,住宿服务;住宿服务相关;住宿服务相关
豪庭酒店(三圣乡店),30.601231271323933,104.13926082367112,住宿服务;宾馆酒店;宾馆酒店
成都蓝莓公寓,30.634203535912565,104.14326712486854,住宿服务;住宿服务相关;住宿服务相关
成都来8公寓,30.633446379903674,104.14347512443439,住宿服务;住宿服务相关;住宿服务相关
成都驿家连锁公寓,30.634208135850837,104.1442151898123,住宿服务;住宿服务相关;住宿服务相关
唯爱创意主题酒店(火车东站店),30.632622419633815,104.14933460491153,住宿服务;宾馆酒店;宾馆酒店
成都富贵和家公寓,30.634382213978448,104.1439169388849,住宿服务;旅馆招待所;旅馆招待所
成都李姐短租公寓,30.620075635739784,104.12112060810377,住宿服务;宾馆酒店;宾馆酒店
爱馨公寓(成都火车东站店),30.632631468791296,104.1426281003661,住宿服务;宾馆酒店;宾馆酒店
豪门客栈(成都火车东站店),30.634086418538416,104.1443473590112,住宿服务;住宿服务相关;住宿服务相关
成都东站图奇公寓,30.635271121593753,104.14385975310607,住宿服务;住宿服务相关;住宿服务相关
索尔・丽斯顿酒店,30.62150976709141,104.10749412935655,住宿服务;宾馆酒店;四星级宾馆
和浦酒店,30.632730990947657,104.14932346677938,住宿服务;宾馆酒店;宾馆酒店
成都雅格公寓,30.633611094493574,104.14383893910006,住宿服务;宾馆酒店;宾馆酒店
锦尚公寓(成都东站川师店),30.61295534627896,104.13947611398622,住宿服务;住宿服务相关;住宿服务相关
温馨之家旅舍,30.6018903910519,104.13931177323943,住宿服务;旅馆招待所;旅馆招待所
桃花源酒店,30.6203694142085,104.14856956168673,住宿服务;宾馆酒店;宾馆酒店|公司企业;公司;公司
百乐连锁公寓(成都东站店),30.632401353741674,104.14244737662914,住宿服务;旅馆招待所;旅馆招待所
成都仕美酒店(火车东站店),30.621998103983437,104.14211365440961,住宿服务;住宿服务相关;住宿服务相关
传奇创意酒店(火车东站店),30.624710107594396,104.10762111325283,住宿服务;宾馆酒店;宾馆酒店
成都东站帝豪生活公寓,30.632836785508637,104.14208379910569,住宿服务;住宿服务相关;住宿服务相关
成都吉普赛之家公寓(火车东站店),30.633002061511167,104.14340468853425,住宿服务;住宿服务相关;住宿服务相关
成都尚品主题公寓,30.633264643588763,104.1429663197917,住宿服务;住宿服务相关;住宿服务相关
如家快捷酒店(成都四川师范大学店),30.613434840711534,104.1116154605017,住宿服务;宾馆酒店;经济型连锁酒店
优格青年太空舱胶囊旅舍(火车东站店),30.63443719614417,104.14462391917607,住宿服务;旅馆招待所;旅馆招待所
成都清泉福源公寓,30.633019089294574,104.14354267717836,住宿服务;住宿服务相关;住宿服务相关
成都如意168精品公寓,30.633773828262875,104.14191258304449,住宿服务;住宿服务相关;住宿服务相关
成都猫弟青年旅社,30.633793901372712,104.14198956282925,住宿服务;住宿服务相关;住宿服务相关
成都长秀酒店,30.633854166077636,104.14212049444981,住宿服务;住宿服务相关;住宿服务相关
成都壹周7天快捷公寓(东站店),30.633793900922033,104.14199056290576,住宿服务;住宿服务相关;住宿服务相关
成都如家爱尚酒店公寓,30.633821113703508,104.14184151623525,住宿服务;住宿服务相关;住宿服务相关
成都太白公寓,30.633793987453597,104.14179854820608,住宿服务;住宿服务相关;住宿服务相关
成都如家舒适公寓,30.63360998326144,104.14407395810282,住宿服务;住宿服务相关;住宿服务相关
驿皇假日酒店,30.62660243369045,104.16746682721323,住宿服务;宾馆酒店;三星级宾馆
成都东站近净静公寓,30.634633262742632,104.14240049350524,住宿服务;住宿服务相关;住宿服务相关
成都东站万客来青年公寓,30.63466860404907,104.1443005893877,住宿服务;住宿服务相关;住宿服务相关
鸿运家庭旅馆,30.635219340527225,104.14273173783612,住宿服务;旅馆招待所;旅馆招待所
成都浙川公寓,30.63289755813548,104.1433028139323,住宿服务;住宿服务相关;住宿服务相关
成都永乐酒店式公寓,30.63521230738496,104.14271874628388,住宿服务;住宿服务相关;住宿服务相关
成都豪庭公寓,30.635247047279186,104.14372777553488,住宿服务;住宿服务相关;住宿服务相关
Hewoo筑梦空间青年公寓(成都东站店),30.635004258828445,104.14472217450404,住宿服务;住宿服务相关;住宿服务相关
成都等风来青年旅舍,30.63522682571531,104.14397182090475,住宿服务;住宿服务相关;住宿服务相关
悠然时光公寓酒店,30.632882931574272,104.14229775670101,住宿服务;宾馆酒店;宾馆酒店
成都嘉辉煌酒店(东站川师店),30.621698939069624,104.12431547997875,住宿服务;宾馆酒店;宾馆酒店
世纪和美酒店(成都东站店),30.632001116153905,104.1473052375203,住宿服务;宾馆酒店;宾馆酒店
凯优威尔酒店(川师店),30.612465034976474,104.11080392822718,住宿服务;宾馆酒店;三星级宾馆
夜涩酒店,30.630690804426656,104.1511231142109,住宿服务;宾馆酒店;宾馆酒店
东客商务酒店(成都东站店),30.61924851821718,104.13313830304394,住宿服务;宾馆酒店;宾馆酒店
乐宾酒店,30.62333154707046,104.1099216782355,住宿服务;宾馆酒店;宾馆酒店
逸景假日酒店,30.59191449863965,104.10880190444668,住宿服务;宾馆酒店;宾馆酒店
怡家公寓,30.633076441969525,104.14342959550322,住宿服务;旅馆招待所;旅馆招待所
成都速8公寓,30.63324250669602,104.14301035149614,住宿服务;旅馆招待所;旅馆招待所
雅郡商务酒店,30.611829882655382,104.11039922566431,住宿服务;宾馆酒店;宾馆酒店
成都蓝点公寓东站店,30.632316934137314,104.14240847964012,住宿服务;住宿服务相关;住宿服务相关
成都柠城青年公寓,30.632327785631205,104.14286550056143,住宿服务;住宿服务相关;住宿服务相关
乐巢青年公寓(成都东站店),30.632840110250275,104.14139774269168,住宿服务;住宿服务相关;住宿服务相关
成都今晚100青年公寓,30.633301142514807,104.14228422142652,住宿服务;住宿服务相关;住宿服务相关
成都东站安馨小憩公寓,30.635225315767006,104.14286073955327,住宿服务;旅馆招待所;旅馆招待所
成都东站青旅温馨之家住宿,30.633793900922033,104.14199056290576,住宿服务;住宿服务相关;住宿服务相关
吉祥精品公寓(成都东站店),30.63369006055236,104.1426247456151,住宿服务;住宿服务相关;住宿服务相关
佳外家公寓(2号店),30.634830723910362,104.14378533579112,住宿服务;旅馆招待所;旅馆招待所
成都嘀嗒时光主题酒店公寓,30.634878530734856,104.1425721809935,住宿服务;住宿服务相关;住宿服务相关
成都九源九公寓,30.633783016973272,104.1438327158703,住宿服务;住宿服务相关;住宿服务相关
成都艾伦公寓,30.63441990818224,104.14282580733216,住宿服务;住宿服务相关;住宿服务相关
成都东客公寓,30.63403290659576,104.14484546596196,住宿服务;住宿服务相关;住宿服务相关
成都迎兴宾馆,30.635537900466627,104.14320334481346,住宿服务;住宿服务相关;住宿服务相关
成都志乐青年公寓,30.634984079615794,104.1426440458066,住宿服务;住宿服务相关;住宿服务相关
成都东站007公寓,30.635396962527825,104.14354356030856,住宿服务;住宿服务相关;住宿服务相关
雅仕商务酒店,30.633575560940052,104.14014370451224,住宿服务;宾馆酒店;宾馆酒店
成都蓉蓉住宿,30.61960725644479,104.12067895676827,住宿服务;住宿服务相关;住宿服务相关
成都放心酒店公寓,30.63326979948029,104.14267929152847,住宿服务;住宿服务相关;住宿服务相关
成都凯丽公寓酒店,30.633985637004354,104.14264736309877,住宿服务;住宿服务相关;住宿服务相关
成都聚缘公寓酒店,30.632565337977386,104.14215114774909,住宿服务;宾馆酒店;宾馆酒店
成都东南西北家庭公寓,30.632671893272448,104.14215101315449,住宿服务;旅馆招待所;旅馆招待所
嘉得利酒店,30.63160935098834,104.13338065186025,住宿服务;宾馆酒店;三星级宾馆
成都驴野家青年旅舍(火车东站店),30.633792895530213,104.14199056421145,住宿服务;旅馆招待所;青年旅舍
成都小窝主题公寓,30.613997275393274,104.13832941848982,住宿服务;住宿服务相关;住宿服务相关
成都市温和公寓,30.632437424343383,104.14270735094063,住宿服务;住宿服务相关;住宿服务相关
成都星辰home酒店式公寓(原星晨home公寓),30.633914675497245,104.14394055274326,住宿服务;旅馆招待所;旅馆招待所
成都等花开客栈,30.632413277175832,104.14275638499858,住宿服务;住宿服务相关;住宿服务相关
成都蜗牛公寓,30.610414205859282,104.12601330929843,住宿服务;住宿服务相关;住宿服务相关
7天酒店(成都火车东站地铁站店),30.632299998908962,104.13314077433674,住宿服务;宾馆酒店;经济型连锁酒店
成都东站七天公寓,30.633739639242357,104.14192562839499,住宿服务;住宿服务相关;住宿服务相关
成都苹果之家公寓,30.63381112693996,104.14392368616666,住宿服务;住宿服务相关;住宿服务相关
成都百合公寓,30.633405400903,104.14294213712087,住宿服务;住宿服务相关;住宿服务相关
欢乐之家旅馆,30.63487974624768,104.14433631172606,住宿服务;旅馆招待所;旅馆招待所
成都东站逸馨酒店式公寓,30.634494281436798,104.1428967146308,住宿服务;住宿服务相关;住宿服务相关
成都开心168公寓,30.634737777160062,104.14252936476613,住宿服务;住宿服务相关;住宿服务相关
雅住酒店(青年店),30.60104223721068,104.13927883719218,住宿服务;宾馆酒店;经济型连锁酒店
布丁酒店(成都火车东站店),30.62263798848337,104.1432661538747,住宿服务;宾馆酒店;经济型连锁酒店
幸福1+2公寓,30.634514295050366,104.1431097042567,住宿服务;宾馆酒店;宾馆酒店
红宇快捷酒店(成都东门店),30.62153184367629,104.10750211048456,住宿服务;住宿服务相关;住宿服务相关
成都东站茹家家庭公寓,30.632936804484476,104.14321275723442,住宿服务;旅馆招待所;旅馆招待所
成都东站7天精品公寓,30.63385221567202,104.1419864868183,住宿服务;旅馆招待所;旅馆招待所
米洛克主题公寓(成都东站店),30.632604495736793,104.14225410613618,住宿服务;住宿服务相关;住宿服务相关
三圣幸福九九家园,30.59187748342603,104.12462832410101,住宿服务;宾馆酒店;宾馆酒店
成都东站友佳青年公寓,30.63364532122063,104.14374088748396,住宿服务;住宿服务相关;住宿服务相关
英明大酒店,30.622693157625726,104.14335710935713,住宿服务;宾馆酒店;四星级宾馆
成都匆匆那年青年旅舍,30.63406908385109,104.14265425467362,住宿服务;住宿服务相关;住宿服务相关
成都拉斐青年公寓,30.633789996583946,104.14396171645394,住宿服务;住宿服务相关;住宿服务相关
成都东站雅之公寓,30.634486514441765,104.14228267848995,住宿服务;住宿服务相关;住宿服务相关
成都李姐住宿,30.61173220450582,104.11371658241899,住宿服务;旅馆招待所;旅馆招待所
成都七夕家庭酒店公寓,30.63366325920534,104.14186172251522,住宿服务;住宿服务相关;住宿服务相关
宾格酒店,30.61965439060733,104.15892787192973,住宿服务;宾馆酒店;宾馆酒店
成都蓝瑞公寓,30.633288766874326,104.142976289591,住宿服务;旅馆招待所;旅馆招待所
成都怡佳公寓,30.632965915335287,104.14330672723383,住宿服务;旅馆招待所;旅馆招待所
168公寓(成都东站店),30.63284027253588,104.14326988425056,住宿服务;宾馆酒店;经济型连锁酒店
三圣名人酒店(牡丹街),30.601265300716825,104.1392068171052,住宿服务;宾馆酒店;宾馆酒店
成都东站阳光主题公寓,30.633931624148502,104.14202738657072,住宿服务;住宿服务相关;住宿服务相关
成都乐家印象公寓,30.633985637004354,104.14264736309877,住宿服务;住宿服务相关;住宿服务相关
成都佳和公寓,30.634433771098635,104.14329982474555,住宿服务;宾馆酒店;宾馆酒店
成都开心住家庭旅馆,30.633788893343414,104.14194756614364,住宿服务;旅馆招待所;旅馆招待所
成都小息驿站公寓,30.635415075889544,104.14351553382613,住宿服务;住宿服务相关;住宿服务相关
成都乐美家公寓,30.63397832958249,104.14324541768723,住宿服务;旅馆招待所;旅馆招待所
希岸酒店(成都火车东站中心店),30.62878988942401,104.1304177562463,住宿服务;住宿服务相关;住宿服务相关
康梦酒店,30.61179986150799,104.11030923270738,住宿服务;宾馆酒店;宾馆酒店
布丁酒店(成都城东汽车客运站店),30.59509074281721,104.1035502746557,住宿服务;宾馆酒店;经济型连锁酒店
洁心诚家庭公寓,30.632451587391117,104.1425073180115,住宿服务;旅馆招待所;旅馆招待所
成都百佳公寓(3号店),30.633289124537512,104.14218222912433,住宿服务;宾馆酒店;宾馆酒店
成都顺旅太空舱住宿东站分店,30.63264068659657,104.14224906003857,住宿服务;住宿服务相关;住宿服务相关
成都四方青年公寓,30.632791966075764,104.14115678539238,住宿服务;住宿服务相关;住宿服务相关
嘉禾源公寓(成都东站店),30.633474054100102,104.14229900011215,住宿服务;住宿服务相关;住宿服务相关
成都海悦酒店式公寓,30.634529411588428,104.14303367857805,住宿服务;住宿服务相关;住宿服务相关
成都时尚城市便捷公寓,30.634578708948993,104.142970608699,住宿服务;住宿服务相关;住宿服务相关
99如家公寓(成都东站店),30.634756869288875,104.14255734154817,住宿服务;住宿服务相关;住宿服务相关
成都久久居公寓,30.632435338291454,104.14287536624184,住宿服务;旅馆招待所;旅馆招待所
成都吉利安公寓,30.632989050859248,104.14327569542695,住宿服务;住宿服务相关;住宿服务相关
成都好客来公寓,30.635045796123407,104.14403506788625,住宿服务;住宿服务相关;住宿服务相关
东方公寓(成都二店),30.632730230163233,104.14207893385756,住宿服务;旅馆招待所;旅馆招待所
成都明辉公寓酒店,30.633886890507185,104.14312752794481,住宿服务;宾馆酒店;宾馆酒店
成都锦绣公寓,30.63257641624368,104.14210513028246,住宿服务;住宿服务相关;住宿服务相关
成都客家公寓,30.632687940748294,104.1422319989953,住宿服务;宾馆酒店;宾馆酒店
成都东站爱回家青年公寓,30.634802118482018,104.14255528131149,住宿服务;旅馆招待所;青年旅舍
成都陶姐公寓,30.63254316663751,104.1422761851867,住宿服务;住宿服务相关;住宿服务相关
成都万事达公寓,30.633121928225115,104.14287949600129,住宿服务;住宿服务相关;住宿服务相关
成都缘园居公寓,30.633012169341455,104.14328266648153,住宿服务;宾馆酒店;宾馆酒店
成都魏府客栈,30.633320425264273,104.14411333421519,住宿服务;住宿服务相关;住宿服务相关
茉莉驿站公寓,30.635541046367223,104.1429173190438,住宿服务;旅馆招待所;旅馆招待所
成都家缘酒店式公寓,30.634212974690193,104.14463321459085,住宿服务;住宿服务相关;住宿服务相关
成都好又来家庭公寓,30.61926469569425,104.12164231948798,住宿服务;住宿服务相关;住宿服务相关
成都东站海洋主题公寓,30.63399473668757,104.14253434268959,住宿服务;住宿服务相关;住宿服务相关
成都蓉馨家庭住宿,30.632819756776545,104.1419488104754,住宿服务;旅馆招待所;旅馆招待所
成都天天出租公寓,30.618732991338128,104.11936954235857,住宿服务;住宿服务相关;住宿服务相关
成都逸家客栈,30.63445857662315,104.14403484710681,住宿服务;旅馆招待所;旅馆招待所
成都芬芳青年公寓,30.619813780264654,104.11881262183485,住宿服务;住宿服务相关;住宿服务相关
成都东站海天公寓,30.63235921381891,104.1422724162988,住宿服务;住宿服务相关;住宿服务相关
心悦公寓(成都4号店),30.63299581171354,104.14165656433565,住宿服务;住宿服务相关;住宿服务相关
成都2+1公寓,30.63330279415761,104.14308127949096,住宿服务;住宿服务相关;住宿服务相关
成都温馨小屋家庭公寓,30.634357048952943,104.14397997670665,住宿服务;旅馆招待所;旅馆招待所
学府客栈,30.617433220842702,104.16381291524257,住宿服务;旅馆招待所;旅馆招待所
成都巴斯顿酒店(锦江店),30.607569237708766,104.12277116337034,住宿服务;宾馆酒店;宾馆酒店
弘祥旅馆,30.616315895657635,104.16404672924111,住宿服务;旅馆招待所;旅馆招待所
成都龙之梦酒店集群,30.633264846981188,104.14028311523981,住宿服务;住宿服务相关;住宿服务相关
成都何姐住宿,30.61935829782343,104.12098118595337,住宿服务;住宿服务相关;住宿服务相关
步履不停成都店,30.633644214784134,104.14173373743559,住宿服务;住宿服务相关;住宿服务相关
成都橘子青年旅舍,30.633532691074066,104.14380603793323,住宿服务;住宿服务相关;住宿服务相关
成都星星公寓,30.633985176864446,104.14366844049862,住宿服务;住宿服务相关;住宿服务相关
花香盛世酒店,30.59496348812302,104.11111696737018,住宿服务;宾馆酒店;三星级宾馆
梦庭酒店,30.622116928403607,104.11659642276327,住宿服务;宾馆酒店;宾馆酒店
成都川旅公寓,30.634585055752318,104.14227454773898,住宿服务;住宿服务相关;住宿服务相关
成都星星公寓1号店,30.635536048087616,104.14285132081754,住宿服务;住宿服务相关;住宿服务相关
红桥旅馆(惠王陵东路),30.61877132757397,104.15708946056607,住宿服务;旅馆招待所;旅馆招待所
成都梦湘家庭公寓,30.633775931939084,104.14393773292144,住宿服务;住宿服务相关;住宿服务相关
成都阳光公寓,30.634786081587023,104.1424412939949,住宿服务;住宿服务相关;住宿服务相关
成都爱尚公寓,30.63256523667855,104.14237616492643,住宿服务;住宿服务相关;住宿服务相关
成都东鑫家园公寓,30.634883600172632,104.14470933434319,住宿服务;住宿服务相关;住宿服务相关
成都诚信家庭公寓,30.619484861339394,104.12065405447895,住宿服务;旅馆招待所;旅馆招待所
成都如宾住宿(火车东站店),30.61949065068438,104.12116909502032,住宿服务;旅馆招待所;旅馆招待所
成都百佳公寓,30.632468661685248,104.14253929894699,住宿服务;住宿服务相关;住宿服务相关
80HOME公寓(成都漫岭云天店),30.633869302072032,104.14199846550515,住宿服务;旅馆招待所;旅馆招待所
成都如花似锦主题公寓,30.633280675623354,104.14308430810857,住宿服务;住宿服务相关;住宿服务相关
成都play蓉城客栈,30.63346673102075,104.1429330574513,住宿服务;住宿服务相关;住宿服务相关
成都东站(东方公寓店),30.632381993257496,104.14302844481291,住宿服务;住宿服务相关;住宿服务相关
成都新逸家庭公寓,30.633991702857543,104.14257334959531,住宿服务;住宿服务相关;住宿服务相关
爱尚宾馆(洪景南路),30.61621807653863,104.16528087326604,住宿服务;宾馆酒店;宾馆酒店
成都鑫苑住宿,30.619831649057407,104.12148184262996,住宿服务;住宿服务相关;住宿服务相关
成都梦回故居公寓,30.635230955822628,104.14373279749266,住宿服务;住宿服务相关;住宿服务相关
成都520爱心公寓,30.63341242883538,104.14296312965723,住宿服务;旅馆招待所;旅馆招待所
斑竹酒店(静明路店),30.622597328336553,104.12421865225073,住宿服务;旅馆招待所;旅馆招待所|住宿服务;宾馆酒店;宾馆酒店
成都八零青春公寓,30.634031334653084,104.14387139545258,住宿服务;住宿服务相关;住宿服务相关
成都六米阳光主题公寓,30.63452561925361,104.14475481226516,住宿服务;住宿服务相关;住宿服务相关
阳光假日酒店(惠王陵东路),30.618829119701264,104.16248176570672,住宿服务;宾馆酒店;宾馆酒店
木语宾馆,30.61876060009896,104.15865157258033,住宿服务;旅馆招待所;旅馆招待所
成都市诚信公寓一店,30.632581370374318,104.14226513616225,住宿服务;旅馆招待所;旅馆招待所
成都平安公寓,30.61986193251253,104.11883458396173,住宿服务;住宿服务相关;住宿服务相关
成都如家公寓(东站店),30.635489768385934,104.14289938687648,住宿服务;旅馆招待所;旅馆招待所
成都东站鸿运公寓,30.633342630479078,104.14168612272907,住宿服务;住宿服务相关;住宿服务相关
狮山青年旅店,30.61800180359206,104.11914208648864,住宿服务;旅馆招待所;旅馆招待所
成都温馨家庭旅馆(火车东站店),30.619264684503428,104.12166732168428,住宿服务;住宿服务相关;住宿服务相关
鸿源宾馆(洪河大道中路),30.61831999424135,104.16364923646032,住宿服务;旅馆招待所;旅馆招待所
成都牵手公寓,30.619266981600877,104.12101826294601,住宿服务;住宿服务相关;住宿服务相关
兰庭居酒店,30.610859451459053,104.13179658609656,住宿服务;宾馆酒店;宾馆酒店
成都恋尚优品主题公寓,30.633320901342643,104.14305625435514,住宿服务;住宿服务相关;住宿服务相关
成都旭馨公寓,30.63295383662811,104.14334074517156,住宿服务;住宿服务相关;住宿服务相关
成都蓝月阁青年旅舍,30.633966548539433,104.14261538557572,住宿服务;住宿服务相关;住宿服务相关
成都君又来客栈,30.633247014912484,104.14416143201242,住宿服务;住宿服务相关;住宿服务相关
成都温馨筱筑家庭旅店东站店,30.633853277409635,104.14186147594292,住宿服务;旅馆招待所;旅馆招待所
如意公寓,30.63519210032576,104.14293078935061,住宿服务;旅馆招待所;旅馆招待所
成都锦宏宾馆(三环路店),30.621965615184116,104.14294174662056,住宿服务;宾馆酒店;宾馆酒店
斑竹综合市场旅馆,30.634761052697705,104.14442947640829,住宿服务;旅馆招待所;旅馆招待所
成都士兵之家公寓,30.63359504270805,104.14153178565913,住宿服务;住宿服务相关;住宿服务相关
祥和酒店公寓,30.6336954042348,104.14192168543771,住宿服务;宾馆酒店;宾馆酒店
成都姑娘别走青年旅舍,30.634146508427612,104.14264015234035,住宿服务;住宿服务相关;住宿服务相关
成都好再来酒店公寓,30.63251380527713,104.14274225743712,住宿服务;宾馆酒店;宾馆酒店
成都兰妹酒店公寓,30.632593390416865,104.14236012818657,住宿服务;宾馆酒店;宾馆酒店
百合宾馆,30.616645091898388,104.16344146090867,住宿服务;旅馆招待所;旅馆招待所
成都老兵公寓(金马河路),30.633041296236673,104.14334163376073,住宿服务;宾馆酒店;宾馆酒店
阳阳旅馆(惠王陵东路),30.618816387264577,104.16178673163093,住宿服务;旅馆招待所;旅馆招待所
成都佳家旅馆,30.632407281920724,104.14267638649251,住宿服务;旅馆招待所;旅馆招待所
明亮公寓,30.63269304848758,104.14205097880406,住宿服务;旅馆招待所;旅馆招待所
和煦阳光公寓,30.632820492306465,104.14254785493446,住宿服务;旅馆招待所;旅馆招待所
伊家家庭公寓,30.632680913923107,104.14221000621775,住宿服务;宾馆酒店;宾馆酒店
漫岭时尚公寓,30.633590953198752,104.14168280244401,住宿服务;宾馆酒店;宾馆酒店
成都鑫缘酒店公寓,30.63405963298224,104.14354633414965,住宿服务;旅馆招待所;旅馆招待所
成都万万的小窝普通公寓,30.601053239439256,104.13927683637353,住宿服务;住宿服务相关;住宿服务相关
成都溯源公寓,30.63441838201231,104.14398089604418,住宿服务;宾馆酒店;宾馆酒店
成都温馨家园,30.632666806711516,104.14228502974481,住宿服务;住宿服务相关;住宿服务相关
风信子公寓(成都漫岭云天店),30.63366431505251,104.14174971263272,住宿服务;住宿服务相关;住宿服务相关
成都荣华公寓,30.633822178616686,104.14394067307698,住宿服务;住宿服务相关;住宿服务相关
成都悦程精品酒店,30.60113534656509,104.13905981429807,住宿服务;宾馆酒店;宾馆酒店
成都艺家小住民宿,30.619102373298663,104.12117840913068,住宿服务;住宿服务相关;住宿服务相关
容源居酒店,30.59688544688903,104.103141528771,住宿服务;宾馆酒店;宾馆酒店
金港旅馆(洪景西路),30.61861408532684,104.16101684132596,住宿服务;旅馆招待所;旅馆招待所
成都七七公寓,30.63364227987613,104.14379689561227,住宿服务;住宿服务相关;住宿服务相关
成都东站亿家公寓,30.634070903147013,104.14307928433779,住宿服务;住宿服务相关;住宿服务相关
成都1+1酒店公寓,30.632643727085327,104.14219405202681,住宿服务;宾馆酒店;宾馆酒店
杨姐公寓,30.633926616934087,104.14198338975383,住宿服务;旅馆招待所;旅馆招待所
成都好放心客栈,30.6353465660915,104.14380264749587,住宿服务;住宿服务相关;住宿服务相关
成都娄娄公寓,30.63459401816102,104.14246755049422,住宿服务;旅馆招待所;旅馆招待所
成都小窝短租公寓,30.62597276199984,104.11355537041331,住宿服务;住宿服务相关;住宿服务相关
迎宾旅馆(校园春天南),30.611096211648068,104.1131298452576,住宿服务;旅馆招待所;旅馆招待所
成都明城公寓,30.619714673860383,104.12054685700322,住宿服务;住宿服务相关;住宿服务相关
成都开心小屋公寓,30.632441561792316,104.1424483261591,住宿服务;旅馆招待所;旅馆招待所
成都宜家乐青年连锁公寓,30.629191451622294,104.14010906941127,住宿服务;宾馆酒店;宾馆酒店
舒雅公寓,30.633247829234634,104.14235329505757,住宿服务;宾馆酒店;宾馆酒店
东阳光商务宾馆,30.61881529683587,104.16198274497046,住宿服务;宾馆酒店;宾馆酒店
三桥客栈,30.618688894672747,104.1574735509882,住宿服务;旅馆招待所;旅馆招待所
成都怡然之家家庭旅馆,30.63257839789541,104.1421691326363,住宿服务;旅馆招待所;旅馆招待所
成都赖姐温馨小旅馆,30.633222543552293,104.14269235310343,住宿服务;旅馆招待所;旅馆招待所
成都青柠家庭公寓,30.633312445302316,104.14174216576838,住宿服务;宾馆酒店;宾馆酒店
成都偶遇青春青年旅舍,30.633872221827453,104.14221247793829,住宿服务;住宿服务相关;住宿服务相关
彩蜀居公寓,30.635405960549985,104.14365955688932,住宿服务;旅馆招待所;旅馆招待所
东鑫家园酒店公寓,30.635356018391988,104.14291156789078,住宿服务;宾馆酒店;宾馆酒店
富桥旅馆,30.61869795052701,104.15741253981888,住宿服务;旅馆招待所;旅馆招待所
邓姐公寓,30.632521921807754,104.14257623466995,住宿服务;旅馆招待所;旅馆招待所
夏姐家庭旅馆,30.619771694869147,104.12092784354914,住宿服务;旅馆招待所;旅馆招待所
东客站新城公寓,30.633219730748223,104.14224132259234,住宿服务;宾馆酒店;宾馆酒店
成都东舍酒店式公寓,30.601420919568515,104.13787570119501,住宿服务;住宿服务相关;住宿服务相关
洪宾旅馆(惠王陵东路),30.618806839162804,104.15619237237797,住宿服务;旅馆招待所;旅馆招待所
成都德缘公寓,30.632585430930106,104.14217712436708,住宿服务;住宿服务相关;住宿服务相关
顺旅太空舱酒店(成都东站分店),30.63264068659657,104.14224906003857,住宿服务;宾馆酒店;宾馆酒店
东方平安客栈,30.634023588721735,104.14321135607297,住宿服务;旅馆招待所;旅馆招待所
成都蓉城驿青年旅社,30.63377717748005,104.14340469137422,住宿服务;旅馆招待所;青年旅舍
成都LOVE香薰主题公寓,30.632999512641494,104.14236761359597,住宿服务;住宿服务相关;住宿服务相关
东站特价公寓,30.63254316663751,104.1422761851867,住宿服务;住宿服务相关;住宿服务相关
成都新城连锁公寓6号店,30.6324204482515,104.1424573533882,住宿服务;住宿服务相关;住宿服务相关
成都暖家公寓,30.63307924704267,104.14166545856551,住宿服务;住宿服务相关;住宿服务相关
成都东站8080公寓,30.632747245641916,104.14224292473888,住宿服务;住宿服务相关;住宿服务相关
成都仕居公寓(漫岭云天店),30.63254316483668,104.14228018549206,住宿服务;住宿服务相关;住宿服务相关
成都金色家园公寓,30.632843203692396,104.14345789464967,住宿服务;住宿服务相关;住宿服务相关
成都慢时光主题公寓,30.634740967228534,104.14437449896778,住宿服务;旅馆招待所;旅馆招待所
成都信任公寓,30.634205417889017,104.14355314387022,住宿服务;住宿服务相关;住宿服务相关
成都逸舒青年公寓,30.63427629363457,104.14468713551989,住宿服务;住宿服务相关;住宿服务相关
川东旅馆(惠王陵东路),30.618771273248072,104.15721146875481,住宿服务;旅馆招待所;旅馆招待所
成都薇阁・青旅,30.635518425651934,104.14401943223653,住宿服务;住宿服务相关;住宿服务相关
成都天一公寓,30.6191082500667,104.1214974323939,住宿服务;住宿服务相关;住宿服务相关
成都东站乐家公寓,30.632887400778465,104.14130267535397,住宿服务;住宿服务相关;住宿服务相关
成都月亮湾主题公寓(成都火车东站店),30.634060274730675,104.14435339362979,住宿服务;住宿服务相关;住宿服务相关
成都乐途家庭式公寓,30.634757074376047,104.14433247446475,住宿服务;旅馆招待所;旅馆招待所
成都雅馨住宿,30.619738486059937,104.11890569221181,住宿服务;住宿服务相关;住宿服务相关
成都心悦住宿,30.619697625766374,104.12052686926026,住宿服务;旅馆招待所;旅馆招待所
成都可可公寓(东方新城店),30.633771229406456,104.1432176850459,住宿服务;住宿服务相关;住宿服务相关
成都帝景公寓,30.633513582096512,104.14382206379268,住宿服务;住宿服务相关;住宿服务相关
成都东站幸福公寓,30.634656300866244,104.14259647782268,住宿服务;住宿服务相关;住宿服务相关
天天家庭旅馆,30.619535641371254,104.12152408946424,住宿服务;旅馆招待所;旅馆招待所
成都红运公寓,30.632543166187304,104.14227718526304,住宿服务;旅馆招待所;旅馆招待所
成都实惠短租公寓,30.61662282686473,104.16164036268368,住宿服务;旅馆招待所;旅馆招待所
东站天天旅馆,30.634047645852263,104.14337333682872,住宿服务;旅馆招待所;旅馆招待所
成都宏发公寓(1号店),30.6326570852184,104.14154998619219,住宿服务;住宿服务相关;住宿服务相关
成都东客栈,30.633461270912083,104.15059462405536,住宿服务;旅馆招待所;旅馆招待所
成都冯姐住宿,30.619497784973532,104.12092106743508,住宿服务;住宿服务相关;住宿服务相关
成都林海公寓,30.63239618095003,104.14277340776476,住宿服务;旅馆招待所;旅馆招待所
爱回家青年公寓,30.63496949099261,104.14377715043389,住宿服务;旅馆招待所;青年旅舍
洪景丽苑短租公寓,30.616557208480472,104.16261547087034,住宿服务;旅馆招待所;旅馆招待所
成都本原三圣花乡别墅,30.588845210165438,104.1313126310186,住宿服务;住宿服务相关;住宿服务相关
成都和谐酒店公寓,30.634893854790604,104.14426728780504,住宿服务;宾馆酒店;宾馆酒店
80青春公寓,30.635955248126066,104.14318577763464,住宿服务;宾馆酒店;宾馆酒店
成都清枫雅居公寓式酒店,30.63278794683133,104.14115279018453,住宿服务;住宿服务相关;住宿服务相关
成都520爱的公寓,30.635035390205086,104.1448121396269,住宿服务;住宿服务相关;住宿服务相关
成都嘉玲公寓,30.63300011622849,104.14325968012007,住宿服务;住宿服务相关;住宿服务相关
成都嘉禾住宿,30.619870159878207,104.12062773578045,住宿服务;旅馆招待所;旅馆招待所
成都心缘住宿,30.619761756470865,104.11847463467726,住宿服务;旅馆招待所;旅馆招待所
聚祥精品公寓,30.633033995648432,104.14169451853539,住宿服务;宾馆酒店;宾馆酒店
花果旅馆(成都火车东站川师店),30.610158752504233,104.11478443341618,住宿服务;旅馆招待所;旅馆招待所
7天168连锁公寓(成都火车东站),30.63378086103382,104.14192357475015,住宿服务;住宿服务相关;住宿服务相关
吉祥公寓(成都火车东站店),30.634165284507578,104.14336618242815,住宿服务;住宿服务相关;住宿服务相关
成都浩青年旅舍,30.633977306140693,104.14328542202823,住宿服务;住宿服务相关;住宿服务相关
成都光明公寓,30.634503217603573,104.14314772173688,住宿服务;旅馆招待所;旅馆招待所
成都80公寓(成都东客站店),30.632503817861828,104.14259825914216,住宿服务;旅馆招待所;旅馆招待所
成都东站爱佳公寓,30.63388094371105,104.14293752137759,住宿服务;宾馆酒店;宾馆酒店
自由空间商务酒店,30.618831113215826,104.16251076596606,住宿服务;宾馆酒店;宾馆酒店
成都瑞鑫家庭公寓,30.633817053813768,104.14192652796926,住宿服务;旅馆招待所;旅馆招待所
玉宾缘宾馆,30.616788435983278,104.16358936848125,住宿服务;住宿服务相关;住宿服务相关
玲珑宾馆(洪河大道中路店),30.61644252177377,104.16343460282702,住宿服务;宾馆酒店;宾馆酒店
成都温馨之家家庭旅馆,30.619608083367794,104.1210729907197,住宿服务;旅馆招待所;旅馆招待所
成都感觉公寓,30.635542081764726,104.14285131267225,住宿服务;住宿服务相关;住宿服务相关
洪河谷宾馆,30.61829930580906,104.16280119916027,住宿服务;宾馆酒店;宾馆酒店
成都豪爵如家住宿,30.63230568296573,104.1428395263146,住宿服务;住宿服务相关;住宿服务相关
成都馨馨公寓,30.633098813463917,104.14286352433847,住宿服务;住宿服务相关;住宿服务相关
成都和平公寓,30.633140589459014,104.14162337696631,住宿服务;住宿服务相关;住宿服务相关
成都驿夜酒店式公寓,30.635542081764726,104.14285131267225,住宿服务;旅馆招待所;旅馆招待所
成都汉庭如家精品公寓,30.633984346302775,104.14328041247008,住宿服务;住宿服务相关;住宿服务相关
蓝天酒店公寓,30.633561555225448,104.14222088128955,住宿服务;宾馆酒店;宾馆酒店
成都逸乐青年公寓,30.63472073398039,104.14241737890323,住宿服务;住宿服务相关;住宿服务相关
成都美房酒店式公寓,30.635395274399627,104.14282750875047,住宿服务;住宿服务相关;住宿服务相关
成都橘子水晶酒店公寓(东站店),30.633612969886357,104.14190779108615,住宿服务;住宿服务相关;住宿服务相关
成都东站悦途商务酒店公寓,30.635536048087616,104.14285132081754,住宿服务;住宿服务相关;住宿服务相关
成都舒逸家庭旅馆,30.634525576881018,104.14484881929819,住宿服务;住宿服务相关;住宿服务相关
成都春风得意驿站,30.63397632731498,104.14322641887024,住宿服务;住宿服务相关;住宿服务相关
雅竹苑酒店,30.622509691131285,104.14059806976981,住宿服务;宾馆酒店;宾馆酒店
成都宏发公寓(2号店),30.635334517084136,104.14376266069972,住宿服务;住宿服务相关;住宿服务相关
东站旅馆,30.613943387562344,104.13778540814864,住宿服务;旅馆招待所;旅馆招待所
成都小时光家庭公寓,30.633173233602278,104.14280242456104,住宿服务;住宿服务相关;住宿服务相关
成都友园公寓,30.635286618545074,104.14294366355259,住宿服务;住宿服务相关;住宿服务相关
嘉禾园张姐住宿,30.619614935717546,104.12145501860623,住宿服务;住宿服务相关;住宿服务相关
成都情缘客栈,30.632519042538767,104.142273215367,住宿服务;旅馆招待所;旅馆招待所
福尔加酒店公寓,30.618829119701264,104.16248176570672,住宿服务;宾馆酒店;宾馆酒店
成都东站源之缘住宿,30.634025239591484,104.14177924563761,住宿服务;住宿服务相关;住宿服务相关
成都鑫城时尚公寓,30.63364585872875,104.14254779703484,住宿服务;住宿服务相关;住宿服务相关
成都彼岸公寓,30.635118250678442,104.14391396199294,住宿服务;住宿服务相关;住宿服务相关
绿水湾宾馆(惠王陵东路),30.61882159778059,104.1613496996024,住宿服务;旅馆招待所;旅馆招待所
红宴旅馆,30.616202495419884,104.16423781956516,住宿服务;旅馆招待所;旅馆招待所
成都QUANQUAN57特色民宿(辅路分店),30.61089360122223,104.14285744397488,住宿服务;住宿服务相关;住宿服务相关
爱家酒店时尚公寓,30.632468594161182,104.14268931036725,住宿服务;宾馆酒店;宾馆酒店
雅筑阳光精品公寓,30.601164394638992,104.1389608046709,住宿服务;旅馆招待所;旅馆招待所
成都牟俊明普通公寓,30.60129242825602,104.13892979352711,住宿服务;住宿服务相关;住宿服务相关
成都容姐家庭酒店,30.601152403155215,104.13893780364955,住宿服务;住宿服务相关;住宿服务相关
成都黎黎特色民宿(牡丹街分店),30.60106810265147,104.13958885981513,住宿服务;住宿服务相关;住宿服务相关
成都天天1216公寓(牡丹街分店),30.601109807935998,104.13801373375603,住宿服务;住宿服务相关;住宿服务相关
成都东站雅悦公寓,30.63528965604376,104.14289765600837,住宿服务;住宿服务相关;住宿服务相关
成都海里特色民宿(青衣江路分店),30.627995069552,104.1307096772393,住宿服务;住宿服务相关;住宿服务相关
成都希希猫普通公寓,30.628171124345496,104.13016143507615,住宿服务;住宿服务相关;住宿服务相关
成都云天保利公寓,30.633807948929476,104.14205154928867,住宿服务;住宿服务相关;住宿服务相关
梦想house酒店公寓(成都东站店),30.63272506521311,104.14238696374261,住宿服务;宾馆酒店;宾馆酒店
成都诚德家庭公寓,30.63295383662811,104.14334074517156,住宿服务;旅馆招待所;旅馆招待所
成都双双公寓,30.63281713971325,104.14329591557367,住宿服务;旅馆招待所;旅馆招待所
成都风景里公寓,30.632513026495126,104.14223922037067,住宿服务;住宿服务相关;住宿服务相关
成都豪雅连锁公寓,30.632516051624002,104.1422182149674,住宿服务;住宿服务相关;住宿服务相关
成都梦田家庭公寓,30.63328838312912,104.14382835405581,住宿服务;旅馆招待所;旅馆招待所
成都斌哥旅馆,30.632482600612608,104.14283730390733,住宿服务;住宿服务相关;住宿服务相关
成都火车东站熊猫客栈,30.632597585149487,104.14197409361958,住宿服务;住宿服务相关;住宿服务相关
成都新城快捷公寓,30.63456583874325,104.14475475913338,住宿服务;旅馆招待所;旅馆招待所
成都秋秋普通公寓(分店),30.62941589616091,104.15046157541937,住宿服务;住宿服务相关;住宿服务相关
成都一般家庭宾馆,30.632491804710135,104.14248826595497,住宿服务;住宿服务相关;住宿服务相关
成都东客站佳好公寓,30.632555241096384,104.14225016799038,住宿服务;住宿服务相关;住宿服务相关
成都芳芳旅馆,30.632752276874385,104.14223191752987,住宿服务;旅馆招待所;旅馆招待所
成都蓉城天府酒店式公寓(火车东站店),30.632946753726372,104.14344276184991,住宿服务;住宿服务相关;住宿服务相关
成都东站回家公寓,30.632949839815495,104.14328674620306,住宿服务;住宿服务相关;住宿服务相关
阳光公寓(成都东站店),30.634822243349152,104.14252325215034,住宿服务;宾馆酒店;宾馆酒店
成都东站向日葵公寓,30.63316491728679,104.14341048096553,住宿服务;住宿服务相关;住宿服务相关
成都蓉城步落主题公寓,30.633501830476725,104.14312802687759,住宿服务;住宿服务相关;住宿服务相关
成都插画师之家酒店式公寓,30.630040723016055,104.15087787233762,住宿服务;住宿服务相关;住宿服务相关
成都惠家公寓,30.633962266389887,104.1431934347237,住宿服务;住宿服务相关;住宿服务相关
成都云天公寓,30.633355733047118,104.14384426873893,住宿服务;住宿服务相关;住宿服务相关
优雅温馨公寓火车东站店,30.633512638455127,104.14368505475296,住宿服务;住宿服务相关;住宿服务相关
成都市民生公寓,30.633550808253208,104.14376001109781,住宿服务;住宿服务相关;住宿服务相关
泰雅居公寓,30.6346282370606,104.14462666709905,住宿服务;旅馆招待所;旅馆招待所
成都欢乐颂公寓,30.63395510051526,104.14347746539785,住宿服务;住宿服务相关;住宿服务相关
成都18980915331公寓(成龙路分店),30.61436743935984,104.113041034349,住宿服务;住宿服务相关;住宿服务相关
成都东站懒虫小住公寓,30.6350864160873,104.14315294750794,住宿服务;住宿服务相关;住宿服务相关
成都如意家家庭公寓,30.63493057625806,104.14310915217975,住宿服务;住宿服务相关;住宿服务相关
成都驿旅阳光主题公寓,30.635428382841898,104.14299647690991,住宿服务;住宿服务相关;住宿服务相关
成都幸福的家民宿,30.626066221855016,104.11342726071518,住宿服务;住宿服务相关;住宿服务相关
成都聪聪精品公寓静秀路店,30.626066221855016,104.11342726071518,住宿服务;住宿服务相关;住宿服务相关
馨馨公寓1号店,30.634694706591816,104.14439056150557,住宿服务;住宿服务相关;住宿服务相关
成都插画师民宿酒店,30.636709670670587,104.14510288512844,住宿服务;住宿服务相关;住宿服务相关
成都张璐特色民宿(静渝路分店),30.624729100207624,104.10781211220386,住宿服务;住宿服务相关;住宿服务相关
成都情侣之家酒店式公寓(金科大厦店),30.624832639417125,104.10756198452147,住宿服务;住宿服务相关;住宿服务相关
圣恩时尚公寓,30.63262161224517,104.14219307989474,住宿服务;旅馆招待所;旅馆招待所
凤来栖住宿,30.588596726075465,104.13137851494011,住宿服务;宾馆酒店;宾馆酒店
成都苑苑住宿,30.61974680063,104.12050382676965,住宿服务;旅馆招待所;旅馆招待所
成都ivy in the house公寓(翠柳街分店),30.595353071691303,104.16737942119639,住宿服务;住宿服务相关;住宿服务相关
成都乐乐住宿,30.619491655348998,104.12116609393905,住宿服务;旅馆招待所;旅馆招待所
成都嘉和旅馆,30.633564195549354,104.14305494087674,住宿服务;旅馆招待所;旅馆招待所
芙蓉宾馆(洪景西路),30.618658139288748,104.16120981922779,住宿服务;旅馆招待所;旅馆招待所
成都哪些年普通公寓,30.62800517945046,104.1305676542434,住宿服务;住宿服务相关;住宿服务相关
成都清凤徐来公寓(锦绣大道岷江路口店),30.628055502656512,104.13036158103633,住宿服务;住宿服务相关;住宿服务相关
成都优品公寓,30.632493725119804,104.14268827865334,住宿服务;宾馆酒店;宾馆酒店
成都悦祥商旅公寓,30.633180422573226,104.14246538989929,住宿服务;旅馆招待所;旅馆招待所
成都梦时光酒店公寓,30.63263274012144,104.1420370540011,住宿服务;住宿服务相关;住宿服务相关
成都2020速8公寓,30.63396682798758,104.14199533825955,住宿服务;旅馆招待所;旅馆招待所
永鑫家园,30.63361914915232,104.14381292673697,住宿服务;宾馆酒店;宾馆酒店
成都爱转角公寓,30.633940134262193,104.1432224657514,住宿服务;旅馆招待所;旅馆招待所
成都东站巴适居主题公寓,30.63249290447058,104.14227824867184,住宿服务;住宿服务相关;住宿服务相关
成都如嘉公寓,30.632526870957715,104.14274724134995,住宿服务;住宿服务相关;住宿服务相关
成都凯悦公寓,30.632560302816557,104.14217115561735,住宿服务;住宿服务相关;住宿服务相关
成都517旅舍,30.63272314116039,104.14219495163384,住宿服务;住宿服务相关;住宿服务相关
成都如家悦诚公寓,30.633093561782044,104.14336356867888,住宿服务;住宿服务相关;住宿服务相关
成都爱上新城公寓,30.63278028721274,104.14253590503544,住宿服务;住宿服务相关;住宿服务相关
成都欢朋青年公寓,30.63322689545475,104.14195829194136,住宿服务;住宿服务相关;住宿服务相关
成都东客站新城公寓二分店,30.63330522103945,104.14215720656462,住宿服务;住宿服务相关;住宿服务相关
成都一旅阳光酒店公寓,30.63386130168052,104.14190346869789,住宿服务;住宿服务相关;住宿服务相关
成都周末假日主题公寓,30.633074645285124,104.14295456207107,住宿服务;住宿服务相关;住宿服务相关
成都三温暖公寓酒店,30.63363404029588,104.1420017709683,住宿服务;住宿服务相关;住宿服务相关
成都缘来居公寓,30.633763787896385,104.14188259379706,住宿服务;住宿服务相关;住宿服务相关
成都蒋姐开心公寓,30.633793900922033,104.14199056290576,住宿服务;住宿服务相关;住宿服务相关
成都凯宾时尚连锁公寓,30.63385926383718,104.14196347590556,住宿服务;住宿服务相关;住宿服务相关
成都好运来精品酒店公寓,30.63382505506269,104.14201952463296,住宿服务;住宿服务相关;住宿服务相关
成都葡萄酒店式公寓,30.63388633577645,104.14212745312865,住宿服务;住宿服务相关;住宿服务相关
成都途掌柜・文文普通公寓(和锦路店),30.629946290116354,104.15081997976628,住宿服务;住宿服务相关;住宿服务相关
成都红苹果酒店公寓(漫岭云天店),30.633884301532706,104.14217945971873,住宿服务;住宿服务相关;住宿服务相关
成都迎客来公寓,30.633465391418515,104.14367511493236,住宿服务;住宿服务相关;住宿服务相关
成都火车站民宿,30.633915511920346,104.14208441188299,住宿服务;住宿服务相关;住宿服务相关
成都香语公寓,30.633766197959282,104.14322769232835,住宿服务;住宿服务相关;住宿服务相关
成都广寓公寓,30.62576538448371,104.11688088815669,住宿服务;住宿服务相关;住宿服务相关
成都佳鑫福公寓,30.633985637004354,104.14264736309877,住宿服务;住宿服务相关;住宿服务相关
成都金色夏日公寓,30.634486514441765,104.14228267848995,住宿服务;住宿服务相关;住宿服务相关
成都1号公寓,30.63404029377658,104.14407039862422,住宿服务;住宿服务相关;住宿服务相关
成都福乐生活公寓,30.63448751992233,104.14228267716344,住宿服务;住宿服务相关;住宿服务相关
成都忆成都民宿公寓(分店),30.633958091966946,104.14353246562399,住宿服务;住宿服务相关;住宿服务相关
成都鲲鹏公寓,30.634517629836793,104.14240364658566,住宿服务;住宿服务相关;住宿服务相关
成都金誉阳光酒店公寓,30.63393085800355,104.14372751572859,住宿服务;住宿服务相关;住宿服务相关
成都阳光90公寓,30.63392796660094,104.14345049873066,住宿服务;住宿服务相关;住宿服务相关
成都成华舒馨公寓,30.634766885205227,104.1426443348254,住宿服务;住宿服务相关;住宿服务相关
成都美客美家公寓(东站店),30.634701546779834,104.14260041817714,住宿服务;住宿服务相关;住宿服务相关
成都爱丽丝奇幻主题公寓,30.634806166273037,104.1424982716253,住宿服务;住宿服务相关;住宿服务相关
成都晨露家庭公寓,30.633895894981112,104.143225523595,住宿服务;住宿服务相关;住宿服务相关
成都千喜公寓,30.634400272280477,104.14400592176274,住宿服务;住宿服务相关;住宿服务相关
成都四通精品公寓,30.634087673179803,104.14379431607759,住宿服务;住宿服务相关;住宿服务相关
成都爱情公寓嘉陵江路店,30.634556547124284,104.14306164484142,住宿服务;住宿服务相关;住宿服务相关
厚德住宿(惠王陵东路),30.618771394369386,104.15693945048476,住宿服务;旅馆招待所;旅馆招待所
成都四姐住宿,30.634655294913387,104.14259747923036,住宿服务;住宿服务相关;住宿服务相关
成都开心家旅公寓(万宇路分店),30.630101008653273,104.15313495865155,住宿服务;住宿服务相关;住宿服务相关
成都苏苏驿站,30.635102154520293,104.14392998471843,住宿服务;住宿服务相关;住宿服务相关
成都蓉蓉酒店公寓,30.634578877213507,104.14482774731752,住宿服务;住宿服务相关;住宿服务相关
成都香儿公寓,30.63509093011949,104.14429202674391,住宿服务;住宿服务相关;住宿服务相关
优雅酒店公寓,30.63488052496514,104.14483934808662,住宿服务;旅馆招待所;旅馆招待所
成都朱丹公寓(马家沟路分店),30.625987831293944,104.11354535371964,住宿服务;住宿服务相关;住宿服务相关
成都川师东站万科2居室锦江妇幼旁地铁普通公寓,30.626745867627672,104.11413960430193,住宿服务;住宿服务相关;住宿服务相关
成都东站方舟公寓,30.635357873458656,104.1432575914302,住宿服务;住宿服务相关;住宿服务相关
成都乐蜀之家普通公寓,30.63541825060229,104.14316550327052,住宿服务;住宿服务相关;住宿服务相关
馨馨公寓2号店,30.634561198997375,104.14389470118557,住宿服务;住宿服务相关;住宿服务相关
成都新城连锁公寓5号店,30.634946758978533,104.14513028143863,住宿服务;住宿服务相关;住宿服务相关
成都大时代青年公寓,30.635179685693572,104.14370186389039,住宿服务;住宿服务相关;住宿服务相关
成都安心温暖之家普通公寓,30.63558059683251,104.14441137751538,住宿服务;住宿服务相关;住宿服务相关
成都花园平台阳光房普通公寓,30.63118528994528,104.1555548211434,住宿服务;住宿服务相关;住宿服务相关
成都向富公寓,30.635204267775396,104.14270775623,住宿服务;住宿服务相关;住宿服务相关
成都柠檬屋公寓,30.635270617691337,104.142747670257,住宿服务;宾馆酒店;宾馆酒店
成都雅文公寓,30.63455477115065,104.14477077494689,住宿服务;住宿服务相关;住宿服务相关
祥和旅馆(洪河大道中路),30.616789502423142,104.16344635876771,住宿服务;旅馆招待所;旅馆招待所
成都Forest公寓(锦江大道分店),30.60902654607171,104.1470155736687,住宿服务;住宿服务相关;住宿服务相关
成都韦恩的House普通公寓(翠柳街店),30.595354070758574,104.16737942138678,住宿服务;住宿服务相关;住宿服务相关
成都全新二居室普通公寓,30.606453351469366,104.13074219340457,住宿服务;住宿服务相关;住宿服务相关
成都东客站美宿公寓(大渡河路分店),30.623902595015448,104.13500130648887,住宿服务;住宿服务相关;住宿服务相关
成都忆家民宿,30.631863078110037,104.14134196443686,住宿服务;住宿服务相关;住宿服务相关
成都亲亲公寓,30.634837969573585,104.14332629174734,住宿服务;住宿服务相关;住宿服务相关
嘉禾园玫瑰住宿,30.619824647372063,104.12143284412767,住宿服务;旅馆招待所;旅馆招待所
成都素舍普通公寓,30.603034299880026,104.14500306870941,住宿服务;住宿服务相关;住宿服务相关
成都大众旅馆,30.619569979392,104.12102201740751,住宿服务;住宿服务相关;住宿服务相关
成都浪漫雅居,30.618686929808003,104.11917856156167,住宿服务;住宿服务相关;住宿服务相关
成都杜姐家庭旅馆,30.61968058219646,104.1204968806217,住宿服务;旅馆招待所;旅馆招待所
有缘公寓,30.632484859547418,104.14228525933214,住宿服务;宾馆酒店;宾馆酒店
成都8090公寓,30.634477048054297,104.1432077607766,住宿服务;宾馆酒店;宾馆酒店
成都蜀色蜀香普通公寓,30.63569534949987,104.14416420386733,住宿服务;住宿服务相关;住宿服务相关
成都M家普通公寓,30.62762259835496,104.13020204840389,住宿服务;住宿服务相关;住宿服务相关
成都张姐住宿火车东站店,30.618662856811582,104.11917057971264,住宿服务;住宿服务相关;住宿服务相关
成都扬子公寓,30.61940947888127,104.12095314202539,住宿服务;住宿服务相关;住宿服务相关
成都罗姐住宿,30.619168474627852,104.1191921809198,住宿服务;住宿服务相关;住宿服务相关
成都牟姐住宿,30.619308993130748,104.119060056117,住宿服务;住宿服务相关;住宿服务相关
成都川师大嘉兴住宿,30.61884233618197,104.11938045719597,住宿服务;住宿服务相关;住宿服务相关
成都群英公寓,30.619714673860383,104.12054685700322,住宿服务;住宿服务相关;住宿服务相关
成都七姐公寓,30.619868991123333,104.11875657117758,住宿服务;住宿服务相关;住宿服务相关
成都宇玲小姐姐家普通公寓,30.632437424343383,104.14270735094063,住宿服务;住宿服务相关;住宿服务相关
成都色彩部落主题公寓,30.6353465660915,104.14380264749587,住宿服务;住宿服务相关;住宿服务相关
洋洋旅馆(皇经楼一街),30.597197992827883,104.10371962122863,住宿服务;旅馆招待所;旅馆招待所
成都一宅一舍公寓(五段辅路分店),30.63419579897715,104.15151473410891,住宿服务;住宿服务相关;住宿服务相关
成都爱家公寓,30.634756067058387,104.14433647609971,住宿服务;住宿服务相关;住宿服务相关
和美公寓,30.63296890867288,104.14335672717753,住宿服务;住宿服务相关;住宿服务相关
青青宾馆,30.618816437996582,104.1616727243212,住宿服务;旅馆招待所;旅馆招待所
东方旅馆(洪河店),30.617105400741995,104.16348313416098,住宿服务;旅馆招待所;旅馆招待所
成都蓉里亲子娱乐音乐之家普通公寓,30.636768172741583,104.14473077657857,住宿服务;住宿服务相关;住宿服务相关
海螺旅馆,30.616199555059424,104.16408481207664,住宿服务;旅馆招待所;旅馆招待所
蓝宇宾馆(洪景南路),30.6163241891395,104.1634366853755,住宿服务;宾馆酒店;宾馆酒店
成都世外桃源别墅聚会,30.622207258136388,104.15250122103154,住宿服务;住宿服务相关;住宿服务相关
成都佳缘聚会别墅,30.62290736963576,104.14921133921051,住宿服务;住宿服务相关;住宿服务相关
成都独栋日租连锁别墅聚会派对轰趴馆(惠王陵东路店),30.62215904863737,104.15032011162626,住宿服务;住宿服务相关;住宿服务相关
好又来客栈租住(惠王陵东路),30.61878252622129,104.15672242717861,住宿服务;旅馆招待所;旅馆招待所
成都欢乐之家别墅,30.62124087587131,104.15216606465879,住宿服务;住宿服务相关;住宿服务相关
成都成都威廉古堡别墅(东洪路店),30.62312663136929,104.15052122567472,住宿服务;住宿服务相关;住宿服务相关
成都多树小筑公寓,30.62269403373333,104.11674790473657,住宿服务;住宿服务相关;住宿服务相关
成都温江巴洛克独栋别墅(分店),30.62169222375275,104.15280370839146,住宿服务;住宿服务相关;住宿服务相关
成都时尚佳缘轰趴别墅,30.621695269996138,104.15272470016932,住宿服务;住宿服务相关;住宿服务相关
成都凡尔赛别墅,30.620852406660504,104.15236941777157,住宿服务;住宿服务相关;住宿服务相关
觅觅花园,30.591259830009953,104.12838142192828,住宿服务;住宿服务相关;住宿服务相关
成都兰馨家庭公寓,30.63255121882581,104.1422531732904,住宿服务;住宿服务相关;住宿服务相关
成都悦哉民宿,30.58830424544526,104.13168639380193,住宿服务;住宿服务相关;住宿服务相关
成都桔子酒店,30.63419243321484,104.14336214655808,住宿服务;宾馆酒店;宾馆酒店
成都逸优之家公寓,30.610212876070705,104.12594839499975,住宿服务;宾馆酒店;宾馆酒店
成都开平普通公寓,30.608628196015463,104.12842926505927,住宿服务;住宿服务相关;住宿服务相关
成都青舍,30.6244878352044,104.1352697513093,住宿服务;住宿服务相关;住宿服务相关
成都爱家家庭公寓,30.610795137556313,104.14348653834425,住宿服务;住宿服务相关;住宿服务相关
平安公寓(成都火车东站店),30.633092744277434,104.14294653834996,住宿服务;旅馆招待所;旅馆招待所
成都三圣花乡家庭酒店式公寓,30.594428840102115,104.14975105754111,住宿服务;宾馆酒店;宾馆酒店
白天鹅公寓,30.633475293113797,104.14401212738244,住宿服务;旅馆招待所;旅馆招待所
洪才公寓(成都二号店),30.633832133399572,104.14192950859956,住宿服务;旅馆招待所;旅馆招待所
豪庭连锁主题公寓(成都火车东站店),30.63274931063809,104.14212191294797,住宿服务;住宿服务相关;住宿服务相关
成都博云精品民宿(和锦路店),30.63186585490215,104.1463413351221,住宿服务;住宿服务相关;住宿服务相关
忆成都民宿,30.631754370335447,104.15062478162939,住宿服务;旅馆招待所;旅馆招待所
成都小海家的全国连锁别墅桃花源店,30.621777646791458,104.15255461438646,住宿服务;住宿服务相关;住宿服务相关
成都百合民宿,30.606267754428128,104.1136597538501,住宿服务;旅馆招待所;旅馆招待所
成都温馨之家888普通公寓,30.633036276166997,104.14779396864031,住宿服务;住宿服务相关;住宿服务相关
成都星晨家庭公寓,30.635542081764726,104.14285131267225,住宿服务;住宿服务相关;住宿服务相关
成都小杨小杨特色民宿(万宇路分店),30.62923537937368,104.15417304325804,住宿服务;住宿服务相关;住宿服务相关
成都新城连锁公寓12号店,30.63448858454613,104.1443818334092,住宿服务;住宿服务相关;住宿服务相关
慢时光家庭公寓,30.634853629574597,104.1442763420022,住宿服务;住宿服务相关;住宿服务相关
成都小春子的公寓,30.60649567634546,104.11439175502278,住宿服务;住宿服务相关;住宿服务相关
成都壹个佳家住宿,30.62559751582209,104.1082942729144,住宿服务;住宿服务相关;住宿服务相关
成都百日公寓,30.603038304489633,104.14499706767413,住宿服务;住宿服务相关;住宿服务相关
成都沐木民宿华润凯旋天地店,30.615077153232207,104.12444660238674,住宿服务;住宿服务相关;住宿服务相关
成都熊猫民宿,30.631108093220025,104.14617825376632,住宿服务;旅馆招待所;旅馆招待所
成都清新小居公寓,30.632744483448818,104.10160739867953,住宿服务;住宿服务相关;住宿服务相关
成都洋洋酒店,30.63342507052208,104.14168101629954,住宿服务;宾馆酒店;宾馆酒店
成都伴你同行青年公寓,30.632329833839695,104.14278149165496,住宿服务;住宿服务相关;住宿服务相关
成都诚杰公寓,30.632723364055668,104.14169991375086,住宿服务;住宿服务相关;住宿服务相关
成都金河家庭旅馆,30.63246986143745,104.14657459764885,住宿服务;旅馆招待所;旅馆招待所
成都缘来公寓,30.63482535328309,104.1423162323577,住宿服务;旅馆招待所;旅馆招待所
成都涵香居公寓,30.6328211265536,104.14337191622337,住宿服务;住宿服务相关;住宿服务相关
成都唯美公寓,30.63396024519853,104.14321643908816,住宿服务;住宿服务相关;住宿服务相关
成都雨田公寓,30.63400225408326,104.14370142069014,住宿服务;住宿服务相关;住宿服务相关
成都菁英公寓,30.635507294467704,104.14417345874874,住宿服务;旅馆招待所;旅馆招待所
成都川师大温馨住宿,30.611558668917116,104.1141347087381,住宿服务;住宿服务相关;住宿服务相关
成都美宿美栖青年公寓,30.61048674437028,104.14084348089187,住宿服务;住宿服务相关;住宿服务相关
成都绿地住宿公寓,30.610563374514413,104.14424270380435,住宿服务;住宿服务相关;住宿服务相关
安逸家庭旅馆,30.607687155113794,104.14580698362725,住宿服务;住宿服务相关;住宿服务相关
洋猫客栈,30.603573010914452,104.14404991207319,住宿服务;旅馆招待所;旅馆招待所
舒心旅馆,30.609719528934846,104.12706770678977,住宿服务;旅馆招待所;旅馆招待所
成都胖哥商务公寓,30.608963859904776,104.128081104663,住宿服务;住宿服务相关;住宿服务相关
新松苑,30.612174978952133,104.11851778644136,住宿服务;宾馆酒店;宾馆酒店
鑫沁苑农家旅社,30.623999778066203,104.13770342601693,住宿服务;旅馆招待所;旅馆招待所
成都橙子酒店,30.60121080631788,104.13804973002031,住宿服务;住宿服务相关;住宿服务相关
大鼎戴斯大酒店婚宴,30.59981116967206,104.14166106236777,住宿服务;宾馆酒店;宾馆酒店
溪水边民宿(火车站店),30.608858696054174,104.12808614666199,住宿服务;住宿服务相关;住宿服务相关
成都澜庭小筑普通公寓,30.624237806780684,104.13530100165075,住宿服务;住宿服务相关;住宿服务相关
成都蜗牛君的公寓,30.609082246142034,104.12762701899403,住宿服务;住宿服务相关;住宿服务相关
成都兰泽居室普通公寓,30.601826472388915,104.13908976199477,住宿服务;住宿服务相关;住宿服务相关
成都四海逸家-花花的家普通公寓,30.602307241955117,104.13544142259418,住宿服务;住宿服务相关;住宿服务相关
成都遇见自己的家公寓,30.601780217085746,104.13738663225969,住宿服务;住宿服务相关;住宿服务相关
温馨家庭旅馆,30.601288477366527,104.13881778503155,住宿服务;住宿服务相关;住宿服务相关
成都佩奇普通公寓,30.61914968405214,104.12755391991917,住宿服务;住宿服务相关;住宿服务相关
成都快客家酒店,30.601148233715822,104.13931783363704,住宿服务;住宿服务相关;住宿服务相关
成都如家名人公寓东站店,30.633260400697527,104.1434583622321,住宿服务;宾馆酒店;经济型连锁酒店
成都黄女士公寓(牡丹街分店),30.601101806876933,104.1380137342578,住宿服务;住宿服务相关;住宿服务相关
佰家商务旅店,30.624958903887602,104.10367648701917,住宿服务;旅馆招待所;旅馆招待所
成都康帝酒店哦,30.62390041844952,104.12865578880151,住宿服务;住宿服务相关;住宿服务相关
香榭兰庭家短租公寓,30.627628601419026,104.13025604625074,住宿服务;旅馆招待所;旅馆招待所
成都诺亚方舟派对聚会别墅,30.62201541019902,104.15055725921775,住宿服务;住宿服务相关;住宿服务相关
7天酒店(火车东站凯德广场店),30.629123938393928,104.15397615843365,住宿服务;宾馆酒店;经济型连锁酒店
时尚快捷公寓,30.632405334969356,104.14253537828311,住宿服务;宾馆酒店;宾馆酒店
成都东站简约宜家风普通公寓,30.62763264525236,104.13019903707252,住宿服务;宾馆酒店;宾馆酒店
成都榕园宾馆,30.619714676099402,104.12054185656109,住宿服务;住宿服务相关;住宿服务相关
狮上青年旅店,30.61802883002474,104.11926907726463,住宿服务;旅馆招待所;旅馆招待所
川师大家兴住宿,30.618402121825092,104.11897276500336,住宿服务;旅馆招待所;旅馆招待所
成都梦幻公寓,30.618901791801292,104.11878735749768,住宿服务;住宿服务相关;住宿服务相关
鑫隆公寓,30.63407741125147,104.14202419609411,住宿服务;宾馆酒店;宾馆酒店
成都川师大青年公寓,30.616588052395535,104.12042123287668,住宿服务;宾馆酒店;宾馆酒店
龙翔客栈,30.618439009422694,104.15543760902824,住宿服务;旅馆招待所;旅馆招待所
轩尼诗概念公寓,30.63452634147704,104.1431526915869,住宿服务;宾馆酒店;宾馆酒店
成都蜀仙园休闲娱乐中心,30.5945928184144,104.13590904135741,住宿服务;住宿服务相关;住宿服务相关
宏达楼,30.630624428195244,104.11104990885394,住宿服务;住宿服务相关;住宿服务相关
比华利国际城(日租公寓),30.620659420360855,104.12387335328934,住宿服务;宾馆酒店;宾馆酒店
天府华宴大酒店,30.60315964987381,104.11737076867037,住宿服务;宾馆酒店;宾馆酒店
起点家庭公寓,30.63546460298811,104.1429554250229,住宿服务;宾馆酒店;宾馆酒店
成都998时尚酒店公寓,30.632500706306963,104.14281127914596,住宿服务;住宿服务相关;住宿服务相关
成都莲姐公寓住宿,30.63392153760697,104.14209940517289,住宿服务;住宿服务相关;住宿服务相关
榕园宾馆,30.61293774144067,104.12051754866674,住宿服务;住宿服务相关;住宿服务相关
路熙公寓,30.619550886075,104.12108903888613,住宿服务;住宿服务相关;住宿服务相关
凯仕威尔酒店,30.61224554199218,104.11085905101237,住宿服务;宾馆酒店;宾馆酒店
成都川师大旁日租公寓,30.610664049000036,104.1139151230891,住宿服务;宾馆酒店;宾馆酒店
今生缘主题公寓酒店,30.633175437903592,104.14237238924285,住宿服务;住宿服务相关;住宿服务相关
成都杨姐住宿嘉和园店,30.61979791096714,104.12064079667823,住宿服务;住宿服务相关;住宿服务相关
望江宾馆-茵梦苑,30.63132256267943,104.11184513659445,住宿服务;住宿服务相关;住宿服务相关
成都东站家家公寓,30.632452512930076,104.14268433022478,住宿服务;旅馆招待所;旅馆招待所
成都幸福之家公寓嘉和园店,30.618401118678463,104.11897276577893,住宿服务;住宿服务相关;住宿服务相关
毛毛主题公寓,30.63316940648699,104.14237139688737,住宿服务;宾馆酒店;宾馆酒店
成都懒人窝窝青年旅舍,30.629854301456284,104.14531969045977,住宿服务;住宿服务相关;住宿服务相关
成都佳洁住宿,30.618776194003534,104.11922449551513,住宿服务;住宿服务相关;住宿服务相关
小房子精品公寓,30.61967020993679,104.11901275785655,住宿服务;住宿服务相关;住宿服务相关
成都Amo别墅聚会轰趴,30.62201440648561,104.15055726012892,住宿服务;宾馆酒店;宾馆酒店
佳缘公寓(成都东方新城店),30.63254316663751,104.1422761851867,住宿服务;旅馆招待所;旅馆招待所
成都花语似朵别墅桃花源店,30.62215904863737,104.15032011162626,住宿服务;住宿服务相关;住宿服务相关
成都温馨家庭招待所,30.633420487794712,104.14292711656947,住宿服务;旅馆招待所;旅馆招待所
成都风尚精品公寓,30.632425578752756,104.1422253293686,住宿服务;住宿服务相关;住宿服务相关
成都新城东旅馆,30.632500672545188,104.14288628484559,住宿服务;住宿服务相关;住宿服务相关
萍萍公寓,30.633340012101346,104.14303522822063,住宿服务;旅馆招待所;旅馆招待所
成都・环贸广场,30.63406748929788,104.11057154728337,住宿服务;宾馆酒店;五星级宾馆
成都港庭主题酒店,30.632535177937264,104.14215818631331,住宿服务;住宿服务相关;住宿服务相关
成都心缘家庭公寓,30.63266083692907,104.14214802690886,住宿服务;住宿服务相关;住宿服务相关
成都东客驿栈(火车东站店),30.632458605002952,104.14254931235843,住宿服务;住宿服务相关;住宿服务相关
成都蓝乐主题公寓,30.632362883093695,104.14305347069065,住宿服务;住宿服务相关;住宿服务相关
成都来旺公寓,30.632544171416015,104.1422771839956,住宿服务;住宿服务相关;住宿服务相关
成都东站随心所寓公寓,30.632736489090156,104.14157388753321,住宿服务;住宿服务相关;住宿服务相关
68号驿站(成都火车东站店),30.632989414340887,104.14023646379012,住宿服务;住宿服务相关;住宿服务相关
好来屋(成都火车东站一店),30.632543166187304,104.14227718526304,住宿服务;住宿服务相关;住宿服务相关
爱尚198连锁公寓(成都东站店),30.632746413750112,104.14185789657162,住宿服务;住宿服务相关;住宿服务相关
成都众鑫家庭公寓,30.632365030335205,104.14274944507382,住宿服务;住宿服务相关;住宿服务相关
成都优Plus酒店公寓,30.632891332249127,104.14150168553554,住宿服务;住宿服务相关;住宿服务相关
成都和颐酒店(火车东站店),30.630372381429872,104.14855531288254,住宿服务;住宿服务相关;住宿服务相关
成都东站起跑线青年公寓,30.632397174005824,104.14280040855475,住宿服务;住宿服务相关;住宿服务相关
成都阳光家庭公寓,30.634637336601614,104.14228547940785,住宿服务;旅馆招待所;旅馆招待所
成都佳源公寓东站店,30.63271598687728,104.14245598046004,住宿服务;住宿服务相关;住宿服务相关
成都东站新东城公寓,30.632672853041964,104.1422520195975,住宿服务;住宿服务相关;住宿服务相关
成都奥里安娜,30.631204153433863,104.14712120576624,住宿服务;住宿服务相关;住宿服务相关
成都缘圆居,30.632751854984374,104.14316898881982,住宿服务;住宿服务相关;住宿服务相关
成都天际玩家别墅,30.622728878806885,104.15102863571023,住宿服务;住宿服务相关;住宿服务相关
格来家庭旅馆,30.6353124167571,104.14371268665447,住宿服务;旅馆招待所;旅馆招待所
巴中江北教育宾馆,30.617779187587015,104.16171952589818,住宿服务;宾馆酒店;宾馆酒店
成都小草青年旅舍,30.632542332042323,104.14189715747997,住宿服务;住宿服务相关;住宿服务相关
成都东客站佳好公寓二分店,30.633351461785463,104.1421671479169,住宿服务;住宿服务相关;住宿服务相关
成都梵1民宿,30.628202133381542,104.15284812936301,住宿服务;住宿服务相关;住宿服务相关
成都世家酒店,30.631821649216484,104.14629638660668,住宿服务;住宿服务相关;住宿服务相关
成都东站月悦公寓,30.632903643820683,104.14318279717035,住宿服务;住宿服务相关;住宿服务相关
成都如宾公寓,30.633207308411542,104.14303739863963,住宿服务;住宿服务相关;住宿服务相关
成都朴宿酒店式公寓(分店),30.633336533604297,104.14183014151698,住宿服务;住宿服务相关;住宿服务相关
阳光99公寓(成都东站店),30.632973965716076,104.14328871562591,住宿服务;住宿服务相关;住宿服务相关
成都市诚信公寓二店,30.63255724120222,104.14227316721066,住宿服务;旅馆招待所;旅馆招待所
成都东方新城市公寓,30.63366431505251,104.14174971263272,住宿服务;住宿服务相关;住宿服务相关
成都馨月公寓,30.633213646594356,104.14235733917454,住宿服务;住宿服务相关;住宿服务相关
家庭旅馆,30.63549006785233,104.14446450366403,住宿服务;旅馆招待所;旅馆招待所
成都天府丽都阳光公寓,30.633266651982918,104.14297131759199,住宿服务;住宿服务相关;住宿服务相关
成都有间民宿,30.633653222134807,104.14182473269719,住宿服务;住宿服务相关;住宿服务相关
成都小茶家庭公寓,30.63135810903333,104.14671698817939,住宿服务;宾馆酒店;宾馆酒店
成都爱家007公寓,30.633456244637095,104.1438941431129,住宿服务;住宿服务相关;住宿服务相关
成都三鑫公寓,30.633744798666804,104.14163159934523,住宿服务;住宿服务相关;住宿服务相关
成都市安家彩虹公寓,30.63369540243221,104.14192568574389,住宿服务;住宿服务相关;住宿服务相关
成都丽雅公寓,30.633245176307064,104.14377940581743,住宿服务;住宿服务相关;住宿服务相关
成都阿甘公寓,30.633624477397397,104.14314386964679,住宿服务;住宿服务相关;住宿服务相关
成都市花样年华公寓酒店,30.633747742715595,104.14179160769957,住宿服务;住宿服务相关;住宿服务相关
成都布加迪公寓,30.633857172361786,104.14214249220836,住宿服务;住宿服务相关;住宿服务相关
成都开心青年公寓,30.6338321189773,104.14196151104852,住宿服务;住宿服务相关;住宿服务相关
成都爱家温馨公寓,30.633863360257607,104.14179745796416,住宿服务;住宿服务相关;住宿服务相关
成都御龙豪华商务公寓,30.633767671996214,104.14218761190331,住宿服务;住宿服务相关;住宿服务相关
成都夕阳酒店公寓,30.633804932298357,104.14205255328338,住宿服务;住宿服务相关;住宿服务相关
成都东站尚品198主题公寓,30.633919538960082,104.14207240572786,住宿服务;住宿服务相关;住宿服务相关
成都市阳光舒适公寓,30.633893502961396,104.14184042201082,住宿服务;住宿服务相关;住宿服务相关
成都火车东站爱佳青年公寓,30.63390859396344,104.14181840069169,住宿服务;住宿服务相关;住宿服务相关
成都悦客公寓,30.633947720634882,104.14200536392643,住宿服务;住宿服务相关;住宿服务相关
美好时光家庭公寓,30.633872170448765,104.14232648664081,住宿服务;住宿服务相关;住宿服务相关
成都闺蜜青年旅舍,30.633797995051005,104.14182954535792,住宿服务;住宿服务相关;住宿服务相关
成都王子公寓,30.633532691074066,104.14380603793323,住宿服务;住宿服务相关;住宿服务相关
成都云端家庭公寓,30.633641235310428,104.14388390347317,住宿服务;住宿服务相关;住宿服务相关
成都市雅馨酒店公寓,30.63391841140937,104.14234342773482,住宿服务;住宿服务相关;住宿服务相关
郁金香快捷公寓,30.60404090690135,104.11346726352713,住宿服务;旅馆招待所;旅馆招待所
成都东方同城公寓,30.633355626303725,104.14408128659137,住宿服务;住宿服务相关;住宿服务相关
成都袁慧主题公寓,30.63388311945976,104.1425714909269,住宿服务;住宿服务相关;住宿服务相关
爱佳精品酒店公寓(火车东站店),30.633951559739646,104.14241038961647,住宿服务;住宿服务相关;住宿服务相关
成都谢氏公寓,30.63325981741955,104.14252129239429,住宿服务;住宿服务相关;住宿服务相关
成都市月牙儿精品主题公寓,30.63398875601736,104.14241934179498,住宿服务;住宿服务相关;住宿服务相关
东站爱家时尚公寓,30.63388094371105,104.14293752137759,住宿服务;住宿服务相关;住宿服务相关
祥云公寓,30.63377823558814,104.14328768121257,住宿服务;住宿服务相关;住宿服务相关
成都途奇公寓,30.633991789396006,104.14238133496221,住宿服务;住宿服务相关;住宿服务相关
成都市梦之蓝酒店式公寓,30.633959506138225,104.14262539551267,住宿服务;住宿服务相关;住宿服务相关
好来屋火车东站(二店),30.633512479642487,104.14180591314354,住宿服务;旅馆招待所;旅馆招待所
成都逸乐连锁公寓,30.633954233904493,104.14316944339002,住宿服务;住宿服务相关;住宿服务相关
成都宜美酒店式公寓,30.633845421688005,104.14367662310715,住宿服务;住宿服务相关;住宿服务相关
成都温馨小家旅馆,30.633984153422873,104.14370844482971,住宿服务;住宿服务相关;住宿服务相关
成都刘姐家庭旅馆,30.633990394574514,104.1432454019497,住宿服务;住宿服务相关;住宿服务相关
成都廖姐家庭旅馆,30.63383314380089,104.14414967443554,住宿服务;住宿服务相关;住宿服务相关
成都优品青年公寓,30.634046486748456,104.14371436391379,住宿服务;住宿服务相关;住宿服务相关
成都东郊记忆公寓,30.634309962697223,104.14360201032632,住宿服务;住宿服务相关;住宿服务相关
成都如家丽景酒店公寓,30.634134836549595,104.14399826963364,住宿服务;住宿服务相关;住宿服务相关
成都夏尔巴青年旅舍,30.635666206985743,104.14411823989664,住宿服务;住宿服务相关;住宿服务相关
成都市锦官城沙河畔旅馆,30.62583858665048,104.11489463259402,住宿服务;住宿服务相关;住宿服务相关
成都东客站凯德广场喜和居普通公寓,30.62963880819562,104.15305249693354,住宿服务;住宿服务相关;住宿服务相关
成都温馨雅居,30.634905619201582,104.14270715512849,住宿服务;住宿服务相关;住宿服务相关
成都东站瑞利逸家公寓,30.634714806372493,104.1444135365716,住宿服务;住宿服务相关;住宿服务相关
成都市熊猫酒店式公寓(火车东站东广场店),30.63498707685002,104.142687045055,住宿服务;住宿服务相关;住宿服务相关
成都妮子宜居普通公寓金润华府店,30.625990841107747,104.11355235120739,住宿服务;住宿服务相关;住宿服务相关
成都万科华府公寓,30.625992844351817,104.11356435020652,住宿服务;住宿服务相关;住宿服务相关
成都欢迎回家旅馆,30.635428382841898,104.14299647690991,住宿服务;住宿服务相关;住宿服务相关
成都市朗廷公寓,30.634935028926026,104.14438424168408,住宿服务;住宿服务相关;住宿服务相关
成都皇家公寓,30.635543087378014,104.1428513113146,住宿服务;住宿服务相关;住宿服务相关
成都摩玛新城极速小子公寓,30.632814341335873,104.14951437473695,住宿服务;住宿服务相关;住宿服务相关
成都极速小子普通公寓,30.632814341335873,104.14951437473695,住宿服务;住宿服务相关;住宿服务相关
成都坦丁堡别墅,30.620730083540078,104.15213050665079,住宿服务;住宿服务相关;住宿服务相关
成都一叶公寓,30.63495640543809,104.14380717012519,住宿服务;住宿服务相关;住宿服务相关
成都浪客居青年旅社,30.63567207334821,104.1444892595971,住宿服务;住宿服务相关;住宿服务相关
成都艾嘉酒店式公寓,30.621471507541386,104.10776418881193,住宿服务;住宿服务相关;住宿服务相关
成都如家酒店(火车东站店),30.63257153946437,104.15294592320657,住宿服务;住宿服务相关;住宿服务相关
成都怡情酒店,30.611597471503842,104.1102663318136,住宿服务;住宿服务相关;住宿服务相关
望江宾馆-金桂楼,30.632094071367614,104.11279227129604,住宿服务;住宿服务相关;住宿服务相关
成都么么哒奇艺屋普通公寓,30.63691305022469,104.10465715550407,住宿服务;住宿服务相关;住宿服务相关
成都万爱情侣主题酒店,30.592018605945288,104.15527675596965,住宿服务;住宿服务相关;住宿服务相关
安隅小院,30.590824130565576,104.12942034182045,住宿服务;住宿服务相关;住宿服务相关
成都云上休闲生活驿站,30.593858473272196,104.15432024003172,住宿服务;住宿服务相关;住宿服务相关
华英零租房,30.6327474871359,104.16182729008817,住宿服务;旅馆招待所;旅馆招待所
成都唐物民宿,30.588038085851927,104.14237110824783,住宿服务;住宿服务相关;住宿服务相关
成都幸福梅林秀梅园农家乐,30.58870951503836,104.1312935634112,住宿服务;住宿服务相关;住宿服务相关
长途客运商业街,30.62963120276337,104.13865844601035,住宿服务;宾馆酒店;宾馆酒店
艺宿里民宿酒店,30.59164324414535,104.15519161929596,住宿服务;住宿服务相关;住宿服务相关
客栈/青年旅社,30.597799205099502,104.10251756280113,住宿服务;旅馆招待所;青年旅舍
Habitat民宿,30.589931897039556,104.16063730643313,住宿服务;旅馆招待所;旅馆招待所
冯哥暂住,30.59241426149922,104.10313752950482,住宿服务;旅馆招待所;旅馆招待所
安岳商务会馆,30.621465486173175,104.10776319405952,住宿服务;住宿服务相关;住宿服务相关
嘉和暂住,30.59182305515099,104.10341835766187,住宿服务;旅馆招待所;旅馆招待所
成都东客站旁万达优质电梯二居室公寓,30.62559951444882,104.10831627291583,住宿服务;住宿服务相关;住宿服务相关
玉姐暂住点,30.592197103897924,104.10199334691458,住宿服务;旅馆招待所;旅馆招待所
吉祥暂住,30.592718690660252,104.1011794350936,住宿服务;旅馆招待所;旅馆招待所
光明暂住,30.59182482499732,104.10169319045578,住宿服务;旅馆招待所;旅馆招待所
张姐家庭旅馆,30.631780020804804,104.15841328124263,住宿服务;住宿服务相关;住宿服务相关
成都东站终点站青年公寓,30.632583371387284,104.14228613522803,住宿服务;住宿服务相关;住宿服务相关
甜甜驿站,30.618831448742483,104.1617567178217,住宿服务;住宿服务相关;住宿服务相关
青和,30.590436075221717,104.12889714140974,住宿服务;住宿服务相关;住宿服务相关
成都正兴泥鳅休闲庄,30.589414254106643,104.15992202906502,住宿服务;住宿服务相关;住宿服务相关
