name,lat,lng,type
中国银行网,30.680948530167303,104.05693367236744,公司企业;公司;网络科技
成都日报报业集团,30.66551745223542,104.08048717563705,公司企业;公司;公司
中铁二局集团测量中心,30.684137484276008,104.05141988407931,公司企业;公司;公司
二滩水电开发有限责任公司,30.661581639040726,104.09432304172675,公司企业;公司;公司
四川招投标网(永兴巷),30.665288466791168,104.07435296122355,公司企业;公司;网络科技
泰升通讯市场经营管理有限公司,30.666986331665765,104.07191744874159,公司企业;公司;公司
宏达通讯,30.670355287820044,104.0730880721921,公司企业;公司;公司
稻城亚丁专线,30.676379719184578,104.0525830723215,公司企业;公司;公司
成都建材集团,30.662369339458344,104.05456530820521,公司企业;公司;公司
银商(集团)有限公司四川分公司,30.65604349723375,104.06036862556664,公司企业;公司;公司
保利地产(临江西路),30.649732778427623,104.06111875202943,公司企业;公司;公司
成铁石化,30.687288026161823,104.06030385949738,公司企业;公司企业;公司企业
川渝中烟工业有限责任公司,30.666119203762726,104.0785678226632,公司企业;公司;公司
成都华宝空调售后服务,30.657771276725025,104.06773330586066,公司企业;公司;公司
信息产业电子第十一设计研究院科技工程股份有限公司,30.662862166545516,104.09347054931912,公司企业;公司;公司
中信(四川)控股有限公司,30.649732778427623,104.06111875202943,公司企业;公司;公司
广联达科技股份有限公司(人民中路三段),30.67912446740101,104.06525914443058,公司企业;公司;网络科技
四川启明星,30.658752421329293,104.06217589407873,公司企业;公司;公司
佳乐商贸(中国)有限公司,30.666834502978972,104.06891541425377,公司企业;公司;商业贸易
四川省投资集团公司,30.65183366938272,104.06591268450575,公司企业;公司;公司
网安科技(玉沙路),30.669828901675558,104.07963778997619,公司企业;公司;网络科技
TCL-罗格朗楼宇科技(惠州)有限公司,30.672514938098477,104.06696721173616,公司企业;公司;网络科技
北极绒,30.657771276725025,104.06773330586066,公司企业;公司;公司
LG空调(青岛)有限公司,30.65803818008852,104.05726465486539,公司企业;公司;公司
中国水电七局(解放路一段),30.686684885326244,104.07957710121623,公司企业;公司;公司
中国银行网,30.680948530167303,104.05693367236744,公司企业;公司;网络科技
成都日报报业集团,30.66551745223542,104.08048717563705,公司企业;公司;公司
中铁二局集团测量中心,30.684137484276008,104.05141988407931,公司企业;公司;公司
二滩水电开发有限责任公司,30.661581639040726,104.09432304172675,公司企业;公司;公司
四川招投标网(永兴巷),30.665288466791168,104.07435296122355,公司企业;公司;网络科技
泰升通讯市场经营管理有限公司,30.666986331665765,104.07191744874159,公司企业;公司;公司
宏达通讯,30.670355287820044,104.0730880721921,公司企业;公司;公司
稻城亚丁专线,30.676379719184578,104.0525830723215,公司企业;公司;公司
成都建材集团,30.662369339458344,104.05456530820521,公司企业;公司;公司
银商(集团)有限公司四川分公司,30.65604349723375,104.06036862556664,公司企业;公司;公司
保利地产(临江西路),30.649732778427623,104.06111875202943,公司企业;公司;公司
成铁石化,30.687288026161823,104.06030385949738,公司企业;公司企业;公司企业
川渝中烟工业有限责任公司,30.666119203762726,104.0785678226632,公司企业;公司;公司
成都华宝空调售后服务,30.657771276725025,104.06773330586066,公司企业;公司;公司
信息产业电子第十一设计研究院科技工程股份有限公司,30.662862166545516,104.09347054931912,公司企业;公司;公司
中信(四川)控股有限公司,30.649732778427623,104.06111875202943,公司企业;公司;公司
广联达科技股份有限公司(人民中路三段),30.67912446740101,104.06525914443058,公司企业;公司;网络科技
四川启明星,30.658752421329293,104.06217589407873,公司企业;公司;公司
佳乐商贸(中国)有限公司,30.666834502978972,104.06891541425377,公司企业;公司;商业贸易
四川省投资集团公司,30.65183366938272,104.06591268450575,公司企业;公司;公司
网安科技(玉沙路),30.669828901675558,104.07963778997619,公司企业;公司;网络科技
TCL-罗格朗楼宇科技(惠州)有限公司,30.672514938098477,104.06696721173616,公司企业;公司;网络科技
北极绒,30.657771276725025,104.06773330586066,公司企业;公司;公司
LG空调(青岛)有限公司,30.65803818008852,104.05726465486539,公司企业;公司;公司
中国水电七局(解放路一段),30.686684885326244,104.07957710121623,公司企业;公司;公司
East Flying&East Flying,30.649732778427623,104.06111875202943,公司企业;公司;公司
环绮化工(红星路三段),30.6600440017303,104.07612702869196,公司企业;公司;冶金化工
九龙仓,30.659928330633488,104.07778441962313,公司企业;公司;公司
成都尚业源酒店管理有限公司,30.672142004934095,104.06666390394791,公司企业;公司;公司
成都市国有资产投资经营公司,30.667168087228564,104.06704156869148,公司企业;公司;公司
四川准达信息技术有限公司,30.640677130135693,104.06377849713886,公司企业;公司;网络科技
四川省邮政电子商务局,30.665967585539953,104.07298051619635,政府机构及社会团体;政府机关;省直辖市级政府及事业单位|公司企业;公司;公司
四川美丰(东打铜街),30.672514938098477,104.06696721173616,公司企业;公司;公司
东胜创新生物科技有限公司(梨花街),30.657849422208006,104.06223755656033,公司企业;公司;网络科技
中国十九冶集团有限公司(人民中路),30.681865869380378,104.06794911700204,公司企业;公司;建筑公司
红云烟草(集团)有限责任公司,30.65803818008852,104.05726465486539,公司企业;公司;公司
华信科技(玉沙路),30.669828901675558,104.07963778997619,公司企业;公司;网络科技
东南融通(金盾路),30.65803818008852,104.05726465486539,公司企业;公司;公司
中铁财富,30.665385580916492,104.0565088108548,公司企业;公司;公司
成都印象电子有限公司,30.66603561198674,104.07195927583217,公司企业;公司;机械电子
新华书店集团文轩连锁有限责任公司,30.67162061624316,104.06685993908268,公司企业;公司;公司
成房置业有限公司,30.66876501717929,104.06081780389488,公司企业;公司;公司
四川开元集团(小天西街),30.637372697107732,104.05175691803687,公司企业;公司;公司
三勒浆药业集团,30.650197062643038,104.05898872547192,公司企业;公司;医药公司
信和置业(成都)有限公司,30.660492670661558,104.06716322496045,公司企业;公司;公司
司特尔(上海)国际贸易有限公司成都办事处,30.672514938098477,104.06696721173616,公司企业;公司;商业贸易
长丰通信,30.67898383081488,104.05572135394166,公司企业;公司;电信公司
浙江网盛生意宝股份有限公司(西御街),30.660544373867722,104.05791210123346,公司企业;公司;公司
豪特容积热水器(成都)有限责任公司,30.678709150256804,104.07765729395082,公司企业;公司;公司
东海粮油工业(张家港)有限公司成都分公司,30.65803818008852,104.05726465486539,公司企业;公司;公司
德国威娜,30.65490185075157,104.07345510911992,公司企业;公司;公司
伊藤忠株式会社,30.66297358064025,104.05363306396045,公司企业;公司;公司
金佰利(中国)有限公司,30.64882215315298,104.07899723110195,公司企业;公司;公司
成都市保安服务总公司,30.67162061624316,104.06685993908268,公司企业;公司;公司
中泰科技有限公司,30.668870073805458,104.09672538946327,公司企业;公司;网络科技
拜耳医药保健有限公司(金盾路),30.65803818008852,104.05726465486539,公司企业;公司;医药公司
成都市第一建筑工程公司,30.669788572721032,104.07963486775766,公司企业;公司;建筑公司
成都市医药总公司,30.666890970160573,104.09890541542786,公司企业;公司;医药公司
四川省第六建筑有限公司,30.67889670041787,104.07766292944436,公司企业;公司;建筑公司
伊莱克斯(中国)电器有限公司成都分公司,30.665821592414428,104.0575981006335,公司企业;公司;公司
成都市新筑路桥机械股份有限公司(洗面桥街),30.644379122159386,104.05225751948481,公司企业;公司;机械电子
讯尔软件(梨花街),30.657849422208006,104.06223755656033,公司企业;公司;网络科技
科信通讯,30.670355287820044,104.0730880721921,公司企业;公司;公司
卡西欧(上海)贸易有限公司成都分公司,30.660492670661558,104.06716322496045,公司企业;公司;商业贸易
中铁二局集团电务工程有限公司,30.686283265248548,104.0510497286617,公司企业;公司;公司
四川物资(集团)有限公司,30.662650738126846,104.06494994003098,公司企业;公司;公司
强生(中国)医疗器材有限公司,30.6600440017303,104.07612702869196,公司企业;公司;医药公司
晶讯科技(成都)有限公司,30.67765777157643,104.09389801522673,公司企业;公司;网络科技
雅天妮(北新街),30.661935329149717,104.07298416166664,公司企业;公司;公司
广东太阳神集团,30.66297358064025,104.05363306396045,公司企业;公司;公司
丽星邮轮(香港)有限公司,30.663515750746736,104.06898474927527,公司企业;公司;公司
四川省出入境服务中心有限公司,30.65803818008852,104.05726465486539,公司企业;公司;公司
博世力士乐(中国)有限公司成都代表处,30.672514938098477,104.06696721173616,公司企业;公司;公司
蜀都花园项目开发有限公司,30.64302144866657,104.0978995215798,公司企业;公司;公司
乐百氏(广东)食品饮料有限公司,30.652571677224024,104.06456225202383,公司企业;公司;公司
海韵电子,30.68106539428124,104.07396832055458,公司企业;公司;机械电子
万邦物业(正熙・国际)大厦管理中心,30.657628119389837,104.07434428410816,公司企业;公司;公司
飞亚达(集团)股份有限公司成都分公司,30.66360778946204,104.06618626858236,公司企业;公司;公司
衡平信托有限责任公司,30.66524539932573,104.05661809063824,公司企业;公司;公司
美赞臣营养品(中国)有限公司成都办事处,30.665821592414428,104.0575981006335,公司企业;公司;公司
伊丝艾拉,30.67732237112274,104.06137522427991,公司企业;公司;公司
中铁二十三局集团建筑设计研究院有限公司,30.671771911378883,104.0540102110076,公司企业;公司;建筑公司|科教文化服务;科研机构;科研机构
欧林办公家具,30.651789915020576,104.07121033936554,公司企业;公司;公司
百胜餐饮(成都)有限公司,30.6597527462612,104.06099591633284,公司企业;公司;公司
Simon电气(中国)成都办事处,30.656155567369716,104.07504203036022,公司企业;公司;公司
经天广告,30.651862390925864,104.09092328278734,公司企业;公司;广告装饰|生活服务;生活服务场所;生活服务场所
好丽友食品有限公司(千祥街),30.67732237112274,104.06137522427991,公司企业;公司;公司
四川经济网,30.68139983060233,104.05364542550909,公司企业;公司;网络科技
网联网,30.67642702808872,104.06754665122533,公司企业;公司;网络科技
TCL低压电器(无锡)有限公司,30.674793837459223,104.05624857980033,公司企业;公司;公司
成都建筑工程集团总公司,30.676171749077064,104.05521177596269,公司企业;公司;建筑公司
四川油气田信访办公室,30.678648478029267,104.08858454918469,政府机构及社会团体;政府机关;省直辖市级政府及事业单位|公司企业;公司;公司
四川省电影公司,30.659643212244777,104.06892699430648,公司企业;公司;公司
酩悦轩尼诗帝亚吉欧洋酒(上海)有限公司成都分公司,30.660492670661558,104.06716322496045,公司企业;公司;公司
颇尔过滤器(北京)有限公司成都办事处,30.6597527462612,104.06099591633284,公司企业;公司;公司
成都炎兴科技有限公司,30.67765777157643,104.09389801522673,公司企业;公司;网络科技
Giesecke&Devrient,30.657849422208006,104.06223755656033,公司企业;公司;公司
爱康网健康科技(北京)有限公司成都分公司,30.65803818008852,104.05726465486539,公司企业;公司;网络科技
大势管理顾问公司,30.64020844587403,104.07869681146319,公司企业;公司;公司
长城电信,30.63961887231509,104.07201996190231,公司企业;公司;电信公司
成都城北出口高速公路有限公司,30.644379122159386,104.05225751948481,公司企业;公司;公司
成都攀成钢工程技术有限公司,30.682058784352957,104.07567857883693,公司企业;公司;公司
四川航天金穗高技术有限公司,30.661705182377716,104.07584290002119,公司企业;公司;公司
四川君合律师网站,30.662862270179968,104.07601974311613,公司企业;公司;公司
博腾电子,30.668870073805458,104.09672538946327,公司企业;公司;机械电子
四川远大蜀阳药业有限公司,30.672514938098477,104.06696721173616,公司企业;公司;医药公司
成都阿杰形象设计有限公司,30.671647892457866,104.06887710671326,公司企业;公司;公司
四川省盐业总公司(顺城大街),30.666627163325686,104.06604549771832,公司企业;公司;公司
成都昆仑企业集团,30.668993776075762,104.09309978998917,公司企业;公司;公司
四川移动通信有限责任公司(西沟头巷),30.66349221821313,104.06972487444523,公司企业;公司;电信公司
四川省邮政分销业务局,30.665966578334604,104.07297851790794,公司企业;公司;公司
园丁控股,30.64923335590358,104.06523105166465,公司企业;公司;公司
成都高速公路建设开发有限公司,30.644379122159386,104.05225751948481,公司企业;公司;公司
成都市城市建设开发有限责任公司,30.663915401974233,104.07874304065216,公司企业;公司;建筑公司
隆建工程顾问有限公司,30.664492396440842,104.06721070268352,公司企业;公司;公司
鲍尔(四川)文化服务有限公司,30.66349221821313,104.06972487444523,公司企业;公司;公司
成都交通投资集团有限公司,30.644379122159386,104.05225751948481,公司企业;公司;公司
信德实业,30.651827251603986,104.0841306470459,公司企业;公司;公司
意都手机网,30.66349221821313,104.06972487444523,公司企业;公司;网络科技
联合利华(成都分公司),30.6597527462612,104.06099591633284,公司企业;公司;公司
清华同方知网(北京)技术有限公司四川办事处,30.6749140699133,104.05997976429555,公司企业;公司;网络科技
集成通讯,30.670355287820044,104.0730880721921,公司企业;公司;公司
美国摩恩(中国)有限公司,30.675327660361656,104.05540344356517,公司企业;公司;公司
中国西部电力网,30.6759984275249,104.07823763847331,公司企业;公司;网络科技
Raidy Boer,30.66265203114616,104.0707895766088,公司企业;公司;公司
五矿钢铁成都有限公司,30.672175447227332,104.05145013526086,公司企业;公司;冶金化工
艾欧史密斯(中国)热水器有限公司,30.673979804785507,104.08657744433353,公司企业;公司;公司
四川宝光药业股份有限公司,30.674793837459223,104.05624857980033,公司企业;公司;医药公司
力丰机床(上海)有限公司成都办事处,30.657849422208006,104.06223755656033,公司企业;公司;机械电子
川崎汽船(中国)有限公司成都办事处,30.672514938098477,104.06696721173616,公司企业;公司;公司
成都会展业发展办公室,30.657616310798527,104.06508829796422,公司企业;公司;公司
四川省易网科技有限公司,30.6759984275249,104.07823763847331,公司企业;公司;网络科技
湖南建工集团(天仙桥滨河路),30.65465677641934,104.08265952218798,公司企业;公司;建筑公司
四川东嘉(集团)有限公司(一环路东一段),30.67765777157643,104.09389801522673,公司企业;公司;公司
志达公司,30.6759984275249,104.07823763847331,公司企业;公司;公司
成都市第四建筑工程公司,30.657227826576726,104.07050759901274,公司企业;公司;建筑公司
达达娃,30.65230641858908,104.08047443251071,公司企业;公司;公司
成都华澳实业有限公司,30.667168087228564,104.06704156869148,公司企业;公司;公司
鑫锐广告(东城根上街),30.66693614858795,104.05647583876677,公司企业;公司;广告装饰
万可电子(天津)有限公司成都办事处,30.65579926817672,104.06119115697352,公司企业;公司;机械电子
欧姆龙(中国)有限公司四川办事处,30.672514938098477,104.06696721173616,公司企业;公司;公司
成都市冠臣科技发展有限公司,30.67457789191949,104.07140867718559,公司企业;公司;网络科技
圣戈班磨料磨具(上海)有限公司,30.675327660361656,104.05540344356517,公司企业;公司;公司
北京科蓝软件系统有限公司,30.6597527462612,104.06099591633284,公司企业;公司;网络科技
成都市天鑫洋金业有限责任公司(黉门街),30.649981586018946,104.05668383241846,公司企业;公司;公司
柯尼卡美能达办公系统(中国)有限公司成都分公司,30.6597527462612,104.06099591633284,公司企业;公司;公司
思科系统(中国)网络技术有限公司成都分公司,30.672514938098477,104.06696721173616,公司企业;公司;网络科技
成都精致人微软件技术有限公司,30.657849422208006,104.06223755656033,公司企业;公司;网络科技
中房集团(成都房地产开发总公司),30.67007119336993,104.06193140134337,公司企业;公司;公司
富士电机(上海)公司成办,30.66297358064025,104.05363306396045,公司企业;公司;机械电子
成都数梦软件有限公司,30.657849422208006,104.06223755656033,公司企业;公司;网络科技
成都首创新资置业有限公司,30.673979804785507,104.08657744433353,公司企业;公司;公司
中国项目开发中心,30.663515750746736,104.06898474927527,公司企业;公司;公司
西南国际广告公司,30.6759984275249,104.07823763847331,公司企业;公司;广告装饰
绿城房地产开发有限责任公司,30.67990713080852,104.07962917183296,公司企业;公司;建筑公司
新晔电子(香港)有限公司,30.64020844587403,104.07869681146319,公司企业;公司;机械电子
四川省第三建筑工程公司B区,30.676112358341967,104.09310994935247,公司企业;公司;建筑公司
锐衡洪业装饰,30.67088806434024,104.0743641758796,公司企业;公司;公司
成都桂湖防水保温工程有限公司(马鞍西路),30.68114443493989,104.07946875248084,公司企业;公司;公司
四川省晟茂建设有限公司,30.668614459550735,104.09357557022226,公司企业;公司;公司
久本科技(童子街),30.670355287820044,104.0730880721921,公司企业;公司;网络科技
拜耳作物科学(中国)有限公司成都办事处,30.654040732685637,104.07278456744734,公司企业;公司;公司
成都金海置业有限公司,30.649779913295834,104.07462515146995,公司企业;公司;公司
派睿电子成都,30.663515750746736,104.06898474927527,公司企业;公司;机械电子
中电西南进出口公司,30.674993630286576,104.0771374811042,公司企业;公司;商业贸易
四川川村中药材有限公司,30.677835063170413,104.0604451214446,公司企业;公司;医药公司
四川天翼网络服务有限公司,30.65803818008852,104.05726465486539,公司企业;公司;网络科技
同人华塑股份有限公司,30.657616310798527,104.06508829796422,公司企业;公司;公司
SEW-传动设备(天津)有限公司成都办事处,30.664492396440842,104.06721070268352,公司企业;公司;公司
中国联通,30.657612122558803,104.0546321359015,公司企业;公司;公司
八方好运,30.668536070665315,104.06097926385966,公司企业;公司;公司
成都来福士实业有限公司,30.660492670661558,104.06716322496045,公司企业;公司;公司
施耐德电气(中国)投资有限公司成都办事处,30.672514938098477,104.06696721173616,公司企业;公司;公司
四川桂溪商品混凝土有限公司,30.665821592414428,104.0575981006335,公司企业;公司;公司
四川新筑路业发展有限公司,30.644379122159386,104.05225751948481,公司企业;公司;公司
凌成科技(成都)有限公司,30.67765777157643,104.09389801522673,公司企业;公司;网络科技
腾鲁(四川)建筑安装工程有限公司,30.657849422208006,104.06223755656033,公司企业;公司;建筑公司
众腾科技有限公司成都总部,30.660544373867722,104.05791210123346,公司企业;公司;网络科技
昆明南天电脑系统有限公司,30.663515750746736,104.06898474927527,公司企业;公司;网络科技
成都华创科技发展有限公司,30.64020844587403,104.07869681146319,公司企业;公司;网络科技
上海美建钢结构有限公司,30.6600440017303,104.07612702869196,公司企业;公司;公司
成都润达电子有限公司,30.661220399953134,104.08006725541199,公司企业;公司;机械电子
成都盛大科技有限公司,30.64020844587403,104.07869681146319,公司企业;公司;网络科技
成都汉王科技公司,30.64020844587403,104.07869681146319,公司企业;公司;网络科技
恒兴业(成都)实业有限公司,30.663515750746736,104.06898474927527,公司企业;公司;公司
英华达(南京)科技有限公司成都办事处,30.66349221821313,104.06972487444523,公司企业;公司;网络科技
网联手机网(西沟头巷),30.66349221821313,104.06972487444523,公司企业;公司;网络科技
中核集团四川核工业服务局,30.637328189404,104.05889778991647,公司企业;公司;公司
达康建筑有限责任公司,30.664005077917878,104.07883187996539,公司企业;公司;建筑公司
中石装饰公司,30.64431016817625,104.05116250321949,公司企业;公司;公司
成都市场研究有限公司,30.668545377657914,104.0519622293253,公司企业;公司;公司
富通公司(玉双路),30.65852147068807,104.09279456698145,公司企业;公司;公司
成都东银信息技术有限公司,30.67765777157643,104.09389801522673,公司企业;公司;网络科技
四川惠华科技有限公司,30.666579486512962,104.07094612431214,公司企业;公司;网络科技
成都飞机工业公司进出口公司,30.66297358064025,104.05363306396045,公司企业;公司;商业贸易
雪佛龙(中国)投资有限公司成都分公司,30.663515750746736,104.06898474927527,公司企业;公司;公司
卜内门太古漆油(上海)有限公司成都办事处,30.65803818008852,104.05726465486539,公司企业;公司;公司
成都创新风险投资有限公司,30.672514938098477,104.06696721173616,公司企业;公司;公司
金太克电子,30.683249895155654,104.07506021097737,公司企业;公司;机械电子
四川省电力公司调度中心,30.658752421329293,104.06217589407873,公司企业;公司;公司
成都新艾普科技有限公司,30.682111499039934,104.0898229504214,公司企业;公司;网络科技
雨浓策划,30.674137527703405,104.06021930478937,公司企业;公司;公司
天朗电子,30.683249895155654,104.07506021097737,公司企业;公司;机械电子
四川同方,30.660544373867722,104.05791210123346,公司企业;公司;公司
英泰科技,30.637652260269295,104.08494515564679,公司企业;公司;公司
成都双安劳保用品有限公司,30.649329921887453,104.07856733231077,公司企业;公司;公司
中国知识商务网,30.665288466791168,104.07435296122355,公司企业;公司;网络科技
戴德梁行房地产咨询(成都)有限公司,30.660492670661558,104.06716322496045,公司企业;公司;公司
四川省电力公司建设管理中心,30.654524661426883,104.08728523615105,公司企业;公司;公司
成都兴泰科技有限公司,30.664583322375492,104.05607829079868,公司企业;公司;网络科技
TCL-罗格朗国际电工(惠州)有限公司成都办事处,30.672514938098477,104.06696721173616,公司企业;公司;公司
领行广告,30.654957853943337,104.08955869653445,公司企业;公司;广告装饰
成都欣至阳天实业有限公司,30.639524951364752,104.0771906546887,公司企业;公司;公司
成都华睿信息技术有限公司,30.660842710706508,104.05792654704976,公司企业;公司;网络科技
四川新华发行集团有限公司,30.6597527462612,104.06099591633284,公司企业;公司;公司
大连三洋制冷有限公司(东二道街),30.675327660361656,104.05540344356517,公司企业;公司;公司
北京特瑞鑫科技有限公司,30.676142412409405,104.08079562734547,公司企业;公司;网络科技
英思杰科技有限公司成都分公司,30.64020844587403,104.07869681146319,公司企业;公司;网络科技
西部经贸,30.65064689306349,104.09033931699798,公司企业;公司;商业贸易
成都市青羊区保安服务公司,30.66632578260608,104.05308962595436,公司企业;公司;公司
民生石油天然气勘察设计有限公司,30.671426730689888,104.0951832828068,公司企业;公司;冶金化工
乙佰科技,30.66936094909543,104.07349304128475,公司企业;公司;公司
成都宇修公共关系策划有限公司,30.67805228530442,104.0595575990625,公司企业;公司;公司
TRT化妆品,30.660544373867722,104.05791210123346,公司企业;公司;公司
长城宽带网络服务有限公司成都分公司,30.67162061624316,104.06685993908268,公司企业;公司;网络科技
罗氏诊断产品(上海)有限公司成都办事处,30.660492670661558,104.06716322496045,公司企业;公司;公司
摩讯网络科技有限公司,30.640677130135693,104.06377849713886,公司企业;公司;网络科技
成都蜀风科技有限公司,30.64302144866657,104.0978995215798,公司企业;公司;网络科技
中国石油物资成都公司,30.675385005760642,104.09170322645234,公司企业;公司;公司
四川省第一建筑工程公司(马鞍西路),30.680372815660057,104.08208852502074,公司企业;公司;建筑公司
安德鲁电信器材(中国)有限公司成都分公司,30.672514938098477,104.06696721173616,公司企业;公司;公司
成都盛宇科教设备有限公司,30.654209827545632,104.057961633618,公司企业;公司;公司
清华同方人工环境有限公司(解放路二段),30.685931978691166,104.07908048601354,公司企业;公司;公司
中国华西企业股份有限公司安装工程公司,30.68107718337136,104.08093503710589,公司企业;公司;公司
智联易才人力资源顾问有限公司,30.65339833818551,104.05680393668143,公司企业;公司;公司
四川鼎龙服饰有限责任公司,30.671426730689888,104.0951832828068,公司企业;公司;公司
杭州和利时自动化有限公司(西华门街),30.665821592414428,104.0575981006335,公司企业;公司;公司
爱乐体育用品(福建)有限公司,30.66784370720948,104.06677623990016,公司企业;公司;公司
兴达制冷,30.66959380122289,104.08001228454327,公司企业;公司;公司
神游科技(中国)有限公司成都办事处,30.64020844587403,104.07869681146319,公司企业;公司;网络科技
成都兴迪通讯设备有限公司,30.66349221821313,104.06972487444523,公司企业;公司;公司
中国石油川庆钻探工程公司,30.676328590142635,104.08792600307507,公司企业;公司;冶金化工
成都易和置业有限公司,30.683371220109322,104.05132234909172,公司企业;公司;公司
紫荷,30.657771276725025,104.06773330586066,公司企业;公司;公司
成都全景网络发展有限公司,30.64882215315298,104.07899723110195,公司企业;公司;网络科技
成都高赛尔金银有限公司,30.656001790890834,104.06121279493274,公司企业;公司;公司
楠宋瓷业,30.669828901675558,104.07963778997619,公司企业;公司;公司
航发液压,30.669828901675558,104.07963778997619,公司企业;公司;公司
中化国际(控股)股份有限公司成都办事处,30.664492396440842,104.06721070268352,公司企业;公司;公司
东丁字街民国建筑,30.65400883704208,104.06553483304965,公司企业;公司;公司
成都八建,30.67777785892862,104.08099646013812,公司企业;公司;建筑公司
北京大龙建设集团有限公司,30.652571677224024,104.06456225202383,公司企业;公司;建筑公司
中国农业生产资料成都公司,30.637928650043676,104.05243521269655,公司企业;公司;公司
成都文化旅游发展集团有限责任公司,30.644379122159386,104.05225751948481,公司企业;公司;公司
成都起东科技发展有限公司,30.661268709110008,104.07160126103953,公司企业;公司;网络科技
长运旅游车分公司,30.674993630286576,104.0771374811042,公司企业;公司;公司|生活服务;旅行社;旅行社
蓉盛达,30.687210165368622,104.07747987943459,公司企业;公司;商业贸易
四川舒卡特种纤维股份有限公司,30.6628940908292,104.07049908871707,公司企业;公司;公司
成都威尔消防工程有限责任公司,30.66524539932573,104.05661809063824,公司企业;公司;公司
四川红绵家纺有限公司,30.68106539428124,104.07396832055458,公司企业;公司;公司
成都龙翔通讯有限责任公司,30.66349221821313,104.06972487444523,公司企业;公司;公司
四川科工航天,30.668870073805458,104.09672538946327,公司企业;公司;公司
松乐投资,30.67898383081488,104.05572135394166,公司企业;公司;公司
四川新达信科技发展有限公司,30.66382122413272,104.056047734264,公司企业;公司;网络科技
赛菲尔(国际)珠宝成都办事处,30.657849422208006,104.06223755656033,公司企业;公司;公司
成都风扬实业有限公司,30.66349221821313,104.06972487444523,公司企业;公司;公司
成都市翼虎守护押运中心,30.659168855092968,104.09631072560684,公司企业;公司;公司
博思格钢铁(苏州)有限公司成都办事处,30.6597527462612,104.06099591633284,公司企业;公司;公司
成都工投园区建设投资有限公司,30.667168087228564,104.06704156869148,公司企业;公司;公司
北京世华国际金融信息有限公司,30.67162061624316,104.06685993908268,公司企业;公司;公司
成都市路桥工程股份有限公司(洗面桥街),30.644379122159386,104.05225751948481,公司企业;公司;公司
成都蜀信实业有限公司,30.665821592414428,104.0575981006335,公司企业;公司;公司
罗德与施瓦茨贸易有限公司成都分公司,30.672514938098477,104.06696721173616,公司企业;公司;商业贸易
默洛尼卫生洁具(中国)有限公司分公司,30.673979804785507,104.08657744433353,公司企业;公司;公司
禾创药业集团,30.66479543483327,104.0530675461203,公司企业;公司;医药公司
四川省纺织品进出口公司(江汉路),30.67805228530442,104.0595575990625,公司企业;公司;商业贸易
四川恒达生物制品有限公司,30.649123702025125,104.05843747937793,公司企业;公司;公司
成都华成股份有限公司,30.663913387257384,104.07874004415557,公司企业;公司;公司
四川省卷烟销售公司,30.672175447227332,104.05145013526086,公司企业;公司;公司
成都蓝雷科技有限公司,30.640677130135693,104.06377849713886,公司企业;公司;网络科技
四川米仓山茶业,30.653895122520872,104.05225154427184,公司企业;公司;公司
西马科技,30.668870073805458,104.09672538946327,公司企业;公司;网络科技
友友通讯,30.670355287820044,104.0730880721921,公司企业;公司;公司
康赛电子科大信息技术有限责任公司,30.67765777157643,104.09389801522673,公司企业;公司;网络科技
微迪数字技术有限公司,30.647870625546673,104.07876879188296,公司企业;公司;公司
四川联群投资有限公司,30.672514938098477,104.06696721173616,公司企业;公司;公司
成都巨巢企业管理顾问有限公司,30.660544373867722,104.05791210123346,公司企业;公司;公司
哈里伯顿(天津)能源服务公司,30.673979804785507,104.08657744433353,公司企业;公司;公司
成都和中科技有限公司,30.64020844587403,104.07869681146319,公司企业;公司;网络科技
成都王者天下酒业有限公司,30.681773574664685,104.0880074197443,公司企业;公司;公司
一建物业公司,30.669828901675558,104.07963778997619,公司企业;公司;公司
四川国虹信息产业股份有限公司,30.6759984275249,104.07823763847331,公司企业;公司;公司
兴鑫建设工程项目管理有限公司,30.666834502978972,104.06891541425377,公司企业;公司;公司
爱宠工作室,30.66691877293843,104.0762210405135,公司企业;公司;公司
太平洋化妆品公司,30.657849422208006,104.06223755656033,公司企业;公司;公司
成都国星科技有限公司,30.665382951875984,104.09857427009383,公司企业;公司;网络科技
中国水电五局人力资源部,30.65064689306349,104.09033931699798,公司企业;公司;公司
成都华日通讯技术有限公司,30.64020844587403,104.07869681146319,公司企业;公司;公司
四川瓦屋山旅游开发有限公司,30.672514938098477,104.06696721173616,公司企业;公司;公司
成都商报发行投递广告有限公司,30.661220399953134,104.08006725541199,公司企业;公司;广告装饰
成都中联信通科技有限公司,30.67765777157643,104.09389801522673,公司企业;公司;电信公司
四川省精密机床设备厂,30.652944318075022,104.09086439114895,公司企业;工厂;工厂
成都慧人管理咨询科技有限公司,30.654209827545632,104.057961633618,公司企业;公司;网络科技
四川大地实业集团有限公司,30.657816319703734,104.06622805837584,公司企业;公司;公司
成都华西化工科技股份有限公司,30.683371220109322,104.05132234909172,公司企业;公司;冶金化工|公司企业;公司;网络科技
四川星浩置业有限公司,30.649732778427623,104.06111875202943,公司企业;公司;公司
成都市新都建华香油厂,30.68720083738206,104.06130213657151,公司企业;公司;公司
史赛克(北京)医疗器械有限公司成都分公司,30.672514938098477,104.06696721173616,公司企业;公司;医药公司
成都文旅营销管理有限责任公司,30.644379122159386,104.05225751948481,公司企业;公司;公司
开元房地产开发有限责任公司,30.671233101342885,104.06542353399442,公司企业;公司;公司
日立数字映像(中国)有限公司成都分公司,30.672514938098477,104.06696721173616,公司企业;公司;公司
浙江浙大中控技术有限公司,30.663515750746736,104.06898474927527,公司企业;公司;公司
约克国际(北亚)有限公司,30.672514938098477,104.06696721173616,公司企业;公司;公司
今日广告(太升北路),30.67633558339429,104.0795841232513,公司企业;公司;广告装饰|生活服务;生活服务场所;生活服务场所
西克制冷(无锡)有限公司成都分公司,30.660492670661558,104.06716322496045,公司企业;公司;公司
成都蓝码科技发展有限公司,30.67765777157643,104.09389801522673,公司企业;公司;网络科技
九鼎天元知识产权代理公司,30.64431016817625,104.05116250321949,公司企业;公司;公司
中国石油四川销售公司(鼓楼南街),30.665840834907424,104.06596999525311,公司企业;公司;冶金化工
麒麟鲲鹏(中国)生物药业有限公司成都事务所,30.65803818008852,104.05726465486539,公司企业;公司;医药公司
四川全球通广告有限公司,30.653908465906355,104.08209179074605,公司企业;公司;广告装饰
成都五兴物业管理有限公司,30.65064689306349,104.09033931699798,公司企业;公司;公司
四川非亚实业有限公司,30.661220399953134,104.08006725541199,公司企业;公司;公司
成都都江堰市防火材料厂(驻成办),30.66406556958929,104.06593337309107,公司企业;公司;公司
中国中材成都建材院有限公司,30.66618433413057,104.0944403296656,公司企业;公司;公司
成都青羊可达房屋开发有限公司,30.672514938098477,104.06696721173616,公司企业;公司;公司
东莞银辉玩具有限公司(西御街),30.660544373867722,104.05791210123346,公司企业;公司;公司
金益达电子计算机有限公司,30.638918557597943,104.07219399768103,公司企业;公司;网络科技
深圳市黄河数字技术有限公司,30.64020844587403,104.07869681146319,公司企业;公司;公司
四川瑞信物业管理有限公司,30.665821592414428,104.0575981006335,公司企业;公司;公司
成都网威信息技术有限公司,30.67765777157643,104.09389801522673,公司企业;公司;网络科技
成华机电,30.65064689306349,104.09033931699798,公司企业;公司;机械电子
挪度医疗器械(杭州)有限公司成都办事处,30.672514938098477,104.06696721173616,公司企业;公司;医药公司
成都拓创,30.65064689306349,104.09033931699798,公司企业;公司;公司
凯士比(中国)西部销售中心,30.649732778427623,104.06111875202943,公司企业;公司;公司
重庆铂码工程造价咨询有限公司,30.678709150256804,104.07765729395082,公司企业;公司;建筑公司
中国电子器材深圳有限公司(梨花街),30.657849422208006,104.06223755656033,公司企业;公司;机械电子
万豪房产经纪有限公司,30.671897379500866,104.06158281798947,公司企业;公司;公司
成都高航贸易服务有限公司,30.67898383081488,104.05572135394166,公司企业;公司;商业贸易
中铁二局成都工程有限公司,30.68720083738206,104.06130213657151,公司企业;公司;公司
西部汇源矿业,30.67477771619375,104.05622260830046,公司企业;公司;矿产公司
四川蜀都大厦有限责任公司,30.6628940908292,104.07049908871707,公司企业;公司;广告装饰
成都蓝天喷绘有限责任公司,30.67642702808872,104.06754665122533,公司企业;公司;公司
成都绿之艺园林景观工程有限公司,30.674993630286576,104.0771374811042,公司企业;公司;公司
成都赤晓彩钢房屋有限公司,30.67062740909582,104.07545979891957,公司企业;公司;公司
馥鸿科技实业(深圳)有限公司(成都办事处),30.676379719184578,104.0525830723215,公司企业;公司;网络科技
威图电子机械技术(上海)有限公司成都办事处,30.663515750746736,104.06898474927527,公司企业;公司;机械电子
四川省名扬建设工程监理有限公司,30.66798731897765,104.06583285960407,公司企业;公司;建筑公司
四川博瑞书坊文化有限公司,30.661220399953134,104.08006725541199,公司企业;公司;公司
泰科(北京)安装工程有限公司成都分公司,30.672514938098477,104.06696721173616,公司企业;公司;公司
成都摩恩科技有限公司,30.66349221821313,104.06972487444523,公司企业;公司;网络科技
四川王者通信有限公司,30.66603561198674,104.07195927583217,公司企业;公司;电信公司
上海帕科,30.666834502978972,104.06891541425377,公司企业;公司;公司
中国国电集团公司川渝分公司,30.661581639040726,104.09432304172675,公司企业;公司;公司
成都海粟科技有限公司,30.670234720317346,104.06792674572502,公司企业;公司;网络科技
中国轻工业成都设计工程有限公司(少城路),30.662379310981567,104.05479631561356,公司企业;公司;公司
香港企业注册登记服务中心,30.657849422208006,104.06223755656033,公司企业;公司;公司
四川仁邦环保科技有限公司,30.66430878657243,104.06750408376908,公司企业;公司;公司
成都平大机械有限公司,30.65803818008852,104.05726465486539,公司企业;公司;机械电子
成都卓亚科技有限公司,30.664461510130508,104.07072514471314,公司企业;公司;网络科技
四川川咨建设工程咨询有限责任公司,30.67099721233927,104.07596013474627,公司企业;公司;建筑公司
成都顶呱呱科技有限公司,30.657849422208006,104.06223755656033,公司企业;公司;网络科技
重庆第一市政工程,30.669828901675558,104.07963778997619,公司企业;公司;公司
巨星新型材料,30.669828901675558,104.07963778997619,公司企业;公司;公司
四川大盛广告有限公司,30.67642702808872,104.06754665122533,公司企业;公司;广告装饰
上南房产(人民中路二段),30.671897379500866,104.06158281798947,公司企业;公司;公司
塞尔瑟斯(四川)电力自动化工程公司,30.66382122413272,104.056047734264,公司企业;公司;公司
四川华雁信息产业股份有限公司,30.639524951364752,104.0771906546887,公司企业;公司;公司
成都市德新建材有限公司,30.66297358064025,104.05363306396045,公司企业;公司;公司
四川电力实业总公司物资设备分公司,30.654040732685637,104.07278456744734,公司企业;公司;公司
贵州汇通华城楼宇科技有限公司(少城路),30.66297358064025,104.05363306396045,公司企业;公司;公司
上海和祥医疗器械有限公司,30.67162061624316,104.06685993908268,公司企业;公司;医药公司
四川省外国企业服务有限责任公司,30.664492396440842,104.06721070268352,公司企业;公司;公司
四川省农业厅印刷所,30.646577606829982,104.05285606175305,公司企业;公司;公司
四川省智达建筑工程有限责任公司,30.661220399953134,104.08006725541199,公司企业;公司;建筑公司
山东奇威特人工环境有限公司,30.657849422208006,104.06223755656033,公司企业;公司;公司
佛山市南海大沣实业有限公司(走马街),30.656455541714656,104.07136509254191,公司企业;公司;公司
成都新路电脑有限责任公司,30.652571677224024,104.06456225202383,公司企业;公司;机械电子
成都智宇,30.668536070665315,104.06097926385966,公司企业;公司;公司
四川德恩进出口有限公司,30.6600440017303,104.07612702869196,公司企业;公司;商业贸易
金艺设计,30.65488836115298,104.08298014286817,公司企业;公司;广告装饰|生活服务;生活服务场所;生活服务场所
四川天微电子有限责任公司(一环路东一段),30.67765777157643,104.09389801522673,公司企业;公司;机械电子
世纪之星经济文化发展有限公司,30.6724108706366,104.0716619255307,公司企业;公司;公司
四川英菲利特科技有限公司,30.65852147068807,104.09279456698145,公司企业;公司;网络科技
魏德米勒电联接国际贸易(上海)有限公司成都办事处,30.672514938098477,104.06696721173616,公司企业;公司;商业贸易
成蓉物业,30.682449650877338,104.07432767816776,公司企业;公司;公司
成都道兴科技有限公司,30.674137527703405,104.06021930478937,公司企业;公司;网络科技
成都奥特为科技有限公司,30.67765777157643,104.09389801522673,公司企业;公司;网络科技
锦诚兴业商贸有限公司(梨花街),30.657849422208006,104.06223755656033,公司企业;公司;商业贸易
贝朗医疗(上海)国际贸易有限公司成都办事处,30.672514938098477,104.06696721173616,公司企业;公司;医药公司
新鑫矿业有限公司(人民北路一段),30.684659712295424,104.06829076498813,公司企业;公司;矿产公司
松乐置业,30.67898383081488,104.05572135394166,公司企业;公司;公司
四川省工业设备安装有限公司,30.677016854398886,104.06345205042459,公司企业;公司;公司
上海三菱电梯有限公司四川分公司,30.6597527462612,104.06099591633284,公司企业;公司;公司
四川创智投资咨询有限公司,30.663514053647173,104.06615844295209,公司企业;公司;公司
e点科技,30.669328728051536,104.0734020938201,公司企业;公司;公司
雷尼绍(上海)贸易有限公司成都办事处,30.664492396440842,104.06721070268352,公司企业;公司;商业贸易
盛扬半导体(上海)有限公司成都分公司,30.656155567369716,104.07504203036022,公司企业;公司;公司
攀成钢销售公司,30.665382951875984,104.09857427009383,公司企业;公司;公司
四川卫盾电子科技有限公司,30.683249895155654,104.07506021097737,公司企业;公司;机械电子
科力达公司,30.66959380122289,104.08001228454327,公司企业;公司;公司
成都市岷江房地产开发总公司,30.671233101342885,104.06542353399442,公司企业;公司;公司
海尔集团四川办事处,30.66589270419846,104.0800044076799,公司企业;公司;公司
四川和维医药管理咨询有限公司,30.645029696930756,104.05169742348902,公司企业;公司;医药公司
华勋实业,30.662428590834,104.07652561415509,公司企业;公司;公司
普来国际贸易有限公司,30.664492396440842,104.06721070268352,公司企业;公司;商业贸易
成都美晨贸易有限公司,30.660842710706508,104.05792654704976,公司企业;公司;商业贸易
成都兴旺动物药业有限公司,30.640677130135693,104.06377849713886,公司企业;公司;医药公司
四川亿赛建设工程有限公司,30.671233101342885,104.06542353399442,公司企业;公司;建筑公司
成都雅图办公系统有限公司,30.67912446740101,104.06525914443058,公司企业;公司;公司
明英科技,30.67636705893136,104.07489356362667,公司企业;公司;网络科技
中油天能,30.67307531736326,104.07811432298018,公司企业;公司;冶金化工
成都音和娜网络服务有限公司,30.65604349723375,104.06036862556664,公司企业;公司;网络科技
四川远翔物流有限公司,30.673296094330656,104.07396045000586,公司企业;公司;公司
成都南方电子仪表有限公司,30.674993630286576,104.0771374811042,公司企业;公司;公司
中国石油天然气运输公司四川分公司,30.667168087228564,104.06704156869148,公司企业;公司;公司
中国铁路物资成都有限公司,30.674944746867013,104.05696936680704,公司企业;公司;公司
成都西蜀天地商贸有限公司,30.657816319703734,104.06622805837584,公司企业;公司;商业贸易
顺兴工艺首饰包装,30.657849422208006,104.06223755656033,公司企业;公司;公司
博雅公共关系有限公司(东打铜街),30.672514938098477,104.06696721173616,公司企业;公司;公司
华嘉食品公司,30.65064689306349,104.09033931699798,公司企业;公司;公司
中国四川国际合作股份有限公司(提督街),30.664492396440842,104.06721070268352,公司企业;公司;公司
商谋子创业俱乐部,30.660842710706508,104.05792654704976,公司企业;公司;公司
四川省通信股份有限公司,30.665382951875984,104.09857427009383,公司企业;公司;电信公司
盛兴广告(白家塘街),30.677501639375258,104.06605739290848,公司企业;公司;广告装饰
成都西南石油装备(集团)有限公司,30.66360778946204,104.06618626858236,公司企业;公司;公司
方圆地基基础工程有限责任公司,30.64302144866657,104.0978995215798,公司企业;公司;公司
南亿智能楼宇门禁停车场系统,30.638864616475555,104.06475226064397,公司企业;公司;公司
成都亚细亚集创科技有限公司,30.676379719184578,104.0525830723215,公司企业;公司;网络科技
四川华建项目管理公司,30.667168087228564,104.06704156869148,公司企业;公司;公司
成都敏洪食品机械有限公司,30.64020844587403,104.07869681146319,公司企业;公司;机械电子
成都春熙汇酒店公寓,30.660085767025542,104.075179849957,住宿服务;宾馆酒店;宾馆酒店|公司企业;公司;公司
兰周花卉园艺公司,30.652962143589438,104.06543166510299,公司企业;公司;公司
四川启明星房地产开发有限公司,30.654040732685637,104.07278456744734,公司企业;公司;公司
国栋酒店自助餐厅,30.657876969021956,104.05719894229784,餐饮服务;中餐厅;中餐厅|公司企业;公司企业;公司企业
中国石化,30.683108870189624,104.08528155788811,公司企业;知名企业;知名企业
贝加莱工业自动化(上海)有限公司成都办事处,30.6600440017303,104.07612702869196,公司企业;公司;公司
成都五行科技发展有限公司,30.667059042451488,104.09737894297147,公司企业;公司;网络科技
成都捷成摄影器材贸易有限公司,30.664005077917878,104.07883187996539,公司企业;公司;商业贸易
cbi(成都办事处),30.64020844587403,104.07869681146319,公司企业;公司;公司
知音商贸有限公司,30.643729206938243,104.07775635611138,公司企业;公司;公司
四川省五金矿产进出口公司(同福巷),30.671478329494978,104.06497800855949,公司企业;公司;矿产公司|公司企业;公司;商业贸易
成都御仙堂健康管理咨询有限公司,30.673795878989665,104.05560545227867,公司企业;公司;公司
成都青鹏网络技术有限公司,30.66349221821313,104.06972487444523,公司企业;公司;网络科技
四川万网网络科技有限公司,30.665288466791168,104.07435296122355,公司企业;公司;网络科技
四川华景国贸实业有限责任公司,30.6600440017303,104.07612702869196,公司企业;公司;商业贸易
美意(上海)空调公司四川办,30.657849422208006,104.06223755656033,公司企业;公司;公司
中国电信(呼叫外包服务中心),30.666069524465946,104.10063715873372,公司企业;公司;电信公司
四川省农副产品加工技术开发公司成都分公司,30.67298252015054,104.06755636618465,公司企业;公司;公司
摩根热陶瓷国际贸易(上海)有限公司,30.663515750746736,104.06898474927527,公司企业;公司;商业贸易
珍熙哲,30.657771276725025,104.06773330586066,公司企业;公司;公司
成都景顺房地产开发有限公司,30.65803818008852,104.05726465486539,公司企业;公司;公司
中国大恒(集团)OA部西南办事处,30.64020844587403,104.07869681146319,公司企业;公司;公司
成都世展贸易策划有限公司,30.6759984275249,104.07823763847331,公司企业;公司;商业贸易
四川省华鼎建设有限责任公司,30.674993630286576,104.0771374811042,公司企业;公司;公司
希望华西建设工程总承包有限公司,30.67711271210487,104.06120761429791,公司企业;公司;建筑公司
成都长宇贸易有限公司,30.656455541714656,104.07136509254191,公司企业;公司;商业贸易
四川鼎盛科技有限公司,30.661220399953134,104.08006725541199,公司企业;公司;网络科技
成都兆益科技发展有限责任公司,30.65852147068807,104.09279456698145,公司企业;公司;网络科技
熠晖冶金集团有限责任公司,30.645029696930756,104.05169742348902,公司企业;公司;冶金化工
中国电信四川公司,30.654910254623157,104.05538709733473,公司企业;公司;电信公司
四川远东科能电气工程有限公司,30.653908465906355,104.08209179074605,公司企业;公司;机械电子
盈达服饰,30.657771276725025,104.06773330586066,公司企业;公司;公司
天华建筑,30.656749969193378,104.06230956538562,公司企业;公司企业;公司企业
成都市永创科技发展有限公司,30.67765777157643,104.09389801522673,公司企业;公司;网络科技
成都蓝宇泽秀服饰有限责任公司,30.65616909977358,104.06545096331789,公司企业;公司;公司
牙宝医疗器材有限公司,30.663469208020942,104.05433520709697,公司企业;公司;公司
四川省国光机械进出口有限公司,30.671478329494978,104.06497800855949,公司企业;公司;商业贸易
顶新集团,30.656136176801116,104.060418464091,公司企业;公司;公司
群丽集团,30.65664622929922,104.0708516918642,公司企业;公司;公司
成都希威房地产开发有限公司,30.672514938098477,104.06696721173616,公司企业;公司;公司
欧姆龙电子部件贸易(上海)有限公司成都办事处,30.663515750746736,104.06898474927527,公司企业;公司;商业贸易
四川聚隆通信有限公司,30.640677130135693,104.06377849713886,公司企业;公司;电信公司
Swifttrade Inc.Chengdu Branch,30.640677130135693,104.06377849713886,公司企业;公司;商业贸易
成都居艺空间商贸有限公司,30.673405344968423,104.06897369762687,公司企业;公司;商业贸易
四川省机械设备进出口有限责任公司,30.65604349723375,104.06036862556664,公司企业;公司;商业贸易
成都金典屋宇商业管理有限公司,30.648646257822527,104.08919058465098,公司企业;公司;公司
阳光华苑项目部,30.664005077917878,104.07883187996539,公司企业;公司;公司
成都倍科科技有限公司,30.672514938098477,104.06696721173616,公司企业;公司;网络科技
欣思图广告,30.671980753131706,104.08565524129827,公司企业;公司;广告装饰
成都力美互动广告有限公司,30.660544373867722,104.05791210123346,公司企业;公司;广告装饰
成都艺妙电声设备,30.684682475673107,104.07336727154204,公司企业;公司;公司
四川正好科技发展有限公司,30.647642298180333,104.07166240804666,公司企业;公司;网络科技
56sing原创音乐基地,30.649348434054364,104.05159332562864,公司企业;公司;公司
成都西南北新建材有限公司,30.683371220109322,104.05132234909172,公司企业;公司;公司
成都博赛宇飞科技有限公司,30.660090206181447,104.08726210864882,公司企业;公司;网络科技
四川省新立新进出口有限责任公司,30.678052272867024,104.05958360199529,公司企业;公司;商业贸易
山东骏马石油设备制造集团,30.664492396440842,104.06721070268352,公司企业;公司;公司
成都泰辰科技有限公司,30.65852147068807,104.09279456698145,公司企业;公司;网络科技
秀秀工作室,30.65929222139941,104.07596140256523,公司企业;公司;公司
四川省邮政保险代理局,30.665966578334604,104.07297851790794,公司企业;公司;公司
上海富田空调冷冻设备有限公司(游乐园滨河路),30.673979804785507,104.08657744433353,公司企业;公司;公司
盛果网络,30.64962056882681,104.08819184416811,公司企业;公司;公司
成都圣地亚实业有限公司,30.67162061624316,104.06685993908268,公司企业;公司;公司
四川西星电力科技咨询开发公司,30.658752421329293,104.06217589407873,公司企业;公司;网络科技
成都东亚科技发展有限公司,30.65852147068807,104.09279456698145,公司企业;公司;网络科技
四川大地酒业发展有限公司,30.657816319703734,104.06622805837584,公司企业;公司;公司
动点企业管理咨询有限公司(西沟头巷),30.66349221821313,104.06972487444523,公司企业;公司;公司
天津五八到家生活服务有限公司,30.64882215315298,104.07899723110195,公司企业;公司;公司
中铁二局建筑安装工程有限公司,30.684179727098634,104.05163882776773,公司企业;公司;建筑公司
中国东方航空(西御街),30.660415048799123,104.05858041691289,公司企业;公司;公司
成都速达航空票务有限公司,30.687398750471196,104.07737250959083,公司企业;公司;公司
成都中百移动通信设备有限公司,30.67062740909582,104.07545979891957,公司企业;公司;公司
四川升达林业产业股份有限公司(东华正街),30.66406556958929,104.06593337309107,公司企业;公司;公司
成都西臣影音有限公司,30.67877828086582,104.07859025817342,公司企业;公司;公司
成都中益空调工程有限公司,30.66589270419846,104.0800044076799,公司企业;公司;公司
成都佳益物业开发有限公司,30.674993630286576,104.0771374811042,公司企业;公司;公司
月佑成都科技有限公司,30.663535678418125,104.06948176573121,公司企业;公司;公司
太阳计算机系统(中国)有限公司成都分公司,30.65579926817672,104.06119115697352,公司企业;公司;网络科技
新华广告(青石桥北街),30.658102653234476,104.06810774086384,公司企业;公司;广告装饰|生活服务;生活服务场所;生活服务场所
中铁二局集团成都岩土工程有限公司,30.68394192193683,104.05132124922902,公司企业;公司;公司
思迈建筑咨询(上海)有限公司,30.674137527703405,104.06021930478937,公司企业;公司;建筑公司
四川先锋电子有限公司,30.661220399953134,104.08006725541199,公司企业;公司;机械电子
润无声物业发展有限责任公司,30.645029696930756,104.05169742348902,公司企业;公司;公司
川越广告,30.6558845430801,104.07065004487232,公司企业;公司;广告装饰|生活服务;生活服务场所;生活服务场所
成都金税妙算,30.659937134991694,104.08267391788128,公司企业;公司;公司|金融保险服务;金融保险服务机构;金融保险机构
佰能电力,30.669828901675558,104.07963778997619,公司企业;公司;公司
四川嘉陵电力有限公司,30.65975096677121,104.08638364738552,公司企业;公司;公司
总府集团,30.6626561597763,104.07273377913508,公司企业;公司;公司
成都市保安服务总公司武侯区分公司,30.64542905442154,104.07862375602154,公司企业;公司;公司
四川人福生物环保有限公司,30.679641010579207,104.08156789280658,公司企业;公司;公司
求实工程管理有限公司四川分公司,30.64020844587403,104.07869681146319,公司企业;公司;公司
安迅(北京)金融设备系统有限公司成都办事处,30.672514938098477,104.06696721173616,公司企业;公司;公司
北京智诚鼎业网络技术有限公司,30.64020844587403,104.07869681146319,公司企业;公司;网络科技
索尼移动通信产品(中国)有限公司,30.6645021948154,104.06781174988859,公司企业;公司;公司
成都恒通源水处理有限公司,30.685931978691166,104.07908048601354,公司企业;公司;公司
支付通新信息技术服务有限公司,30.682111499039934,104.0898229504214,公司企业;公司;网络科技
成都鑫汇实业有限公司,30.6597527462612,104.06099591633284,公司企业;公司;公司
西南润滑油销售分公司,30.68106539428124,104.07396832055458,公司企业;公司;公司
瑞祥高科技有限公司,30.653042913643077,104.06288024115409,公司企业;公司;网络科技
成都美联汇广告有限公司,30.65675698427281,104.06239256190014,公司企业;公司;公司
四川省五交化股份有限公司,30.673466083182596,104.070594755623,公司企业;公司;公司
长陆工业自动控制系统有限公司,30.676379719184578,104.0525830723215,公司企业;公司;公司
广州市美高工业器材有限公司(游乐园滨河路),30.673979804785507,104.08657744433353,公司企业;公司;公司
成都市韵美华川贸易有限公司,30.682111499039934,104.0898229504214,公司企业;公司;商业贸易
国华荏原环境工程有限责任公司,30.658752421329293,104.06217589407873,公司企业;公司;公司
成都奇迹之光健身有限公司,30.67913286442192,104.0603565843592,公司企业;公司;公司
国控四川医药(将军街),30.66415221377512,104.05318278194866,公司企业;公司;医药公司
中国航天工业供销西南公司,30.665569111906,104.097150774846,公司企业;公司;公司
重庆长江工业炉制造有限公司,30.657513369653074,104.09355748823161,公司企业;公司;公司
鼎铭投资,30.67132116074892,104.05408609541477,公司企业;公司;公司
四川世纪晶诚机电工程有限公司,30.64020844587403,104.07869681146319,公司企业;公司;公司
立信建设监理,30.669828901675558,104.07963778997619,公司企业;公司;建筑公司
成都公交集团北星巴士有限公司,30.675902068448135,104.08154717479592,公司企业;公司;公司
成都启名电力公司,30.651388073375063,104.09285029719388,公司企业;公司;公司
海瑞弗空调设备(北京)有限公司成都办事处,30.66809022189994,104.08065725648406,公司企业;公司;公司
Premier Farnell全球技术服务中心,30.663515750746736,104.06898474927527,公司企业;公司;公司
琥珀网络技术有限公司,30.656969565365618,104.06248118619285,公司企业;公司;公司
曼钰医疗设备,30.647655433894553,104.06065217418157,公司企业;公司;医药公司
成都康德源科技开发有限公司,30.647870625546673,104.07876879188296,公司企业;公司;网络科技
苏州智能配电自动化有限公司,30.6759984275249,104.07823763847331,公司企业;公司;公司
重庆伊士顿电梯公司,30.665821592414428,104.0575981006335,公司企业;公司;公司
中建保华建筑公司,30.682614485142246,104.07753170131117,公司企业;公司;公司
湖南宏大空调设备有限公司,30.66297358064025,104.05363306396045,公司企业;公司;公司
成都中储粮收储经销有限公司,30.65391156342124,104.081929768313,公司企业;公司;公司
六立方广告,30.649495160945925,104.08277649628012,公司企业;公司;广告装饰
雅仪广告有限责任公司,30.662901767532265,104.07562562651852,公司企业;公司;广告装饰
四川西南机械工业联营集团公司,30.65187536545851,104.0911842866995,公司企业;公司;机械电子
艺博广告喷绘,30.666571293868692,104.08621575488054,公司企业;公司;广告装饰|生活服务;生活服务场所;生活服务场所
西南油气田非常规油气开发事业部,30.67287380934698,104.08416834993376,公司企业;公司;冶金化工
中国建筑工程总公司驻西南办,30.679641010579207,104.08156789280658,公司企业;公司;建筑公司
杭州飞虹针织服饰有限公司,30.684659712295424,104.06829076498813,公司企业;公司;公司
成都好灵通科技有限公司,30.674993630286576,104.0771374811042,公司企业;公司;网络科技
成都蓝色飞扬广告艺术有限公司,30.640677130135693,104.06377849713886,公司企业;公司;广告装饰
银河万佳电子技术有限公司,30.672514938098477,104.06696721173616,公司企业;公司;机械电子
大公建设工程管理咨询有限责任公司,30.670956438855058,104.06837439480447,公司企业;公司;公司
成都美戈信息技术有限公司,30.666834502978972,104.06891541425377,公司企业;公司;网络科技
追银族饰品有限公司,30.677041020669737,104.06352401128025,公司企业;公司;公司
西南星火科技实业有限公司,30.667029561770025,104.06575969397629,公司企业;公司;网络科技
成都铭发置业有限公司,30.649779913295834,104.07462515146995,公司企业;公司;公司
成都合隹萍加邢薰司,30.66648656127977,104.07131534247642,公司企业;公司;机械电子
成都市引领建材有限公司,30.6587948370525,104.0944092259498,公司企业;公司;公司
四川永强机械施工有限公司,30.657513369653074,104.09355748823161,公司企业;公司;机械电子
E-C Translation Chengdu Office,30.6759984275249,104.07823763847331,公司企业;公司;公司
四川诺安盾科技有限公司,30.663679713179267,104.06973052010854,公司企业;公司;网络科技
四川物资产业集团总公司(暑袜北一街),30.66618201940071,104.07362217485043,公司企业;公司;公司
成都上海家化销售有限公司,30.662901767532265,104.07562562651852,公司企业;公司;公司
仁杰企业,30.671839278495998,104.08631658448708,公司企业;公司;广告装饰
娅昂诗,30.66421305664912,104.08890753155444,公司企业;公司;公司
龙安泛华建筑工程顾问有限公司,30.679256093999943,104.07256068431425,公司企业;公司;建筑公司
真彩设计有限公司,30.67642702808872,104.06754665122533,公司企业;公司;广告装饰
成都君悦传单派发公司,30.658094722214656,104.07647165886543,公司企业;公司;公司
鑫贝特节能科技有限公司,30.676142412409405,104.08079562734547,公司企业;公司;网络科技
和采广告,30.669819769508525,104.07762559485651,公司企业;公司;广告装饰
康达美容化妆品公司,30.657849422208006,104.06223755656033,公司企业;公司;公司
四川金地菌类公司,30.649429720143075,104.05657175384854,公司企业;公司;公司
二滩建设咨询工程公司,30.661581639040726,104.09432304172675,公司企业;公司;公司
至诚企业PCD纹绣,30.65770290220199,104.0652471574699,公司企业;公司;公司
四川宏恩房地产开发有限公司,30.673979804785507,104.08657744433353,公司企业;公司;公司
融博广告,30.669828901675558,104.07963778997619,公司企业;公司;广告装饰
成都匠首科技有限公司,30.656888985730767,104.06240432387324,公司企业;公司;公司
卧龙文化服务部,30.65569817113219,104.0705713714275,公司企业;公司;广告装饰
全民车贷有限公司,30.651934611379495,104.08286732940236,公司企业;公司;公司
用友软件成都营销中心,30.655921766711426,104.07510845872969,公司企业;公司;公司
伊藤洋华堂集团客户中心,30.65907437916299,104.07412760810605,公司企业;公司;公司
四川鹏翔建筑有限公司,30.68114443493989,104.07946875248084,公司企业;公司;建筑公司
慧儒餐饮管理咨询有限公司,30.66815962885999,104.08099615827352,公司企业;公司;公司
成都锲金科技有限公司,30.66936688292265,104.08014373741224,公司企业;公司;网络科技
成都红婆网婚介公司,30.65355224145223,104.0790180963433,公司企业;公司;公司
成都金瑞通实业股份有限公司(人民东路),30.662650738126846,104.06494994003098,公司企业;公司;公司
成都嘉石科技有限公司,30.655323109023996,104.06241714791273,公司企业;公司;网络科技
网成科技有限公司,30.652661357749214,104.06451208986299,公司企业;公司;网络科技
四川裕恒商贸有限公司,30.67162061624316,104.06685993908268,公司企业;公司;商业贸易
成都赢富网络科技有限公司,30.657227826576726,104.07050759901274,公司企业;公司;网络科技
哥弟服饰公司,30.667312009843776,104.0675693499067,公司企业;公司;公司
成都盛世天涯科技发展有限公司,30.683683835745548,104.07428329108365,公司企业;公司;网络科技
成都成章科技有限公司,30.66814262353756,104.08071116114117,公司企业;公司;网络科技
猎聘网(红星路三段),30.6600440017303,104.07612702869196,公司企业;公司;网络科技
成都市兢升科技有限公司,30.672005478545707,104.08454307827667,公司企业;公司;网络科技
成都娇子实业发展有限公司,30.672175447227332,104.05145013526086,公司企业;公司;公司
睿智天行广告策划,30.65230641858908,104.08047443251071,公司企业;公司;广告装饰
四川亨瑞出入境事务咨询有限公司,30.6597527462612,104.06099591633284,公司企业;公司;公司
精益通翻译,30.673405344968423,104.06897369762687,公司企业;公司;公司|生活服务;生活服务场所;生活服务场所
成都新达房地产开发有限公司,30.672514938098477,104.06696721173616,公司企业;公司;公司
戴尔曼消毒卫生用品有限责任公司,30.64020844587403,104.07869681146319,公司企业;公司;公司
盛业防水,30.66959380122289,104.08001228454327,公司企业;公司;公司
四川阳明实业集团,30.65230641858908,104.08047443251071,公司企业;公司;公司
成都市医药集团,30.663651419720374,104.05271767851298,公司企业;公司;医药公司
成都捷创科技有限公司,30.6702703117382,104.07794775616355,公司企业;公司;网络科技
爱美高实业(成都)有限公司,30.663515750746736,104.06898474927527,公司企业;公司;公司
四川天力招标有限公司,30.66524539932573,104.05661809063824,公司企业;公司;公司
晶保丽美业,30.656927260807816,104.06244125853452,公司企业;公司;公司
四川锦能电力设计有限公司,30.680671316359145,104.07359004461324,公司企业;公司;公司
520婚礼学院,30.662862272523306,104.07601474257804,公司企业;公司;公司
成都爱华资源管理有限公司,30.664583322375492,104.05607829079868,公司企业;公司;公司
蜀德科技,30.669828901675558,104.07963778997619,公司企业;公司;网络科技
四川奇达实业有限责任公司,30.66809022189994,104.08065725648406,公司企业;公司;公司
艾尔斯商贸(上海)有限公司,30.663515750746736,104.06898474927527,公司企业;公司;商业贸易
世纪翰元,30.669828901675558,104.07963778997619,公司企业;公司;公司
成都亚林古建筑设计有限公司,30.663539440357948,104.05504015404355,公司企业;公司;建筑公司
成都振康化工有限公司,30.648472683933548,104.07904982092391,公司企业;公司;冶金化工
科医人激光(荷兰)公司成都代表处,30.663515750746736,104.06898474927527,公司企业;公司;公司
九亿佳科技有限公司,30.668273801434403,104.08047788371879,公司企业;公司;公司
川都计测仪器有限公司,30.65852147068807,104.09279456698145,公司企业;公司;公司
中国教育服务中心成都分公司,30.665821592414428,104.0575981006335,公司企业;公司;公司
四川三维系统工程有限责任公司,30.667168087228564,104.06704156869148,公司企业;公司;公司
成都益商房屋开发公司,30.64882215315298,104.07899723110195,公司企业;公司;公司
中国非药物疗法网站,30.67034838121987,104.0791657336654,公司企业;公司;网络科技
成都全搜索新闻网,30.66552451005634,104.0804851619467,公司企业;公司;网络科技
四川招投标网(玉沙路),30.66935653523474,104.07856959135646,公司企业;公司;网络科技
成都信昌石化产品有限公司,30.664492396440842,104.06721070268352,公司企业;公司;冶金化工
成都鑫源建设开发公司,30.669828901675558,104.07963778997619,公司企业;公司;建筑公司
四川云星房地产开发有限公司,30.660492670661558,104.06716322496045,公司企业;公司;公司
成都鸿泰房地产开发公司,30.657281082192426,104.08599114252495,公司企业;公司;公司
成都铁路局印刷厂,30.676414396994918,104.06020486393399,公司企业;工厂;工厂
黑暗中对话/中国,30.650073073659094,104.07227940126364,公司企业;公司;公司
成都晟峰软件有限公司(大川巷),30.64882215315298,104.07899723110195,公司企业;公司;网络科技
MC-Mutual Corporation,30.673979804785507,104.08657744433353,公司企业;公司;公司
成都豪铖科技有限公司,30.666303254054473,104.08594024023525,公司企业;公司;网络科技
百家好(上海)时装有限公司,30.651670920128403,104.08456096235365,公司企业;公司;公司
成都市美联蜀房地产开发有限公司,30.672175447227332,104.05145013526086,公司企业;公司;公司
上海旭阳传动技术有限公司,30.67162061624316,104.06685993908268,公司企业;公司;公司
山水通讯,30.666282567346062,104.072048812704,公司企业;公司;公司
四川龙源电力开发公司,30.654040732685637,104.07278456744734,公司企业;公司;公司
山特维克国际贸易(上海)有限公司成都办事处,30.6600440017303,104.07612702869196,公司企业;公司;商业贸易
中海油销售四川有限公司,30.65469057463086,104.09016723499755,公司企业;公司;冶金化工
成都数码通广告有限公司,30.67877828086582,104.07859025817342,公司企业;公司;广告装饰
选蓉网,30.65176160808927,104.0844947985437,公司企业;公司;网络科技
四川省农业机械供应总公司,30.67336660560604,104.06986387000168,公司企业;公司;公司
四川省外商投资企业服务中心,30.664492396440842,104.06721070268352,公司企业;公司;公司
成都市沙河综合整治工程项目管理有限公司,30.663527182444565,104.0575264577798,公司企业;公司;公司
成都群星工程建设监理咨询公司,30.679256093999943,104.07256068431425,公司企业;公司;建筑公司
四川山津医疗设备有限公司,30.658008112734603,104.06122515367056,公司企业;公司;医药公司
成都赛力安实业有限公司,30.65803818008852,104.05726465486539,公司企业;公司;公司
成都爱妆化妆品有限公司,30.657849422208006,104.06223755656033,公司企业;公司;公司
博世高雅企业管理(集团)有限公司,30.66406556958929,104.06593337309107,公司企业;公司;公司
成都英孚凯尔信息技术有限公司,30.66784370720948,104.06677623990016,公司企业;公司;网络科技
成都市晋锐刀具机械贸易有限公司,30.6724108706366,104.0716619255307,公司企业;公司;商业贸易
奥博克信息系统有限公司,30.678709150256804,104.07765729395082,公司企业;公司;公司
中国电信股份有限公司(成都青羊区分公司),30.67076510994377,104.05509228879615,公司企业;公司;电信公司
四川易客来科技有限公司,30.648856394249663,104.07899517350597,公司企业;公司;网络科技
中粮食品营销有限公司成都分公司,30.65803818008852,104.05726465486539,公司企业;公司;公司
宇通科技(玉沙路),30.669828901675558,104.07963778997619,公司企业;公司;网络科技
成都明航科技,30.663894562058644,104.07159631545764,公司企业;公司;网络科技
杭州万事利职业服装有限公司(一环路东三段),30.657513369653074,104.09355748823161,公司企业;公司;公司
成佳诚商贸公司,30.663866028091757,104.07869812951434,公司企业;公司;商业贸易
成都米兔科技有限公司,30.660243716551307,104.06717168877567,公司企业;公司;网络科技
成都深冷空分设备工程有限公司,30.660090206181447,104.08726210864882,公司企业;公司;公司
卓茂科技(玉沙路),30.669828901675558,104.07963778997619,公司企业;公司;网络科技
冠城广场写字楼,30.671925255203725,104.06658531679997,公司企业;公司;网络科技
积之信客户签约区,30.656586258199834,104.07629638632757,公司企业;公司;公司
帑诚控股公司,30.651788848595277,104.08222251467767,公司企业;公司;公司
四川皇巢装饰工程有限公司,30.649535013931445,104.0880819775502,公司企业;公司;公司
成都蜀源房地产开发有限公司,30.654040732685637,104.07278456744734,公司企业;公司;公司
予设计高级定制,30.662806079082884,104.0754697903461,公司企业;公司;公司
成都银氏物业,30.658337962725387,104.06703919259326,公司企业;公司;公司
成都中邮时代电讯科技有限公司,30.67062740909582,104.07545979891957,公司企业;公司;网络科技
成都中轩数码娱乐有限公司,30.66382122413272,104.056047734264,公司企业;公司;公司
拾得科技,30.664492396440842,104.06721070268352,公司企业;公司;网络科技
树人传媒有限公司,30.665178830897744,104.05668622527409,公司企业;公司;公司
泰格软件,30.669824869108982,104.07963679768024,公司企业;公司;网络科技
橙网科技,30.669828901675558,104.07963778997619,公司企业;公司;网络科技
达华工程管理(集团)有限公司天信分公司,30.671322849189774,104.07604651164819,公司企业;公司;公司
成都铁路成都站的劳动服务公司,30.676174672879334,104.06387573936564,公司企业;公司;公司
成都威士通数码科技有限公司(飞毛腿仓库),30.669384600057423,104.07251689039403,购物服务;家电电子卖场;数码电子|公司企业;公司企业;公司企业
成都安捷科技有限公司,30.664461510130508,104.07072514471314,公司企业;公司;网络科技
四川质量咨询服务有限公司,30.649549558582045,104.05659355397788,公司企业;公司;公司
四川中电华龙有限责任公司,30.667059042451488,104.09737894297147,公司企业;公司;公司
科鹏广告,30.664908283719793,104.08750406586988,公司企业;公司;广告装饰
四川省赛特电子有限公司,30.66406556958929,104.06593337309107,公司企业;公司;机械电子
四川恒伟商务(礼品)公司,30.66297358064025,104.05363306396045,公司企业;公司;公司
克瑞斯管理顾问有限公司,30.664492396440842,104.06721070268352,公司企业;公司;公司
哈尔滨万晟达医疗设备有限公司,30.672005478545707,104.08454307827667,公司企业;公司;医药公司
护窗商贸,30.656339512081036,104.06519362736603,公司企业;公司;公司
华睿服饰有限公司,30.659681635833536,104.07081612875223,公司企业;公司;公司
成都三六五网络科技有限公司,30.65254169087493,104.08798080171034,公司企业;公司;公司
通德集团,30.66239963766787,104.0759306051788,公司企业;公司;公司
四川宝清果业集团有限公司,30.67162061624316,104.06685993908268,公司企业;公司;公司
成都金松营销有限公司,30.65151243285547,104.08530131295953,公司企业;公司;公司
达达,30.652613772802386,104.06719646866979,公司企业;公司企业;公司企业
全心房地产营销策划广告有限公司,30.67877828086582,104.07859025817342,公司企业;公司;广告装饰
康宝莱成都分公司,30.651350128844797,104.08340639632748,公司企业;公司;公司
重庆贝瑞礼品有限公司,30.659962799403246,104.07735330991964,公司企业;公司;公司
四川中颐建筑设计院有限责任公司,30.678709150256804,104.07765729395082,公司企业;公司;公司
四川华慧工程造价咨询有限公司,30.65002543794785,104.07946725049493,公司企业;公司;建筑公司
毕马威企业咨询(中国)有限公司成都分公司,30.660492670661558,104.06716322496045,公司企业;公司;公司
四川明昕医疗器械有限公司,30.662975595297073,104.05363606049863,公司企业;公司;医药公司
艺达思贸易(上海)有限公司成都办事处,30.663515750746736,104.06898474927527,公司企业;公司;商业贸易
四川众望通讯有限公司,30.66349221821313,104.06972487444523,公司企业;公司;公司
钶洛迪雅商贸有限公司,30.67025412999823,104.06952388237495,公司企业;公司;公司
证大喜马拉雅网络有限公司,30.682110490728828,104.08982295237286,公司企业;公司;公司
四川天立宏科技有限公司,30.674993630286576,104.0771374811042,公司企业;公司;公司
文殊坊-招商中心,30.678127797645416,104.07034564132637,公司企业;公司企业;公司企业
成都世纪雅途教育咨询有限公司,30.674993630286576,104.0771374811042,公司企业;公司;公司
成都市万年物业有限公司,30.65852147068807,104.09279456698145,公司企业;公司;公司
金泽文化广告有限公司,30.66589270419846,104.0800044076799,公司企业;公司;广告装饰
四川国栋建设集团有限公司,30.66007901727494,104.05728889602784,公司企业;公司;公司
成都思念食品有限责任公司,30.6759984275249,104.07823763847331,公司企业;公司;公司
成都维兴科技实业有限公司,30.6724108706366,104.0716619255307,公司企业;公司;网络科技
成都鹏博士科技股份有限公司(顺城大街),30.66360778946204,104.06618626858236,公司企业;公司;网络科技
成都德诚智能卡科技有限公司,30.673979804785507,104.08657744433353,公司企业;公司;网络科技
四川故宫酒公司,30.652699033086947,104.05930544434214,公司企业;公司;公司
四川省场道工程公司,30.678709150256804,104.07765729395082,公司企业;公司;公司
舍弗勒贸易(上海)有限公司成都代表处,30.663515750746736,104.06898474927527,公司企业;公司;商业贸易
习之科技,30.650926501183644,104.08684248064266,公司企业;公司;公司
同方股份有限公司数字城市科技公司,30.672514938098477,104.06696721173616,公司企业;公司;网络科技
成都盛美化妆品有限公司,30.657849422208006,104.06223755656033,公司企业;公司;公司
张家源,30.657924032963475,104.06215841137436,公司企业;公司;公司
惠诚科技,30.667788092711714,104.0735330811793,公司企业;公司;公司
云南龙肯翡翠有限公司,30.657849422208006,104.06223755656033,公司企业;公司;公司
分享科技,30.656969565365618,104.06248118619285,公司企业;公司;公司
成都一对一会议服务公司,30.66335880346964,104.0661817392007,公司企业;公司;公司
衣邦人成都展厅,30.663896576310627,104.07160031207117,公司企业;公司;公司
硕博教育服务公司,30.669828901675558,104.07963778997619,公司企业;公司;公司
艾思唯尔文化传播,30.656134521893048,104.07479504184529,公司企业;公司;广告装饰
成都影匠摄影有限责任公司,30.657980508889256,104.06638777577713,公司企业;公司;公司
成都蜀安印章有限公司,30.671338386175567,104.07943584096114,公司企业;公司;公司
四川辉阳生命工程股份有限公司,30.66809022189994,104.08065725648406,公司企业;公司;公司
中国石油天然气销售西南分公司,30.675385005760642,104.09170322645234,公司企业;公司;公司
蓉城电力与信息管线投资有限公司,30.647870625546673,104.07876879188296,公司企业;公司;公司
成都优诺文化有限公司,30.648110814900097,104.07762627232997,公司企业;公司;公司
成都墨瑞景观设计有限公司,30.66806511785219,104.06121219803005,公司企业;公司;公司
戈多广告,30.667123749226317,104.07983302965422,生活服务;生活服务场所;生活服务场所|公司企业;公司企业;公司企业
一妆时尚文化传播有限公司,30.664712419411625,104.08168383595178,公司企业;公司;公司
利比有限公司(东御街),30.65970354998348,104.06274620220609,公司企业;公司;公司
四川华通建设工程造价管理有限公司,30.667168087228564,104.06704156869148,公司企业;公司;建筑公司
四川合石工程咨询监理有限公司,30.662196317765677,104.08822927304197,公司企业;公司;公司
天音移动四川省成都市总代理,30.670653192354063,104.07424161846218,公司企业;公司;电信公司
成都旭佳广告有限公司,30.670220597357556,104.06794177474045,公司企业;公司;公司
阿尔卡,30.66349221821313,104.06972487444523,公司企业;公司;公司
腾讯企业QQ四川服务中心,30.672982522050223,104.067552365743,公司企业;公司;网络科技
成都少城建设管理有限责任公司(西玉龙街),30.671233101342885,104.06542353399442,公司企业;公司;建筑公司
成都简博市场研究有限公司,30.657849422208006,104.06223755656033,公司企业;公司;公司
四川瑞来农业发展有限公司,30.653908465906355,104.08209179074605,公司企业;公司;公司
红宇广告(拐枣树街),30.66996056729219,104.0762511759981,公司企业;公司;广告装饰
成都摩品广告设计有限公司,30.657849422208006,104.06223755656033,公司企业;公司;广告装饰
成都奇锐医疗器械用品有限公司,30.654040732685637,104.07278456744734,公司企业;公司;医药公司
成都川小二科技有限公司,30.67057651428493,104.07434477826247,公司企业;公司;网络科技
成都瑞伯利商务有限公司,30.67877828086582,104.07859025817342,公司企业;公司;公司
隆韵文化传播,30.66246427112365,104.08859380624547,公司企业;公司;广告装饰
广告展示制作中心,30.666461373831527,104.0755628477055,公司企业;公司;广告装饰
四川三树节能科技有限公司,30.66855542107253,104.08620393609625,公司企业;公司;网络科技
成都蓝草坪贸易有限公司,30.662196317765677,104.08822927304197,公司企业;公司;商业贸易
美讯科技,30.67137875940303,104.0729580719824,公司企业;公司;公司
求实建设工程技术经济有限公司,30.664005077917878,104.07883187996539,公司企业;公司;公司
世茂建筑咨询,30.67067233693348,104.07426858421637,公司企业;公司;建筑公司
Hey ENTERTAINMENT,30.660020829987683,104.07610706955565,公司企业;公司企业;公司企业
元福广告,30.675186815347075,104.07801419745472,公司企业;公司;广告装饰
尼恩文化传播,30.664881977844026,104.08985735599714,公司企业;公司;广告装饰
成都微修侠科技有限公司,30.670358303186177,104.07310806849947,公司企业;公司;网络科技
北京糯米网科技有限公司,30.6689673609381,104.06574495898724,公司企业;公司;网络科技
成都仁鼎电子有限公司,30.67062740909582,104.07545979891957,公司企业;公司;机械电子
巨圣品牌四川运营中心,30.67609939953083,104.07794941104461,公司企业;公司;公司
博纳广告(人民中路一段),30.66489581553066,104.06254442011175,公司企业;公司;广告装饰
新加坡胜安航空公司成都办事处,30.672514938098477,104.06696721173616,公司企业;公司;公司
四川省林业科技开发实业总公司,30.683612946441073,104.06863281637736,公司企业;公司;公司
成都东元信息技术有限公司,30.67062740909582,104.07545979891957,公司企业;公司;公司
锦发建筑安装工程有限责任公司,30.668614459550735,104.09357557022226,公司企业;公司;建筑公司
成都俊铭科技有限公司,30.66446749147157,104.07086814885518,公司企业;公司;公司
圣牧乳业有限公司,30.6597697429545,104.08718369483536,公司企业;公司;公司
四川天成工程造价咨询有限公司,30.678274771544885,104.07930931459332,公司企业;公司;建筑公司
成都力森通讯设备有限公司,30.66349221821313,104.06972487444523,公司企业;公司;公司
成都瑞联电子科技有限公司,30.67162061624316,104.06685993908268,公司企业;公司;机械电子
深圳市商贸通进出口贸易有限公司,30.657849422208006,104.06223755656033,公司企业;公司;商业贸易
成都西南油井管开发有限公司,30.66360778946204,104.06618626858236,公司企业;公司;公司
深圳百多尔时装有限公司(梨花街),30.657849422208006,104.06223755656033,公司企业;公司;公司
成都新闻实业有限责任公司(红星路二段),30.66552451005634,104.0804851619467,公司企业;公司;公司
成都金贝代理记帐有限公司,30.66011868956518,104.06727693250717,公司企业;公司;公司
成都蓉城老妈实业有限公司(总部),30.67972871055754,104.08162172791316,公司企业;公司;公司
广州康蓓实业有限公司(少城路),30.66297358064025,104.05363306396045,公司企业;公司;公司
四川省韵律实业发展公司,30.664492396440842,104.06721070268352,公司企业;公司;公司
四川繁发盛世商贸有限公司,30.656608755516462,104.07125980396773,公司企业;公司;公司
成都轻灵数码科技有限公司,30.65245451064693,104.08045217213132,公司企业;公司;公司
龙安通宸规划建筑设计有限公司,30.679256093999943,104.07256068431425,公司企业;公司;建筑公司
成都鹏辉通讯发展有限公司,30.66349221821313,104.06972487444523,公司企业;公司;公司
帝斯曼(中国)有限公司成都分公司,30.672514938098477,104.06696721173616,公司企业;公司;公司
成都海天印务设计中心,30.657849422208006,104.06223755656033,公司企业;公司;公司
锐声音响有限公司,30.66935653523474,104.07856959135646,公司企业;公司;公司
中国美酷国际集团,30.67504208545831,104.07702237439221,公司企业;公司;公司
成都鑫万基房地产经纪有限公司,30.66876501717929,104.06081780389488,公司企业;公司;公司
四川建南建筑装饰有限公司,30.67794355695389,104.08030706489276,公司企业;公司;建筑公司
四川百思微科技有限公司,30.669828807494525,104.0734351296187,公司企业;公司;网络科技
成都恩承科技股份有限公司,30.668614459550735,104.09357557022226,公司企业;公司;公司
四川国泰民安科技有限公司,30.657849422208006,104.06223755656033,公司企业;公司;网络科技
北京三友亚星通信科技有限公司,30.65002543794785,104.07946725049493,公司企业;公司;公司
四川升远科技发展有限公司,30.666372629861367,104.08848336814557,公司企业;公司;网络科技
攀枝花托利多电子衡器有限公司,30.65852147068807,104.09279456698145,公司企业;公司;机械电子
成都弥生教育咨询有限公司,30.662790967309498,104.07545181691951,公司企业;公司;公司
四川博康医疗器械有限公司,30.661220399953134,104.08006725541199,公司企业;公司;医药公司
青春公司,30.671555477938007,104.06176150238973,公司企业;公司;公司
禅之庭健康咨询有限公司,30.655421064059272,104.06194692011738,公司企业;公司;公司
四川省生态环境建设工程监理有限公司,30.683612946441073,104.06863281637736,公司企业;公司;公司
四川中投信置业有限公司,30.672514938098477,104.06696721173616,公司企业;公司;公司
成都晶宏达化妆品有限公司,30.667628276518823,104.06608557876366,公司企业;公司;公司
四川川奇机电有限公司,30.67062740909582,104.07545979891957,公司企业;公司;机械电子
邦纳电子(苏州)有限公司,30.65579926817672,104.06119115697352,公司企业;公司;机械电子
皖东仪表电缆成套系统有限公司,30.677901197165635,104.08032614943245,公司企业;公司;公司
四川鑫和投资集团,30.653503876047562,104.07903518337372,公司企业;公司;公司
成都易控自动化工程有限公司,30.667059042451488,104.09737894297147,公司企业;公司;公司
成都市毕恩特信息科技有限公司,30.66406556958929,104.06593337309107,公司企业;公司;网络科技
四川万信合集团,30.659819440741707,104.07787163070891,公司企业;公司;公司
金色圣典广告公司,30.657849305845232,104.07112753317695,公司企业;公司;广告装饰
成都石化基地建设开发有限责任公司,30.66364052342716,104.05659413822431,公司企业;公司;公司
成都国川物资公司,30.6759984275249,104.07823763847331,公司企业;公司;公司
锦江药房设施实业有限公司,30.653042913643077,104.06288024115409,公司企业;公司;医药公司
植发机器人养发活细胞液,30.66681639385042,104.0560110161944,公司企业;公司;公司
时代美视广告,30.656879878068878,104.06897306397225,公司企业;公司;广告装饰
盛和天下集团,30.658746017794748,104.07805363181106,公司企业;公司企业;公司企业
四川龙本企业管理有限公司,30.669848063811266,104.0796267517063,公司企业;公司;公司
汇川广告(德盛路),30.67216643001159,104.0725664987267,公司企业;公司;广告装饰
四川思博建筑设计有限公司,30.669828901675558,104.07963778997619,公司企业;公司;建筑公司
成都东皇商贸有限公司,30.66276264078228,104.07566989363508,公司企业;公司;公司
四川正源中溯科技有限公司,30.664807508151426,104.05311852893111,公司企业;公司;公司
成都华日无线监测技术有限公司,30.64020844587403,104.07869681146319,公司企业;公司;公司
四川二十四城科技有限公司,30.672786865476155,104.07614067480185,公司企业;公司;网络科技
成都青禅展览展示有限公司,30.657849422208006,104.06223755656033,公司企业;公司;公司
中海燃气,30.662901767532265,104.07562562651852,公司企业;公司;公司
成都一方电信有限公司,30.66349221821313,104.06972487444523,公司企业;公司;公司
贵州建工,30.66335692303554,104.07663487446867,公司企业;公司;建筑公司
四川省文联四川文艺网,30.66384755330505,104.07940123881522,公司企业;公司;网络科技
四川桓源科技实业有限公司,30.671322849189774,104.07604651164819,公司企业;公司;网络科技
四川汉邦药业有限责任公司,30.654040732685637,104.07278456744734,公司企业;公司;医药公司
江电工程承包公司,30.6759984275249,104.07823763847331,公司企业;公司;公司
中移铁通有限公司四川分公司,30.67877828086582,104.07859025817342,公司企业;公司;电信公司
四川圣启有限公司,30.67072101935948,104.07579765340577,公司企业;公司;公司
绿洲绿丰地基基础工程有限公司,30.65803818008852,104.05726465486539,公司企业;公司;公司
成都地利科贸有限公司,30.6759984275249,104.07823763847331,公司企业;公司;公司
琦瑞珠宝加工定制,30.657849422208006,104.06223755656033,公司企业;公司;公司
金裕珠宝加工维修,30.657849422208006,104.06223755656033,公司企业;公司;公司
张家源珠宝加工,30.657849422208006,104.06223755656033,公司企业;公司;公司
成都宝盛首饰器材包装,30.657849422208006,104.06223755656033,公司企业;公司;公司
弗曼科斯(上海)电子有限公司成都分公司,30.657849422208006,104.06223755656033,公司企业;公司;机械电子
伊顿公司,30.658008112734603,104.06122515367056,公司企业;公司;公司
权健(四川)分公司,30.672552396448307,104.06665010405644,公司企业;公司;公司
博智教育成都分公司,30.6597527462612,104.06099591633284,公司企业;公司;公司
ITT(中国)成都办事处,30.6597527462612,104.06099591633284,公司企业;公司;公司
四川越航假期,30.6597527462612,104.06099591633284,公司企业;公司;公司
广东省吉荣空调设备公司(金盾路),30.65803818008852,104.05726465486539,公司企业;公司;公司
同成广告(东华正街),30.663798633643683,104.06550283187138,公司企业;公司;广告装饰
安居集团,30.654299024174353,104.0763244894353,公司企业;公司;公司
澳大利亚澳洲通移民中心(成都代表处),30.657849422208006,104.06223755656033,公司企业;公司;公司
云南南药梁河制药有限公司,30.667060480154117,104.0557895225558,公司企业;公司;医药公司
四川返点网络科技有限公司,30.65359255945521,104.07897502071464,公司企业;公司;网络科技
四川锋宇宝科技股份有限公司,30.65133914586116,104.08319639337981,公司企业;公司;公司
四川一直大牛科技有限公司,30.654526437542515,104.07693815082372,公司企业;公司;网络科技
四川启明星电力装备制造集团有限责任公司,30.654040732685637,104.07278456744734,公司企业;公司;公司
